#RANGEA,COM1,0,98.0,FINE,2427,351586.000,1013911,3,18;29,19,0,22251091.753,0.058,-116930257.560933,0.006,-3244.868,45.8,932.016,08181c24,19,0,22251087.062,0.104,-91114469.192954,0.009,-2528.755,42.8,931.016,01301c2b,13,0,22805578.121,0.085,-119844117.325625,0.008,-2102.157,42.4,663.000,08181d44,13,0,22805575.404,0.204,-93385018.054776,0.020,-1638.173,36.4,659.000,01301d4b,13,0,22805580.461,0.082,-89493985.450940,0.008,-1569.760,42.7,662.000,01d01d40,12,0,22594641.054,0.076,-118735640.412045,0.007,-2029.372,43.5,915.016,08181da4,12,0,22594635.788,0.103,-92521259.200946,0.009,-1581.533,42.9,911.016,01301dab,5,0,21422771.618,0.050,-112577422.972432,0.006,2073.618,46.8,921.016,08181dc4,5,0,21422767.939,0.080,-87722656.243797,0.007,1616.725,45.0,917.016,01301dcb,40,12,20356104.578,0.040,-108967815.781341,0.005,3184.847,53.3,882.000,08191c24,40,12,20356088.163,0.049,-84752682.371859,0.006,2477.139,46.8,882.000,00b91c2b,3,0,36952989.205,0.040,-192423898.797452,0.005,62.694,48.4,933.016,0c1c1c24,3,0,36952960.733,0.040,-156360067.914610,0.005,50.980,48.1,932.016,06a41c20,1,0,37762463.823,0.040,-196639049.327183,0.005,-1.694,51.5,917.016,0c1c1c44,1,0,37762443.968,0.040,-159785257.382215,0.005,-1.315,48.8,916.016,06a41c40,2,0,37749853.174,0.064,-196573391.082737,0.006,75.651,45.0,921.016,0c1c1c64,2,0,37749820.474,0.069,-159731839.169958,0.007,61.515,44.4,920.016,06a41c60,4,0,38997808.220,0.277,-203071811.406393,0.026,59.230,35.2,26.000,0c1c1c84,4,0,38997780.326,0.129,-165012371.786234,0.011,48.298,37.2,27.000,06a41c80,8,0,36204793.339,0.040,-188527861.211119,0.005,-348.168,48.9,925.016,081c1d04,8,0,36204778.554,0.042,-153194265.267505,0.005,-282.918,47.8,925.016,02a41d00,9,0,37007629.502,0.040,-192708439.921971,0.005,415.412,48.7,924.016,081c1d24,9,0,37007615.364,0.080,-149014329.506570,0.007,321.225,43.0,923.016,023c1d2b,9,0,37007615.112,0.057,-156591326.723443,0.006,337.552,45.9,919.016,02a41d20,12,0,23960847.618,0.061,-124770431.365469,0.006,3127.900,45.3,919.016,081c1d84,12,0,23960830.996,0.067,-101386115.274931,0.007,2541.672,44.6,919.016,02a41d80,7,0,25568456.494,0.049,-134363154.022034,0.006,2399.312,46.9,755.000,083b1cc4,7,0,25568458.792,0.052,-100336125.432090,0.006,1791.756,46.5,755.000,01931ccb,7,0,25568454.271,0.080,-102953580.002076,0.008,1838.498,42.9,756.000,02331cc0*87939442
#BESTPOSA,COM1,0,98.0,FINE,2427,351586.000,1013911,30888,18;SOL_COMPUTED,SINGLE,34.36853411052,109.22187579686,501.7731,-33.6675,WGS84,10.4782,1.6568,12.8319,"",0.000,0.000,13,9,0,8,0,06,03,5b*4249c22c
#RANGEA,COM1,0,98.0,FINE,2427,351587.000,1014911,2,18;29,19,0,22251709.287,0.058,-116933502.566112,0.006,-3245.657,45.7,933.016,08181c24,19,0,22251704.610,0.105,-91116997.782132,0.009,-2529.433,42.8,932.016,01301c2b,13,0,22805978.124,0.086,-119846219.619515,0.008,-2102.984,42.3,664.000,08181d44,13,0,22805975.707,0.203,-93386656.216763,0.020,-1638.947,36.5,660.000,01301d4b,13,0,22805980.508,0.082,-89495555.346689,0.008,-1570.416,42.8,663.000,01d01d40,12,0,22595027.172,0.078,-118737669.988171,0.007,-2030.289,43.3,916.016,08181da4,12,0,22595021.937,0.103,-92522840.710208,0.009,-1581.869,42.9,912.016,01301dab,5,0,21422376.973,0.051,-112575349.588423,0.006,2072.716,46.6,922.016,08181dc4,5,0,21422373.298,0.081,-87721040.642883,0.008,1614.721,45.0,918.016,01301dcb,40,12,20355509.716,0.040,-108964631.217168,0.005,3183.767,53.4,883.000,08191c24,40,12,20355493.184,0.049,-84750205.493306,0.006,2476.245,46.9,883.000,00b91c2b,3,0,36952977.149,0.040,-192423836.095869,0.005,62.202,48.4,934.016,0c1c1c24,3,0,36952948.704,0.040,-156360016.968002,0.005,50.608,48.2,933.016,06a41c20,1,0,37762464.121,0.040,-196639050.962839,0.005,-2.133,51.4,918.016,0c1c1c44,1,0,37762444.221,0.040,-159785258.711637,0.005,-1.710,48.9,917.016,06a41c40,2,0,37749838.565,0.064,-196573315.398502,0.006,75.174,45.0,922.016,0c1c1c64,2,0,37749805.915,0.068,-159731777.679557,0.007,61.105,44.5,921.016,06a41c60,4,0,38997796.987,0.248,-203071752.152290,0.023,58.604,35.1,27.000,0c1c1c84,4,0,38997768.991,0.142,-165012323.648126,0.012,47.732,37.2,28.000,06a41c80,8,0,36204860.195,0.040,-188528209.394907,0.005,-348.742,48.8,926.016,081c1d04,8,0,36204845.441,0.041,-153194548.202155,0.005,-283.387,47.9,926.016,02a41d00,9,0,37007549.746,0.040,-192708024.590012,0.005,414.741,48.6,925.016,081c1d24,9,0,37007535.666,0.081,-149014008.339422,0.008,320.763,42.9,924.016,023c1d2b,9,0,37007535.394,0.056,-156590989.223307,0.006,337.075,46.0,920.016,02a41d20,12,0,23960246.958,0.061,-124767303.555289,0.006,3127.192,45.3,920.016,081c1d84,12,0,23960230.393,0.066,-101383573.678563,0.007,2541.113,44.7,920.016,02a41d80,7,0,25567999.952,0.048,-134360754.799847,0.006,2398.619,47.0,756.000,083b1cc4,7,0,25568002.250,0.052,-100334333.799892,0.006,1791.219,46.5,756.000,01931ccb,7,0,25567997.669,0.081,-102951741.645462,0.008,1837.887,42.9,757.000,02331cc0*3e961605
#BESTPOSA,COM1,0,98.0,FINE,2427,351587.000,1014911,31888,18;SOL_COMPUTED,SINGLE,34.36853373704,109.22187580304,501.8325,-33.6675,WGS84,10.4816,1.6569,12.8352,"",0.000,0.000,13,9,0,8,0,06,03,5b*97bd1bd7
#RANGEA,COM1,0,98.0,FINE,2427,351588.000,1015911,2,18;29,19,0,22252327.032,0.057,-116936749.268437,0.006,-3247.081,45.8,934.016,08181c24,19,0,22252322.266,0.104,-91119527.659500,0.009,-2529.888,42.9,933.016,01301c2b,13,0,22806378.492,0.083,-119848323.633353,0.008,-2104.370,42.6,665.000,08181d44,13,0,22806376.162,0.203,-93388295.734845,0.020,-1639.543,36.5,661.000,01301d4b,13,0,22806380.872,0.082,-89497126.518874,0.008,-1571.466,42.7,664.000,01d01d40,12,0,22595413.645,0.076,-118739701.338143,0.007,-2031.667,43.5,917.016,08181da4,12,0,22595408.473,0.104,-92524423.542482,0.009,-1583.053,42.8,913.016,01301dab,5,0,21421982.598,0.049,-112573277.944843,0.006,2071.330,46.9,923.016,08181dc4,5,0,21421979.073,0.080,-87719426.367618,0.008,1614.594,45.0,919.016,01301dcb,40,12,20354915.208,0.040,-108961448.642270,0.005,3182.061,53.4,884.000,08191c24,40,12,20354898.616,0.050,-84747730.159645,0.006,2474.971,46.7,884.000,00b91c2b,3,0,36952965.407,0.040,-192423774.718902,0.005,61.219,48.5,935.016,0c1c1c24,3,0,36952936.922,0.040,-156359967.096479,0.005,49.699,48.3,934.016,06a41c20,1,0,37762464.688,0.040,-196639053.918291,0.005,-3.154,51.5,919.016,0c1c1c44,1,0,37762444.827,0.040,-159785261.119218,0.005,-2.560,48.9,918.016,06a41c40,2,0,37749824.288,0.063,-196573241.038266,0.006,74.146,45.1,923.016,0c1c1c64,2,0,37749791.681,0.068,-159731717.256331,0.007,60.278,44.5,922.016,06a41c60,4,0,38997785.651,0.264,-203071694.164671,0.025,57.792,35.0,28.000,0c1c1c84,4,0,38997757.929,0.128,-165012276.571130,0.011,46.875,37.3,29.000,06a41c80,8,0,36204927.365,0.040,-188528559.024593,0.005,-349.867,48.9,927.016,081c1d04,8,0,36204912.641,0.040,-153194832.306279,0.005,-284.326,48.0,927.016,02a41d00,9,0,37007470.199,0.040,-192707610.693041,0.005,413.654,48.7,926.016,081c1d24,9,0,37007456.180,0.081,-149013688.288366,0.008,319.884,42.9,925.016,023c1d2b,9,0,37007455.845,0.056,-156590652.907288,0.006,336.106,46.0,921.016,02a41d20,12,0,23959646.516,0.062,-124764177.307794,0.006,3125.985,45.2,921.016,081c1d84,12,0,23959630.108,0.066,-101381033.343355,0.007,2540.130,44.8,921.016,02a41d80,7,0,25567543.720,0.048,-134358357.122738,0.006,2397.405,46.9,757.000,083b1cc4,7,0,25567546.015,0.051,-100332543.343079,0.006,1790.236,46.6,757.000,01931ccb,7,0,25567541.426,0.081,-102949904.459420,0.008,1837.016,42.9,758.000,02331cc0*f18773cb
#BESTPOSA,COM1,0,98.0,FINE,2427,351588.000,1015911,32888,18;SOL_COMPUTED,SINGLE,34.36853358986,109.22187577194,501.8739,-33.6675,WGS84,10.4851,1.6571,12.8385,"",0.000,0.000,13,9,0,8,0,06,03,5b*df4fbced
#RANGEA,COM1,0,98.0,FINE,2427,351589.000,1016911,2,18;29,19,0,22252944.894,0.058,-116939996.180618,0.006,-3246.872,45.7,935.016,08181c24,19,0,22252940.423,0.105,-91122057.736872,0.009,-2530.134,42.8,934.016,01301c2b,13,0,22806779.032,0.086,-119850427.911344,0.008,-2104.333,42.3,666.000,08181d44,13,0,22806776.072,0.206,-93389935.358167,0.021,-1639.491,36.3,662.000,01301d4b,13,0,22806781.285,0.082,-89498697.897079,0.008,-1571.399,42.7,665.000,01d01d40,12,0,22595800.112,0.080,-118741733.065722,0.007,-2031.637,43.0,918.016,08181da4,12,0,22595795.153,0.105,-92526006.732714,0.009,-1582.882,42.7,914.016,01301dab,5,0,21421588.348,0.052,-112571206.624447,0.006,2071.315,46.5,924.016,08181dc4,5,0,21421584.980,0.080,-87717812.346387,0.007,1613.529,45.0,920.016,01301dcb,40,12,20354320.767,0.040,-108958266.588525,0.005,3181.905,53.3,885.000,08191c24,40,12,20354304.074,0.050,-84745255.233665,0.006,2474.830,46.8,885.000,00b91c2b,3,0,36952953.586,0.040,-192423713.254399,0.005,61.606,48.5,936.016,0c1c1c24,3,0,36952925.144,0.040,-156359917.152857,0.005,50.041,48.2,935.016,06a41c20,1,0,37762465.221,0.040,-196639056.798462,0.005,-2.752,51.6,920.016,0c1c1c44,1,0,37762445.386,0.040,-159785263.456867,0.005,-2.269,48.9,919.016,06a41c40,2,0,37749809.987,0.062,-196573166.585478,0.006,74.593,45.2,924.016,0c1c1c64,2,0,37749777.372,0.068,-159731656.772503,0.007,60.547,44.5,923.016,06a41c60,4,0,38997774.450,0.294,-203071636.158705,0.027,58.134,35.1,29.000,0c1c1c84,4,0,38997746.750,0.127,-165012229.393629,0.011,47.285,37.4,30.000,06a41c80,8,0,36204994.524,0.040,-188528908.698162,0.005,-349.599,49.0,928.016,081c1d04,8,0,36204979.860,0.040,-153195116.436748,0.005,-284.028,48.0,928.016,02a41d00,9,0,37007390.740,0.040,-192707196.833175,0.005,413.996,48.8,927.016,081c1d24,9,0,37007376.675,0.081,-149013368.272832,0.008,320.078,42.9,926.016,023c1d2b,9,0,37007376.381,0.056,-156590316.608405,0.006,336.345,46.0,922.016,02a41d20,12,0,23959046.148,0.061,-124761051.181668,0.006,3126.164,45.3,922.016,081c1d84,12,0,23959029.767,0.066,-101378493.105153,0.007,2540.279,44.7,922.016,02a41d80,7,0,25567087.494,0.050,-134355959.579088,0.006,2397.614,46.8,758.000,083b1cc4,7,0,25567089.798,0.052,-100330752.970689,0.006,1790.400,46.6,758.000,01931ccb,7,0,25567085.152,0.081,-102948067.382804,0.008,1837.120,42.8,759.000,02331cc0*687716bc
#BESTPOSA,COM1,0,98.0,FINE,2427,351589.000,1016911,33888,18;SOL_COMPUTED,SINGLE,34.36853346740,109.22187572919,501.9006,-33.6675,WGS84,10.4885,1.6573,12.8419,"",0.000,0.000,13,9,0,8,0,06,03,5b*c22bb716
#RANGEA,COM1,0,98.0,FINE,2427,351590.000,1017911,2,18;29,19,0,22253562.941,0.061,-116943243.349834,0.006,-3247.915,45.4,936.016,08181c24,19,0,22253558.216,0.110,-91124587.980317,0.009,-2530.111,42.3,935.016,01301c2b,13,0,22807179.506,0.092,-119852532.425403,0.008,-2105.167,41.5,667.000,08181d44,13,0,22807176.304,0.210,-93391575.292040,0.021,-1639.149,36.1,663.000,01301d4b,13,0,22807181.725,0.082,-89500269.455308,0.008,-1572.196,42.7,666.000,01d01d40,12,0,22596186.681,0.086,-118743765.159776,0.008,-2032.971,42.3,919.016,08181da4,12,0,22596181.886,0.106,-92527590.179057,0.009,-1583.381,42.7,915.016,01301dab,5,0,21421194.133,0.058,-112569135.623338,0.006,2070.198,45.7,925.016,08181dc4,5,0,21421190.909,0.082,-87716198.588822,0.008,1613.156,44.9,921.016,01301dcb,40,12,20353726.446,0.040,-108955085.049317,0.005,3180.623,53.3,886.000,08191c24,40,12,20353709.679,0.050,-84742780.703057,0.006,2473.816,46.7,886.000,00b91c2b,3,0,36952941.783,0.040,-192423651.680566,0.005,60.988,48.5,937.016,0c1c1c24,3,0,36952913.250,0.040,-156359867.114895,0.005,49.542,48.2,936.016,06a41c20,1,0,37762465.744,0.040,-196639059.555474,0.005,-3.318,51.6,921.016,0c1c1c44,1,0,37762445.925,0.040,-159785265.702085,0.005,-2.753,48.9,920.016,06a41c40,2,0,37749795.624,0.062,-196573092.032748,0.006,73.967,45.3,925.016,0c1c1c64,2,0,37749763.165,0.068,-159731596.163952,0.007,60.167,44.5,924.016,06a41c60,4,0,38997763.012,0.297,-203071577.987820,0.028,57.590,35.0,30.000,0c1c1c84,4,0,38997735.414,0.127,-165012182.148570,0.011,46.793,37.4,31.000,06a41c80,8,0,36205061.621,0.040,-188529258.376686,0.005,-350.366,49.0,929.016,081c1d04,8,0,36205047.004,0.040,-153195400.586834,0.005,-284.698,48.0,929.016,02a41d00,9,0,37007311.325,0.040,-192706783.024460,0.005,413.147,48.8,928.016,081c1d24,9,0,37007297.276,0.082,-149013048.284991,0.008,319.429,42.8,927.016,023c1d2b,9,0,37007296.939,0.056,-156589980.349863,0.006,335.689,46.0,923.016,02a41d20,12,0,23958445.820,0.061,-124757925.158286,0.006,3125.337,45.4,923.016,081c1d84,12,0,23958429.464,0.066,-101375952.955539,0.007,2539.586,44.8,923.016,02a41d80,7,0,25566631.279,0.050,-134353562.141236,0.006,2396.727,46.7,759.000,083b1cc4,7,0,25566633.550,0.051,-100328962.670599,0.006,1789.744,46.6,759.000,01931ccb,7,0,25566628.962,0.081,-102946230.383813,0.008,1836.457,42.9,760.000,02331cc0*571e56b9
#BD2EPHEMA,COM1,0,98.0,FINE,2427,351590.000,1017911,3,18;1,351540.0,0,1,1,2427,2427,349200.0,4.216460657e+07,-7.850326998e-10,-1.338163983e+00,4.9371051136e-04,6.9672761478e-01,-1.281499863e-05,2.967426553e-05,-9.07343750e+02,-3.99515625e+02,-1.043081284e-07,6.984919310e-08,8.0541740441e-02,9.664688287e-10,-2.865877513e+00,1.68471303e-09,1,349200.0,4.500000000e-09,4.500000000e-09,-8.90461e-07,-5.24025e-14,0.00000e+00,TRUE,7.291924005e-05,4.00000000e+00*78fa2008
#BD2EPHEMA,COM1,0,98.0,FINE,2427,351590.000,1017911,4,18;2,351540.0,0,1,1,2427,2427,349200.0,4.216494652e+07,-8.671789786e-10,-1.490812142e+00,2.0392355509e-04,2.3389509197e-01,-2.619111910e-05,8.829403669e-06,-2.65031250e+02,-7.96312500e+02,-6.984919310e-08,1.643784344e-07,1.0795386137e-01,4.910918845e-10,2.982646141e+00,1.98508269e-09,1,349200.0,4.730000000e-08,4.730000000e-08,1.15717e-07,1.42109e-14,0.00000e+00,TRUE,7.291827604e-05,4.00000000e+00*aa397f63
#BD2EPHEMA,COM1,0,98.0,FINE,2427,351590.000,1017911,4,18;3,351540.0,0,1,1,2427,2427,349200.0,4.216342450e+07,-7.468168222e-10,7.147440829e-01,2.1423865110e-04,-1.5841881539e+00,-2.711731941e-05,1.745903865e-05,-5.27890625e+02,-8.35765625e+02,-2.160668373e-07,7.869675756e-08,1.1521036953e-01,6.978862126e-10,3.127413442e+00,1.63863968e-09,1,349200.0,3.530000000e-08,3.530000000e-08,-1.96625e-07,4.44089e-15,0.00000e+00,TRUE,7.292234479e-05,4.00000000e+00*e65be959
#BD2EPHEMA,COM1,0,98.0,FINE,2427,351590.000,1017911,4,18;4,351540.0,0,1,1,2427,2427,349200.0,4.216428495e+07,3.828730911e-10,2.549352991e-01,8.0461951438e-04,-3.9523695198e-01,-2.156477422e-05,2.716854215e-05,-8.33921875e+02,-6.69187500e+02,-1.769512892e-07,3.725290298e-08,1.3368699123e-01,8.261058392e-10,-3.020634845e+00,6.27883297e-10,1,349200.0,4.170000000e-08,4.170000000e-08,-6.38189e-07,2.61124e-13,0.00000e+00,TRUE,7.292124229e-05,4.00000000e+00*56377ae7
#BD2EPHEMA,COM1,0,98.0,FINE,2427,351590.000,1017911,4,18;8,351540.0,0,1,1,2427,2427,349200.0,4.216161266e+07,1.093259824e-09,-8.046213692e-01,4.6365471790e-03,-2.9005348411e+00,-2.754386514e-06,2.391915768e-05,-4.84875000e+02,-6.94062500e+01,8.568167686e-08,-2.924352884e-07,9.5616085011e-01,-1.486847647e-09,-1.621077210e-01,-1.76757363e-09,1,349200.0,9.000000000e-10,9.000000000e-10,-2.49563e-04,-3.18501e-12,0.00000e+00,TRUE,7.292888558e-05,4.00000000e+00*ebe5514a
#BD2EPHEMA,COM1,0,98.0,FINE,2427,351590.000,1017911,4,18;9,351540.0,0,1,1,2427,2427,349200.0,4.215852943e+07,1.380414643e-09,2.395188286e+00,5.8098528534e-03,-2.3080906131e+00,6.386544555e-06,-1.318799332e-05,6.71171875e+02,1.88156250e+02,-2.696178854e-07,1.434236765e-07,1.0513115304e+00,2.953694462e-10,1.882846108e+00,-2.88297723e-09,1,349200.0,-1.030000000e-08,2.800000000e-09,-5.75029e-04,-2.14984e-11,0.00000e+00,TRUE,7.293717317e-05,4.00000000e+00*1ee0cb78
#BD2EPHEMA,COM1,0,98.0,FINE,2427,351590.000,1017911,5,18;12,351540.0,0,1,1,2427,2427,349200.0,2.790631916e+07,3.869089735e-09,-1.180305415e+00,2.0511215553e-04,5.8448529537e-01,-3.885943443e-06,-2.104789019e-07,3.68562500e+02,-8.00312500e+01,4.284083843e-08,3.119930625e-08,9.7354036663e-01,-1.175048946e-10,2.294233572e+00,-7.23708717e-09,1,349200.0,8.000000000e-10,8.000000000e-10,6.17993e-04,-5.06883e-12,0.00000e+00,TRUE,1.354339234e-04,4.00000000e+00*5957cbeb
#GLOEPHEMERISA,COM1,0,98.0,FINE,2427,351590.000,1017911,5,18;40,12,1,0,2427,351918000,10782,928,0,0,19,0,-1.029221044921875e+07,2.329051171875000e+07,2.024722167968750e+06,2.970008850097656e+02,-1.731986999511719e+02,3.573057174682617e+03,-0.000002793967724,-1.862645149230957e-06,9.313225746154785e-07,-1.765508204698563e-05,-2.793967724e-09,9.094947017729282e-13,16200,2,3,0,13*9be2c50c
#GLOEPHEMERISA,COM1,0,98.0,FINE,2427,351590.000,1017911,5,18;52,7,1,0,2427,350118000,10782,928,0,0,17,0,1.156405371093750e+07,2.245981103515625e+07,-3.459751464843750e+06,-1.251802444458008e+02,-4.819002151489258e+02,-3.521552085876465e+03,0.000002793967724,-1.862645149230957e-06,-9.313225746154785e-07,-5.412474274635315e-05,2.793967724e-09,-9.094947017729282e-13,15930,2,1,0,12*ac862d1a
#GLOEPHEMERISA,COM1,0,98.0,FINE,2427,351590.000,1017911,5,18;61,9,1,0,2427,351918000,10782,928,0,0,19,0,-2.467013671875000e+07,5.459342773437500e+06,3.396186523437500e+06,-4.357318878173828e+02,2.146463394165039e+02,-3.526915550231934e+03,-0.000005587935448,0.000000000000000e+00,2.793967723846436e-06,1.777606084942818e-04,3.725290298e-09,-2.728484105318785e-12,16530,2,5,0,12*8f8bc103
#GALEPHEMERISA,COM1,0,98.0,FINE,2427,351590.000,1017911,5,18;7,TRUE,TRUE,0,0,0,0,0,0,107,0,76,350400,5.44062992e+03,2.9730e-09,-3.30103140e-01,4.415041767e-04,1.214655629e-01,-1.1353e-05,8.3484e-06,1.681e+02,-2.478e+02,8.0094e-08,1.4901e-08,9.694468600e-01,-2.3608e-10,2.975360649e+00,-5.65023535e-09,350400,-7.737241685e-05,-2.614797e-12,0.0e+00,350400,-7.737183478e-05,-2.600586e-12,0.0e+00,3.027e-09,3.260e-09*9249b45c
#GPSEPHEM,98,GPS,FINE,2427,351590000,0,0,18,6;5,351570.0,0,2,2,2427,2427,352784.0,2.656132511e+07,4.251605668e-09,-9.602883257e-01,5.6119386572e-03,1.4780790776e+00,3.851950169e-06,1.804903150e-06,3.55281250e+02,6.99687500e+01,-1.080334187e-07,6.146728992e-08,9.8102843424e-01,3.332281660e-10,1.684058354e+00,-8.36820571e-09,2,352784.0,-1.071020961e-08,-2.3512729e-04,-3.4106051e-13,0.0000000e+00,TRUE,1.458501813e-04,4.00000000e+00*225f0f27
#GPSEPHEM,98,GPS,FINE,2427,351590000,0,0,18,6;12,351540.0,0,44,44,2427,2427,352800.0,2.656057093e+07,5.108427072e-09,1.519387074e+00,8.7031484582e-03,1.5872100307e+00,6.947666407e-07,5.226582289e-06,2.75375000e+02,1.92187500e+01,-5.587935448e-08,-2.384185791e-07,9.5818875739e-01,1.857220218e-10,-1.343202371e+00,-8.25070082e-09,44,352800.0,-1.257285476e-08,-6.0571497e-04,5.6843419e-13,0.0000000e+00,TRUE,1.458572500e-04,4.00000000e+00*f5f924b7
#GPSEPHEM,98,GPS,FINE,2427,351590000,0,0,18,6;13,351540.0,63,214,214,2427,2427,355472.0,2.655941420e+07,5.058067832e-09,1.764493812e+00,2.2677066736e-03,1.8241705314e+00,1.253560185e-06,5.768612027e-06,2.64406250e+02,2.59687500e+01,-2.048909664e-08,-6.332993507e-08,9.5869416194e-01,3.010839699e-10,-1.451762935e+00,-8.19605568e-09,982,355472.0,-8.381903172e-09,4.1629793e-04,3.2969183e-12,2.7755576e-17,TRUE,1.458667281e-04,4.00000000e+00*1c17e2e6
#GPSEPHEM,98,GPS,FINE,2427,351590000,0,0,18,6;19,351570.0,0,10,10,2427,2427,352800.0,2.656116114e+07,4.773055960e-09,4.009463102e-01,1.1771503836e-02,3.0250675303e+00,-1.216307282e-06,9.335577488e-06,1.96687500e+02,-1.94062500e+01,2.495944500e-07,-2.793967724e-08,9.5675690730e-01,-8.300345743e-10,-2.670473728e-01,-8.16998317e-09,10,352800.0,-1.536682248e-08,7.0359884e-04,4.5474735e-13,0.0000000e+00,TRUE,1.458520532e-04,4.00000000e+00*da7a4d1a
#BESTPOSA,COM1,0,98.0,FINE,2427,351590.000,1017911,34891,18;SOL_COMPUTED,SINGLE,34.36853301144,109.22187579234,501.9676,-33.6675,WGS84,10.6005,1.6598,13.0198,"",0.000,0.000,13,9,0,8,0,06,03,5b*ed6bdff5
#RANGEA,COM1,0,98.0,FINE,2427,351591.000,1018920,2,18;29,19,0,22254181.105,0.069,-116946491.391266,0.007,-3247.833,44.4,937.016,08181c24,19,0,22254176.135,0.110,-91127118.920645,0.009,-2530.834,42.3,936.016,01301c2b,13,0,22807580.079,0.103,-119854637.890752,0.009,-2105.264,40.1,668.000,08181d44,13,0,22807577.183,0.233,-93393215.857331,0.024,-1640.460,36.0,664.000,01301d4b,13,0,22807582.310,0.082,-89501841.691168,0.008,-1572.107,42.7,667.000,01d01d40,12,0,22596573.356,0.099,-118745798.186996,0.009,-2032.919,40.7,920.016,08181da4,12,0,22596568.827,0.106,-92529174.322382,0.009,-1585.713,42.7,916.016,01301dab,5,0,21420800.094,0.071,-112567065.542141,0.007,2070.295,44.2,926.016,08181dc4,5,0,21420796.977,0.082,-87714585.536461,0.008,1613.946,44.9,922.016,01301dcb,40,12,20353132.325,0.040,-108951904.659958,0.005,3180.467,53.3,887.000,08191c24,40,12,20353115.574,0.050,-84740307.072108,0.006,2473.690,46.7,887.000,00b91c2b,3,0,36952930.062,0.040,-192423590.632673,0.005,61.442,48.5,938.016,0c1c1c24,3,0,36952901.550,0.040,-156359817.509779,0.005,49.892,48.1,937.016,06a41c20,1,0,37762466.405,0.040,-196639062.852178,0.005,-2.878,51.7,922.016,0c1c1c44,1,0,37762446.648,0.040,-159785268.378855,0.005,-2.388,48.8,921.016,06a41c40,2,0,37749781.446,0.061,-196573017.993691,0.006,74.414,45.3,926.016,0c1c1c64,2,0,37749748.969,0.068,-159731536.013240,0.007,60.487,44.5,925.016,06a41c60,4,0,38997751.971,0.250,-203071520.395778,0.023,57.985,35.0,31.000,0c1c1c84,4,0,38997724.317,0.129,-165012135.335730,0.011,47.098,37.2,32.000,06a41c80,8,0,36205128.824,0.040,-188529608.704625,0.005,-350.008,49.0,930.016,081c1d04,8,0,36205114.305,0.041,-153195685.251637,0.005,-284.393,47.9,930.016,02a41d00,9,0,37007232.027,0.040,-192706369.897928,0.005,413.393,48.9,929.016,081c1d24,9,0,37007217.991,0.082,-149012728.836125,0.008,319.645,42.7,928.016,023c1d2b,9,0,37007217.613,0.056,-156589644.658325,0.006,335.913,46.0,924.016,02a41d20,12,0,23957845.653,0.061,-124754799.890244,0.006,3125.516,45.4,924.016,081c1d84,12,0,23957829.236,0.066,-101373413.422684,0.007,2539.765,44.7,924.016,02a41d80,7,0,25566175.196,0.050,-134351165.448271,0.006,2396.995,46.7,760.000,083b1cc4,7,0,25566177.486,0.052,-100327172.936638,0.006,1789.871,46.5,760.000,01931ccb,7,0,25566172.935,0.080,-102944393.959186,0.008,1836.651,43.0,761.000,02331cc0*d5c50717
#BESTPOSA,COM1,0,98.0,FINE,2427,351591.000,1018920,35897,18;SOL_COMPUTED,SINGLE,34.36853257906,109.22187587486,502.0569,-33.6675,WGS84,10.8653,1.6676,13.4061,"",0.000,0.000,13,9,0,8,0,06,03,5b*f11dbca7
#RANGEA,COM1,0,98.0,FINE,2427,351592.000,1019920,2,18;29,19,0,22254799.126,0.072,-116949739.004566,0.007,-3247.572,44.1,938.016,08181c24,19,0,22254794.109,0.108,-91129649.524154,0.009,-2530.290,42.5,937.016,01301c2b,13,0,22807980.651,0.106,-119856742.919072,0.009,-2104.973,39.8,669.000,08181d44,13,0,22807977.603,0.210,-93394856.179912,0.021,-1639.886,36.1,665.000,01301d4b,13,0,22807982.921,0.081,-89503413.640203,0.008,-1571.898,42.8,668.000,01d01d40,12,0,22596960.010,0.101,-118747830.940032,0.009,-2032.822,40.4,921.016,08181da4,12,0,22596955.652,0.106,-92530758.302391,0.009,-1584.037,42.7,917.016,01301dab,5,0,21420406.042,0.074,-112564995.134017,0.007,2070.451,43.8,927.016,08181dc4,5,0,21420403.062,0.079,-87712972.219195,0.007,1613.671,45.1,923.016,01301dcb,40,12,20352538.243,0.040,-108948724.109859,0.005,3180.496,53.3,888.000,08191c24,40,12,20352521.310,0.051,-84737833.308716,0.006,2473.705,46.7,888.000,00b91c2b,3,0,36952918.162,0.040,-192423528.825729,0.005,62.031,48.5,939.016,0c1c1c24,3,0,36952889.717,0.040,-156359767.290429,0.005,50.392,48.1,938.016,06a41c20,1,0,37762466.910,0.040,-196639065.381337,0.005,-2.282,51.5,923.016,0c1c1c44,1,0,37762447.086,0.040,-159785270.435483,0.005,-1.874,48.8,922.016,06a41c40,2,0,37749767.060,0.062,-196572943.197000,0.006,75.055,45.2,927.016,0c1c1c64,2,0,37749734.665,0.068,-159731475.236544,0.007,60.964,44.5,926.016,06a41c60,4,0,38997740.623,0.255,-203071462.033104,0.024,58.559,34.7,32.000,0c1c1c84,4,0,38997713.440,0.129,-165012087.914845,0.011,47.486,37.2,33.000,06a41c80,8,0,36205195.979,0.040,-188529958.407214,0.005,-349.554,48.9,931.016,081c1d04,8,0,36205181.471,0.040,-153195969.414583,0.005,-284.028,48.0,931.016,02a41d00,9,0,37007152.587,0.040,-192705956.107948,0.005,413.952,48.8,930.016,081c1d24,9,0,37007138.515,0.082,-149012408.871865,0.008,320.063,42.8,929.016,023c1d2b,9,0,37007138.176,0.056,-156589308.423502,0.006,336.360,46.0,925.016,02a41d20,12,0,23957245.395,0.062,-124751674.081290,0.006,3125.926,45.3,925.016,081c1d84,12,0,23957229.008,0.066,-101370873.447339,0.007,2540.078,44.7,925.016,02a41d80,7,0,25565719.025,0.048,-134348768.207099,0.006,2397.338,47.0,761.000,083b1cc4,7,0,25565721.400,0.053,-100325382.784505,0.006,1790.251,46.4,761.000,01931ccb,7,0,25565716.710,0.081,-102942557.100929,0.008,1837.023,42.8,762.000,02331cc0*fa1a9727
#BESTPOSA,COM1,0,98.0,FINE,2427,351592.000,1019920,36897,18;SOL_COMPUTED,SINGLE,34.36853196417,109.22187590834,502.1632,-33.6675,WGS84,10.8865,1.6717,13.4540,"",0.000,0.000,13,9,0,8,0,06,03,5b*d3d0fa23
#RANGEA,COM1,0,98.0,FINE,2427,351593.000,1020920,2,18;29,19,0,22255417.231,0.070,-116952986.692714,0.007,-3248.042,44.2,939.016,08181c24,19,0,22255412.446,0.108,-91132180.182407,0.009,-2531.549,42.5,938.016,01301c2b,13,0,22808381.203,0.102,-119858848.070047,0.009,-2105.555,40.3,670.000,08181d44,13,0,22808377.629,0.209,-93396496.562187,0.021,-1640.855,36.2,666.000,01301d4b,13,0,22808383.539,0.081,-89504985.670218,0.008,-1572.412,42.9,669.000,01d01d40,12,0,22597346.822,0.098,-118749863.856358,0.009,-2033.418,40.8,922.016,08181da4,12,0,22597342.527,0.105,-92532342.403286,0.009,-1584.901,42.8,918.016,01301dab,5,0,21420012.064,0.069,-112562924.872572,0.007,2069.848,44.3,928.016,08181dc4,5,0,21420008.952,0.078,-87711359.052844,0.007,1613.000,45.2,924.016,01301dcb,40,12,20351944.227,0.040,-108945543.917776,0.005,3179.669,53.3,889.000,08191c24,40,12,20351926.991,0.052,-84735359.833156,0.006,2473.071,46.5,889.000,00b91c2b,3,0,36952906.211,0.040,-192423466.765917,0.005,61.822,48.5,940.016,0c1c1c24,3,0,36952877.834,0.040,-156359716.857688,0.005,50.250,48.2,939.016,06a41c20,1,0,37762467.381,0.040,-196639067.666430,0.005,-2.461,51.7,924.016,0c1c1c44,1,0,37762447.549,0.040,-159785272.293420,0.005,-2.016,48.9,923.016,06a41c40,2,0,37749752.689,0.061,-196572868.148747,0.006,74.839,45.4,928.016,0c1c1c64,2,0,37749720.259,0.067,-159731414.250830,0.007,60.845,44.6,927.016,06a41c60,4,0,38997729.086,0.268,-203071403.427687,0.025,58.380,34.8,33.000,0c1c1c84,4,0,38997702.163,0.178,-165012040.282828,0.015,47.352,37.4,34.000,06a41c80,8,0,36205263.088,0.040,-188530307.970268,0.005,-349.830,49.0,932.016,081c1d04,8,0,36205248.624,0.040,-153196253.460801,0.005,-284.236,48.1,932.016,02a41d00,9,0,37007073.120,0.040,-192705542.203404,0.005,413.654,48.9,931.016,081c1d24,9,0,37007058.968,0.082,-149012088.813497,0.008,319.847,42.7,930.016,023c1d2b,9,0,37007058.737,0.055,-156588972.087910,0.006,336.129,46.1,926.016,02a41d20,12,0,23956645.123,0.061,-124748548.230836,0.006,3125.494,45.4,926.016,081c1d84,12,0,23956628.820,0.065,-101368333.447109,0.007,2539.742,44.9,926.016,02a41d80,7,0,25565262.854,0.048,-134346370.935459,0.006,2396.958,47.0,762.000,083b1cc4,7,0,25565265.287,0.052,-100323592.611854,0.006,1789.938,46.5,762.000,01931ccb,7,0,25565260.462,0.080,-102940720.243762,0.008,1836.591,43.0,763.000,02331cc0*6daecf77
#BESTPOSA,COM1,0,98.0,FINE,2427,351593.000,1020920,37897,18;SOL_COMPUTED,SINGLE,34.36853152570,109.22187599283,502.2569,-33.6675,WGS84,10.8720,1.6679,13.4129,"",0.000,0.000,13,9,0,8,0,06,03,5b*c5d9320e
#RANGEA,COM1,0,98.0,FINE,2427,351594.000,1021920,2,18;29,19,0,22256035.392,0.070,-116956235.124758,0.007,-3248.772,44.3,940.016,08181c24,19,0,22256030.591,0.108,-91134711.414220,0.009,-2531.691,42.5,939.016,01301c2b,13,0,22808781.927,0.099,-119860953.986152,0.009,-2106.262,40.7,671.000,08181d44,13,0,22808778.576,0.206,-93398137.542479,0.021,-1640.929,36.3,667.000,01301d4b,13,0,22808784.342,0.081,-89506558.257723,0.008,-1572.829,42.8,670.000,01d01d40,12,0,22597733.866,0.094,-118751897.615721,0.008,-2034.104,41.2,923.016,08181da4,12,0,22597729.550,0.105,-92533927.158263,0.009,-1584.424,42.7,919.016,01301dab,5,0,21419618.183,0.066,-112560855.411640,0.007,2069.065,44.7,929.016,08181dc4,5,0,21419615.122,0.076,-87709746.463123,0.007,1612.620,45.3,925.016,01301dcb,40,12,20351350.430,0.040,-108942364.742265,0.005,3178.731,53.4,890.000,08191c24,40,12,20351332.905,0.053,-84732887.135436,0.006,2472.311,46.4,890.000,00b91c2b,3,0,36952894.372,0.040,-192423405.096254,0.005,61.502,48.6,941.016,0c1c1c24,3,0,36952865.972,0.040,-156359666.744874,0.005,49.959,48.3,940.016,06a41c20,1,0,37762467.933,0.040,-196639070.342321,0.005,-2.834,51.7,925.016,0c1c1c44,1,0,37762447.998,0.040,-159785274.461613,0.005,-2.306,49.0,924.016,06a41c40,2,0,37749738.390,0.060,-196572793.484884,0.006,74.555,45.5,929.016,0c1c1c64,2,0,37749705.895,0.066,-159731353.578740,0.007,60.599,44.7,928.016,06a41c60,4,0,38997717.717,0.311,-203071345.205110,0.029,58.060,35.0,34.000,0c1c1c84,4,0,38997690.929,0.126,-165011992.993595,0.011,47.113,37.5,35.000,06a41c80,8,0,36205330.287,0.040,-188530658.040998,0.005,-350.307,49.1,933.016,081c1d04,8,0,36205315.895,0.040,-153196537.921844,0.005,-284.616,48.2,933.016,02a41d00,9,0,37006993.726,0.040,-192705128.833681,0.005,413.162,48.9,932.016,081c1d24,9,0,37006979.585,0.083,-149011769.164162,0.008,319.489,42.6,931.016,023c1d2b,9,0,37006979.318,0.055,-156588636.187768,0.006,335.726,46.2,927.016,02a41d20,12,0,23956044.991,0.060,-124745422.999600,0.006,3124.979,45.4,927.016,081c1d84,12,0,23956028.775,0.064,-101365793.926472,0.007,2539.265,45.0,927.016,02a41d80,7,0,25564806.836,0.047,-134343974.266380,0.005,2396.406,47.1,763.000,083b1cc4,7,0,25564809.251,0.052,-100321802.890622,0.006,1789.528,46.5,763.000,01931ccb,7,0,25564804.413,0.079,-102938883.836593,0.007,1836.159,43.2,764.000,02331cc0*9ab38214
#BESTPOSA,COM1,0,98.0,FINE,2427,351594.000,1021920,38897,18;SOL_COMPUTED,SINGLE,34.36853111924,109.22187598982,502.3310,-33.6675,WGS84,10.7513,1.6672,13.2367,"",0.000,0.000,13,9,0,8,0,06,03,5b*6cb338ad
#RANGEA,COM1,0,98.0,FINE,2427,351595.000,1022920,2,18;29,19,0,22256653.718,0.068,-116959484.125538,0.007,-3249.569,44.5,941.016,08181c24,19,0,22256648.646,0.108,-91137243.117245,0.009,-2531.967,42.5,940.016,01301c2b,13,0,22809182.698,0.096,-119863060.501902,0.009,-2107.074,41.0,672.000,08181d44,13,0,22809179.474,0.205,-93399778.959863,0.021,-1641.495,36.4,668.000,01301d4b,13,0,22809185.218,0.081,-89508131.299826,0.008,-1573.448,42.8,671.000,01d01d40,12,0,22598120.966,0.092,-118753932.076958,0.008,-2035.072,41.6,924.016,08181da4,12,0,22598116.703,0.106,-92535512.434740,0.009,-1585.877,42.7,920.016,01301dab,5,0,21419224.617,0.063,-112558786.600473,0.006,2068.260,45.1,930.016,08181dc4,5,0,21419221.622,0.073,-87708134.437907,0.007,1611.517,45.6,926.016,01301dcb,40,12,20350756.773,0.040,-108939186.423184,0.005,3177.643,53.5,891.000,08191c24,40,12,20350739.075,0.054,-84730415.104841,0.006,2471.544,46.3,891.000,00b91c2b,3,0,36952882.581,0.040,-192423343.654848,0.005,61.129,48.5,942.016,0c1c1c24,3,0,36952854.167,0.040,-156359616.822784,0.005,49.617,48.2,941.016,06a41c20,1,0,37762468.483,0.040,-196639073.254559,0.005,-3.288,51.5,926.016,0c1c1c44,1,0,37762448.623,0.040,-159785276.825131,0.005,-2.657,48.9,925.016,06a41c40,2,0,37749724.162,0.062,-196572719.058978,0.006,74.101,45.3,930.016,0c1c1c64,2,0,37749691.625,0.067,-159731293.104509,0.007,60.189,44.6,929.016,06a41c60,4,0,38997706.467,0.253,-203071287.202124,0.024,57.710,34.8,35.000,0c1c1c84,4,0,38997680.016,0.127,-165011945.858681,0.011,46.853,37.4,36.000,06a41c80,8,0,36205397.555,0.040,-188531008.479072,0.005,-350.836,48.8,934.016,081c1d04,8,0,36205383.218,0.040,-153196822.684875,0.005,-285.101,48.1,934.016,02a41d00,9,0,37006914.416,0.040,-192704715.877198,0.005,412.514,48.6,933.016,081c1d24,9,0,37006900.248,0.084,-149011449.822100,0.008,319.131,42.5,932.016,023c1d2b,9,0,37006899.984,0.056,-156588300.621120,0.006,335.257,46.0,928.016,02a41d20,12,0,23955444.863,0.063,-124742298.226425,0.006,3124.324,45.2,928.016,081c1d84,12,0,23955428.765,0.064,-101363254.796172,0.007,2538.714,45.0,928.016,02a41d80,7,0,25564350.922,0.046,-134341578.048993,0.005,2395.803,47.2,764.000,083b1cc4,7,0,25564353.317,0.051,-100320013.505776,0.006,1789.074,46.6,764.000,01931ccb,7,0,25564348.494,0.077,-102937047.764356,0.007,1835.734,43.4,765.000,02331cc0*f4580a72
#BESTPOSA,COM1,0,98.0,FINE,2427,351595.000,1022920,39897,18;SOL_COMPUTED,SINGLE,34.36853065194,109.22187602098,502.4082,-33.6675,WGS84,10.7409,1.6673,13.2017,"",0.000,0.000,13,9,0,8,0,06,03,5b*e4879ac7
#RANGEA,COM1,0,98.0,FINE,2427,351596.000,1023920,2,18;29,19,0,22257272.165,0.067,-116962733.904267,0.007,-3250.091,44.6,942.016,08181c24,19,0,22257267.139,0.107,-91139775.410665,0.009,-2532.220,42.5,941.016,01301c2b,13,0,22809583.655,0.093,-119865167.834974,0.008,-2107.618,41.4,673.000,08181d44,13,0,22809580.834,0.206,-93401421.035905,0.021,-1642.159,36.3,669.000,01301d4b,13,0,22809586.206,0.081,-89509704.952585,0.008,-1573.828,42.9,672.000,01d01d40,12,0,22598508.315,0.089,-118755967.419279,0.008,-2035.698,41.9,925.016,08181da4,12,0,22598504.113,0.106,-92537098.426592,0.009,-1586.786,42.7,921.016,01301dab,5,0,21418831.092,0.060,-112556718.669987,0.006,2067.620,45.6,931.016,08181dc4,5,0,21418828.135,0.072,-87706523.040391,0.007,1611.026,45.7,927.016,01301dcb,40,12,20350163.336,0.040,-108936009.183632,0.005,3176.823,53.5,892.000,08191c24,40,12,20350145.279,0.055,-84727943.915118,0.006,2470.858,46.2,892.000,00b91c2b,3,0,36952870.862,0.040,-192423282.670676,0.005,60.913,48.4,943.016,0c1c1c24,3,0,36952842.432,0.041,-156359567.266149,0.005,49.460,47.9,942.016,06a41c20,1,0,37762469.100,0.040,-196639076.608363,0.005,-3.489,51.3,927.016,0c1c1c44,1,0,37762449.227,0.040,-159785279.550896,0.005,-2.835,48.7,926.016,06a41c40,2,0,37749709.985,0.063,-196572645.085755,0.006,73.862,45.1,931.016,0c1c1c64,2,0,37749677.456,0.070,-159731232.992360,0.007,59.988,44.3,930.016,06a41c60,4,0,38997695.086,0.275,-203071229.711860,0.026,57.166,34.5,36.000,0c1c1c84,4,0,38997669.249,0.130,-165011899.090228,0.011,46.718,37.2,37.000,06a41c80,8,0,36205464.927,0.040,-188531359.488500,0.005,-351.171,48.6,935.016,081c1d04,8,0,36205450.646,0.041,-153197107.906169,0.005,-285.361,47.8,935.016,02a41d00,9,0,37006835.219,0.040,-192704303.466238,0.005,412.208,48.5,934.016,081c1d24,9,0,37006821.042,0.083,-149011130.940245,0.008,318.729,42.6,933.016,023c1d2b,9,0,37006820.751,0.058,-156587965.513764,0.006,334.929,45.8,929.016,02a41d20,12,0,23954844.897,0.064,-124739174.117321,0.007,3123.862,45.0,929.016,081c1d84,12,0,23954828.826,0.066,-101360716.196279,0.007,2538.438,44.7,929.016,02a41d80,7,0,25563895.116,0.047,-134339182.505578,0.005,2395.334,47.1,765.000,083b1cc4,7,0,25563897.522,0.050,-100318224.633914,0.006,1788.664,46.8,765.000,01931ccb,7,0,25563892.674,0.077,-102935212.223015,0.007,1835.362,43.3,766.000,02331cc0*b1f64bdf
#BESTPOSA,COM1,0,98.0,FINE,2427,351596.000,1023920,40897,18;SOL_COMPUTED,SINGLE,34.36853016117,109.22187603263,502.5028,-33.6675,WGS84,10.7778,1.6747,13.2080,"",0.000,0.000,13,9,0,8,0,06,03,5b*bf7b8d1d
#RANGEA,COM1,0,98.0,FINE,2427,351597.000,1024920,2,18;29,19,0,22257890.787,0.066,-116965984.177636,0.007,-3250.329,44.8,943.016,08181c24,19,0,22257885.703,0.108,-91142308.084855,0.009,-2532.503,42.5,942.016,01301c2b,13,0,22809984.836,0.090,-119867275.677278,0.008,-2107.909,41.7,674.000,08181d44,13,0,22809981.885,0.207,-93403063.502118,0.021,-1642.218,36.3,670.000,01301d4b,13,0,22809987.328,0.081,-89511278.987879,0.008,-1574.074,42.9,673.000,01d01d40,12,0,22598895.654,0.087,-118758003.366412,0.008,-2036.115,42.2,926.016,08181da4,12,0,22598891.644,0.104,-92538684.877173,0.009,-1587.091,42.8,922.016,01301dab,5,0,21418437.719,0.057,-112554651.280297,0.006,2067.262,45.8,932.016,08181dc4,5,0,21418434.745,0.071,-87704912.102528,0.007,1611.204,45.8,928.016,01301dcb,40,12,20349570.055,0.040,-108932832.691313,0.005,3176.287,53.7,893.000,08191c24,40,12,20349551.781,0.056,-84725473.312472,0.006,2470.426,46.0,893.000,00b91c2b,3,0,36952859.171,0.040,-192423221.829175,0.005,60.921,48.3,944.016,0c1c1c24,3,0,36952830.748,0.040,-156359517.824707,0.005,49.535,48.0,943.016,06a41c20,1,0,37762469.749,0.040,-196639080.100823,0.005,-3.415,51.2,928.016,0c1c1c44,1,0,37762449.892,0.040,-159785282.392577,0.005,-2.753,48.8,927.016,06a41c40,2,0,37749695.843,0.064,-196572571.251038,0.007,73.862,45.0,932.016,0c1c1c64,2,0,37749663.181,0.068,-159731172.997424,0.007,60.048,44.5,931.016,06a41c60,4,0,38997683.714,0.295,-203071172.286600,0.028,57.523,34.3,37.000,0c1c1c84,4,0,38997658.186,0.128,-165011852.457607,0.011,46.674,37.3,38.000,06a41c80,8,0,36205532.333,0.040,-188531710.753886,0.005,-351.238,48.6,936.016,081c1d04,8,0,36205518.091,0.040,-153197393.337762,0.005,-285.421,48.0,936.016,02a41d00,9,0,37006756.109,0.040,-192703891.353615,0.005,412.082,48.5,935.016,081c1d24,9,0,37006741.848,0.083,-149010812.252974,0.008,318.684,42.6,934.016,023c1d2b,9,0,37006741.619,0.057,-156587630.636094,0.006,334.855,45.9,930.016,02a41d20,12,0,23954245.058,0.065,-124736050.356010,0.007,3123.743,44.9,930.016,081c1d84,12,0,23954228.991,0.065,-101358177.887479,0.007,2538.312,44.9,930.016,02a41d80,7,0,25563439.392,0.048,-134336787.328012,0.005,2395.177,47.0,766.000,083b1cc4,7,0,25563441.736,0.049,-100316436.022230,0.006,1788.574,46.8,766.000,01931ccb,7,0,25563436.992,0.078,-102933376.961432,0.007,1835.220,43.3,767.000,02331cc0*a2638456
#BESTPOSA,COM1,0,98.0,FINE,2427,351597.000,1024920,41897,18;SOL_COMPUTED,SINGLE,34.36852984593,109.22187611805,502.5595,-33.6675,WGS84,10.6731,1.6741,13.0535,"",0.000,0.000,13,9,0,8,0,06,03,5b*6c7d0b20
#RANGEA,COM1,0,98.0,FINE,2427,351598.000,1025920,2,18;29,19,0,22258509.254,0.065,-116969233.885044,0.007,-3249.331,44.8,944.016,08181c24,19,0,22258504.206,0.107,-91144840.327961,0.009,-2531.929,42.6,943.016,01301c2b,13,0,22810385.963,0.090,-119869382.968425,0.008,-2106.918,41.8,675.000,08181d44,13,0,22810382.806,0.206,-93404705.553800,0.021,-1641.749,36.3,671.000,01301d4b,13,0,22810388.359,0.081,-89512852.622563,0.008,-1573.351,42.8,674.000,01d01d40,12,0,22599282.883,0.086,-118760038.843346,0.008,-2035.117,42.3,927.016,08181da4,12,0,22599279.058,0.105,-92540270.945620,0.009,-1585.527,42.8,923.016,01301dab,5,0,21418044.338,0.056,-112552583.422451,0.006,2068.179,46.0,933.016,08181dc4,5,0,21418041.148,0.070,-87703300.769940,0.007,1611.637,45.9,929.016,01301dcb,40,12,20348976.627,0.040,-108929655.897559,0.005,3177.017,53.8,894.000,08191c24,40,12,20348958.220,0.057,-84723002.466162,0.006,2471.030,45.9,894.000,00b91c2b,3,0,36952847.293,0.040,-192423160.085398,0.005,62.254,48.3,945.016,0c1c1c24,3,0,36952818.905,0.040,-156359467.656356,0.005,50.630,48.0,944.016,06a41c20,1,0,37762470.231,0.040,-196639082.708973,0.005,-2.074,51.2,929.016,0c1c1c44,1,0,37762450.434,0.040,-159785284.508572,0.005,-1.681,48.8,928.016,06a41c40,2,0,37749681.531,0.065,-196572496.507081,0.007,75.293,44.9,933.016,0c1c1c64,2,0,37749648.887,0.069,-159731112.258369,0.007,61.165,44.4,932.016,06a41c60,4,0,38997672.926,0.313,-203071114.007339,0.030,58.730,34.3,38.000,0c1c1c84,4,0,38997646.930,0.128,-165011805.099362,0.011,47.769,37.3,39.000,06a41c80,8,0,36205599.587,0.040,-188532061.247295,0.005,-350.038,48.5,937.016,081c1d04,8,0,36205585.376,0.040,-153197678.140184,0.005,-284.415,48.0,937.016,02a41d00,9,0,37006676.891,0.040,-192703478.444077,0.005,413.400,48.5,936.016,081c1d24,9,0,37006662.503,0.082,-149010492.976827,0.008,319.660,42.7,935.016,023c1d2b,9,0,37006662.277,0.057,-156587295.119470,0.006,335.846,45.9,931.016,02a41d20,12,0,23953645.057,0.066,-124732925.936589,0.007,3124.823,44.8,931.016,081c1d84,12,0,23953629.003,0.065,-101355639.042313,0.007,2539.169,44.9,931.016,02a41d80,7,0,25562983.554,0.048,-134334391.452059,0.005,2396.339,47.0,767.000,083b1cc4,7,0,25562985.788,0.050,-100314646.893915,0.006,1789.439,46.7,767.000,01931ccb,7,0,25562981.059,0.079,-102931541.141878,0.007,1836.226,43.1,768.000,02331cc0*f0d3f500
#BESTPOSA,COM1,0,98.0,FINE,2427,351598.000,1025920,42897,18;SOL_COMPUTED,SINGLE,34.36852960530,109.22187612473,502.6102,-33.6675,WGS84,10.6628,1.6727,13.0207,"",0.000,0.000,13,9,0,8,0,06,03,5b*a18da5e3
#RANGEA,COM1,0,98.0,FINE,2427,351599.000,1026920,2,18;29,19,0,22259127.569,0.065,-116972483.220233,0.007,-3249.070,44.9,945.016,08181c24,19,0,22259122.362,0.108,-91147372.290956,0.009,-2531.155,42.5,944.016,01301c2b,13,0,22810787.007,0.088,-119871489.929623,0.008,-2106.672,42.0,676.000,08181d44,13,0,22810783.499,0.207,-93406347.333905,0.021,-1640.959,36.2,672.000,01301d4b,13,0,22810789.190,0.081,-89514426.001532,0.008,-1573.217,42.8,675.000,01d01d40,12,0,22599670.271,0.084,-118762074.068238,0.008,-2035.080,42.5,928.016,08181da4,12,0,22599666.416,0.104,-92541856.863198,0.009,-1586.331,42.9,924.016,01301dab,5,0,21417650.875,0.055,-112550515.234968,0.006,2068.410,46.1,934.016,08181dc4,5,0,21417647.584,0.071,-87701689.206984,0.007,1611.741,45.8,930.016,01301dcb,40,12,20348383.192,0.040,-108926479.012803,0.005,3176.972,53.6,895.000,08191c24,40,12,20348364.603,0.057,-84720531.559189,0.006,2470.978,45.8,895.000,00b91c2b,3,0,36952835.288,0.040,-192423097.639236,0.005,62.873,48.2,946.016,0c1c1c24,3,0,36952806.952,0.041,-156359416.910016,0.005,51.107,47.9,945.016,06a41c20,1,0,37762470.585,0.040,-196639084.604192,0.005,-1.485,51.2,930.016,0c1c1c44,1,0,37762450.781,0.040,-159785286.040873,0.005,-1.174,48.7,929.016,06a41c40,2,0,37749666.975,0.065,-196572421.059760,0.007,75.874,44.8,934.016,0c1c1c64,2,0,37749634.414,0.070,-159731050.953755,0.007,61.590,44.3,933.016,06a41c60,4,0,38997661.620,0.350,-203071054.998443,0.033,58.857,34.1,39.000,0c1c1c84,4,0,38997635.493,0.142,-165011757.187740,0.012,48.186,37.2,40.000,06a41c80,8,0,36205666.715,0.040,-188532411.162531,0.005,-349.569,48.4,938.016,081c1d04,8,0,36205652.581,0.041,-153197962.472288,0.005,-284.065,47.9,938.016,02a41d00,9,0,37006597.585,0.040,-192703064.997029,0.005,413.773,48.5,937.016,081c1d24,9,0,37006583.137,0.083,-149010173.267113,0.008,319.996,42.6,936.016,023c1d2b,9,0,37006582.880,0.058,-156586959.153893,0.006,336.226,45.8,932.016,02a41d20,12,0,23953044.999,0.066,-124729801.023790,0.007,3125.151,44.7,932.016,081c1d84,12,0,23953028.936,0.066,-101353099.788035,0.007,2539.504,44.8,932.016,02a41d80,7,0,25562527.619,0.049,-134331995.089211,0.006,2396.652,46.9,768.000,083b1cc4,7,0,25562529.815,0.050,-100312857.398537,0.006,1789.714,46.7,768.000,01931ccb,7,0,25562524.994,0.077,-102929704.994722,0.007,1836.293,43.4,769.000,02331cc0*b304b97a
#BESTPOSA,COM1,0,98.0,FINE,2427,351599.000,1026920,43897,18;SOL_COMPUTED,SINGLE,34.36852913040,109.22187610245,502.6997,-33.6675,WGS84,10.6663,1.6729,13.0241,"",0.000,0.000,13,9,0,8,0,06,03,5b*074c394f
#RANGEA,COM1,0,98.0,FINE,2427,351600.000,1027920,2,18;29,19,0,22259745.925,0.064,-116975732.551689,0.007,-3249.316,45.0,946.016,08181c24,19,0,22259740.714,0.109,-91149904.211788,0.009,-2532.019,42.4,945.016,01301c2b,13,0,22811188.035,0.087,-119873596.928927,0.008,-2106.978,42.1,677.000,08181d44,13,0,22811184.538,0.209,-93407989.158251,0.021,-1641.801,36.1,673.000,01301d4b,13,0,22811190.115,0.081,-89515999.398792,0.008,-1573.373,42.9,676.000,01d01d40,12,0,22600057.584,0.084,-118764109.418132,0.008,-2035.400,42.5,929.016,08181da4,12,0,22600053.730,0.104,-92543442.823731,0.009,-1585.713,42.8,925.016,01301dab,5,0,21417257.374,0.054,-112548447.138550,0.006,2068.044,46.2,935.016,08181dc4,5,0,21417254.000,0.073,-87700077.699694,0.007,1611.331,45.7,931.016,01301dcb,40,12,20347789.788,0.040,-108923302.415119,0.005,3176.466,53.3,896.000,08191c24,40,12,20347771.156,0.058,-84718060.869832,0.006,2470.590,45.8,896.000,00b91c2b,3,0,36952823.214,0.040,-192423034.868713,0.005,62.955,48.2,947.016,0c1c1c24,3,0,36952794.863,0.040,-156359365.900633,0.005,51.159,48.0,946.016,06a41c20,1,0,37762470.825,0.040,-196639086.172003,0.005,-1.359,51.2,931.016,0c1c1c44,1,0,37762451.076,0.040,-159785287.321658,0.005,-1.159,48.8,930.016,06a41c40,2,0,37749652.404,0.064,-196572345.287937,0.007,75.964,45.0,935.016,0c1c1c64,2,0,37749619.841,0.069,-159730989.378387,0.007,61.739,44.4,934.016,06a41c60,4,0,38997650.212,0.295,-203070995.692238,0.028,59.528,34.3,40.000,0c1c1c84,4,0,38997624.101,0.129,-165011708.997892,0.011,48.216,37.3,41.000,06a41c80,8,0,36205733.829,0.040,-188532760.872995,0.005,-349.614,48.5,939.016,081c1d04,8,0,36205719.752,0.040,-153198246.641225,0.005,-284.065,48.0,939.016,02a41d00,9,0,37006518.210,0.040,-192702651.327849,0.005,413.788,48.6,938.016,081c1d24,9,0,37006503.767,0.083,-149009853.404516,0.008,319.906,42.6,937.016,023c1d2b,9,0,37006503.377,0.057,-156586623.003589,0.006,336.255,45.9,933.016,02a41d20,12,0,23952444.872,0.066,-124726675.995508,0.007,3125.076,44.8,933.016,081c1d84,12,0,23952428.857,0.065,-101350560.453887,0.007,2539.370,44.9,933.016,02a41d80,7,0,25562071.605,0.049,-134329598.602489,0.006,2396.578,46.8,769.000,083b1cc4,7,0,25562073.831,0.051,-100311067.816865,0.006,1789.670,46.7,769.000,01931ccb,7,0,25562068.994,0.077,-102927868.712521,0.007,1836.353,43.4,770.000,02331cc0*ae565167
#BD2EPHEMA,COM1,0,98.0,FINE,2427,351600.000,1027920,3,18;1,351570.0,0,1,1,2427,2427,349200.0,4.216460657e+07,-7.850326998e-10,-1.338163983e+00,4.9371051136e-04,6.9672761478e-01,-1.281499863e-05,2.967426553e-05,-9.07343750e+02,-3.99515625e+02,-1.043081284e-07,6.984919310e-08,8.0541740441e-02,9.664688287e-10,-2.865877513e+00,1.68471303e-09,1,349200.0,4.500000000e-09,4.500000000e-09,-8.90461e-07,-5.24025e-14,0.00000e+00,TRUE,7.291924005e-05,4.00000000e+00*de1826d5
#BD2EPHEMA,COM1,0,98.0,FINE,2427,351600.000,1027920,3,18;2,351540.0,0,1,1,2427,2427,349200.0,4.216494652e+07,-8.671789786e-10,-1.490812142e+00,2.0392355509e-04,2.3389509197e-01,-2.619111910e-05,8.829403669e-06,-2.65031250e+02,-7.96312500e+02,-6.984919310e-08,1.643784344e-07,1.0795386137e-01,4.910918845e-10,2.982646141e+00,1.98508269e-09,1,349200.0,4.730000000e-08,4.730000000e-08,1.15717e-07,1.42109e-14,0.00000e+00,TRUE,7.291827604e-05,4.00000000e+00*cf9148f5
#BD2EPHEMA,COM1,0,98.0,FINE,2427,351600.000,1027920,4,18;3,351540.0,0,1,1,2427,2427,349200.0,4.216342450e+07,-7.468168222e-10,7.147440829e-01,2.1423865110e-04,-1.5841881539e+00,-2.711731941e-05,1.745903865e-05,-5.27890625e+02,-8.35765625e+02,-2.160668373e-07,7.869675756e-08,1.1521036953e-01,6.978862126e-10,3.127413442e+00,1.63863968e-09,1,349200.0,3.530000000e-08,3.530000000e-08,-1.96625e-07,4.44089e-15,0.00000e+00,TRUE,7.292234479e-05,4.00000000e+00*f49b1b95
#BD2EPHEMA,COM1,0,98.0,FINE,2427,351600.000,1027920,4,18;4,351540.0,0,1,1,2427,2427,349200.0,4.216428495e+07,3.828730911e-10,2.549352991e-01,8.0461951438e-04,-3.9523695198e-01,-2.156477422e-05,2.716854215e-05,-8.33921875e+02,-6.69187500e+02,-1.769512892e-07,3.725290298e-08,1.3368699123e-01,8.261058392e-10,-3.020634845e+00,6.27883297e-10,1,349200.0,4.170000000e-08,4.170000000e-08,-6.38189e-07,2.61124e-13,0.00000e+00,TRUE,7.292124229e-05,4.00000000e+00*44f7882b
#BD2EPHEMA,COM1,0,98.0,FINE,2427,351600.000,1027920,4,18;8,351540.0,0,1,1,2427,2427,349200.0,4.216161266e+07,1.093259824e-09,-8.046213692e-01,4.6365471790e-03,-2.9005348411e+00,-2.754386514e-06,2.391915768e-05,-4.84875000e+02,-6.94062500e+01,8.568167686e-08,-2.924352884e-07,9.5616085011e-01,-1.486847647e-09,-1.621077210e-01,-1.76757363e-09,1,349200.0,9.000000000e-10,9.000000000e-10,-2.49563e-04,-3.18501e-12,0.00000e+00,TRUE,7.292888558e-05,4.00000000e+00*597d014c
#BD2EPHEMA,COM1,0,98.0,FINE,2427,351600.000,1027920,4,18;9,351540.0,0,1,1,2427,2427,349200.0,4.215852943e+07,1.380414643e-09,2.395188286e+00,5.8098528534e-03,-2.3080906131e+00,6.386544555e-06,-1.318799332e-05,6.71171875e+02,1.88156250e+02,-2.696178854e-07,1.434236765e-07,1.0513115304e+00,2.953694462e-10,1.882846108e+00,-2.88297723e-09,1,349200.0,-1.030000000e-08,2.800000000e-09,-5.75029e-04,-2.14984e-11,0.00000e+00,TRUE,7.293717317e-05,4.00000000e+00*0c2039b4
#BD2EPHEMA,COM1,0,98.0,FINE,2427,351600.000,1027920,4,18;12,351540.0,0,1,1,2427,2427,349200.0,2.790631916e+07,3.869089735e-09,-1.180305415e+00,2.0511215553e-04,5.8448529537e-01,-3.885943443e-06,-2.104789019e-07,3.68562500e+02,-8.00312500e+01,4.284083843e-08,3.119930625e-08,9.7354036663e-01,-1.175048946e-10,2.294233572e+00,-7.23708717e-09,1,349200.0,8.000000000e-10,8.000000000e-10,6.17993e-04,-5.06883e-12,0.00000e+00,TRUE,1.354339234e-04,4.00000000e+00*43160a72
#GLOEPHEMERISA,COM1,0,98.0,FINE,2427,351600.000,1027920,5,18;40,12,1,0,2427,351918000,10782,928,0,0,19,0,-1.029221044921875e+07,2.329051171875000e+07,2.024722167968750e+06,2.970008850097656e+02,-1.731986999511719e+02,3.573057174682617e+03,-0.000002793967724,-1.862645149230957e-06,9.313225746154785e-07,-1.765508204698563e-05,-2.793967724e-09,9.094947017729282e-13,16200,2,3,0,13*30643064
#GLOEPHEMERISA,COM1,0,98.0,FINE,2427,351600.000,1027920,5,18;52,7,1,0,2427,350118000,10782,928,0,0,17,0,1.156405371093750e+07,2.245981103515625e+07,-3.459751464843750e+06,-1.251802444458008e+02,-4.819002151489258e+02,-3.521552085876465e+03,0.000002793967724,-1.862645149230957e-06,-9.313225746154785e-07,-5.412474274635315e-05,2.793967724e-09,-9.094947017729282e-13,15930,2,1,0,12*ef444285
#GLOEPHEMERISA,COM1,0,98.0,FINE,2427,351600.000,1027920,5,18;61,9,1,0,2427,351918000,10782,928,0,0,19,0,-2.467013671875000e+07,5.459342773437500e+06,3.396186523437500e+06,-4.357318878173828e+02,2.146463394165039e+02,-3.526915550231934e+03,-0.000005587935448,0.000000000000000e+00,2.793967723846436e-06,1.777606084942818e-04,3.725290298e-09,-2.728484105318785e-12,16530,2,5,0,12*2f0fcb77
#GALEPHEMERISA,COM1,0,98.0,FINE,2427,351600.000,1027920,5,18;7,TRUE,TRUE,0,0,0,0,0,0,107,0,76,350400,5.44062992e+03,2.9730e-09,-3.30103140e-01,4.415041767e-04,1.214655629e-01,-1.1353e-05,8.3484e-06,1.681e+02,-2.478e+02,8.0094e-08,1.4901e-08,9.694468600e-01,-2.3608e-10,2.975360649e+00,-5.65023535e-09,350400,-7.737241685e-05,-2.614797e-12,0.0e+00,350400,-7.737183478e-05,-2.600586e-12,0.0e+00,3.027e-09,3.260e-09*eb7cfa50
#GPSEPHEM,98,GPS,FINE,2427,351600000,0,0,18,5;5,351570.0,0,2,2,2427,2427,352784.0,2.656132511e+07,4.251605668e-09,-9.602883257e-01,5.6119386572e-03,1.4780790776e+00,3.851950169e-06,1.804903150e-06,3.55281250e+02,6.99687500e+01,-1.080334187e-07,6.146728992e-08,9.8102843424e-01,3.332281660e-10,1.684058354e+00,-8.36820571e-09,2,352784.0,-1.071020961e-08,-2.3512729e-04,-3.4106051e-13,0.0000000e+00,TRUE,1.458501813e-04,4.00000000e+00*40a9bbcf
#GPSEPHEM,98,GPS,FINE,2427,351600000,0,0,18,6;12,351570.0,0,44,44,2427,2427,352800.0,2.656057093e+07,5.108427072e-09,1.519387074e+00,8.7031484582e-03,1.5872100307e+00,6.947666407e-07,5.226582289e-06,2.75375000e+02,1.92187500e+01,-5.587935448e-08,-2.384185791e-07,9.5818875739e-01,1.857220218e-10,-1.343202371e+00,-8.25070082e-09,44,352800.0,-1.257285476e-08,-6.0571497e-04,5.6843419e-13,0.0000000e+00,TRUE,1.458572500e-04,4.00000000e+00*4f6926ed
#GPSEPHEM,98,GPS,FINE,2427,351600000,0,0,18,6;13,351570.0,63,214,214,2427,2427,355472.0,2.655941420e+07,5.058067832e-09,1.764493812e+00,2.2677066736e-03,1.8241705314e+00,1.253560185e-06,5.768612027e-06,2.64406250e+02,2.59687500e+01,-2.048909664e-08,-6.332993507e-08,9.5869416194e-01,3.010839699e-10,-1.451762935e+00,-8.19605568e-09,982,355472.0,-8.381903172e-09,4.1629793e-04,3.2969183e-12,2.7755576e-17,TRUE,1.458667281e-04,4.00000000e+00*bf05b8fc
#GPSEPHEM,98,GPS,FINE,2427,351600000,0,0,18,6;19,351570.0,0,10,10,2427,2427,352800.0,2.656116114e+07,4.773055960e-09,4.009463102e-01,1.1771503836e-02,3.0250675303e+00,-1.216307282e-06,9.335577488e-06,1.96687500e+02,-1.94062500e+01,2.495944500e-07,-2.793967724e-08,9.5675690730e-01,-8.300345743e-10,-2.670473728e-01,-8.16998317e-09,10,352800.0,-1.536682248e-08,7.0359884e-04,4.5474735e-13,0.0000000e+00,TRUE,1.458520532e-04,4.00000000e+00*245201e1
#BESTPOSA,COM1,0,98.0,FINE,2427,351600.000,1027920,44900,18;SOL_COMPUTED,SINGLE,34.36852887232,109.22187615305,502.7485,-33.6675,WGS84,10.6698,1.6730,13.0275,"",0.000,0.000,13,9,0,8,0,06,03,5b*f6584076
#RANGEA,COM1,0,98.0,FINE,2427,351601.000,1028920,2,18;29,19,0,22260364.314,0.064,-116978982.553197,0.006,-3250.493,45.0,947.016,08181c24,19,0,22260359.322,0.109,-91152436.681589,0.009,-2532.518,42.4,946.016,01301c2b,13,0,22811589.212,0.085,-119875704.607884,0.008,-2108.215,42.3,678.000,08181d44,13,0,22811585.384,0.210,-93409631.516364,0.021,-1642.345,36.1,674.000,01301d4b,13,0,22811591.183,0.082,-89517573.314807,0.008,-1574.297,42.8,677.000,01d01d40,12,0,22600444.997,0.082,-118766145.532598,0.008,-2036.756,42.7,930.016,08181da4,12,0,22600441.287,0.104,-92545029.383999,0.009,-1587.658,42.8,926.016,01301dab,5,0,21416863.913,0.052,-112546379.740516,0.006,2066.919,46.5,936.016,08181dc4,5,0,21416860.498,0.074,-87698466.750227,0.007,1610.661,45.5,932.016,01301dcb,40,12,20347196.515,0.040,-108920126.767637,0.005,3174.953,53.2,897.000,08191c24,40,12,20347177.831,0.058,-84715590.927144,0.006,2469.398,45.7,897.000,00b91c2b,3,0,36952811.276,0.040,-192422972.408886,0.005,62.083,48.3,948.016,0c1c1c24,3,0,36952782.839,0.040,-156359315.145393,0.005,50.451,48.1,947.016,06a41c20,1,0,37762471.190,0.040,-196639088.051352,0.005,-2.268,51.3,932.016,0c1c1c44,1,0,37762451.433,0.040,-159785288.847477,0.005,-1.830,48.9,931.016,06a41c40,2,0,37749637.912,0.063,-196572269.832376,0.006,75.114,45.1,936.016,0c1c1c64,2,0,37749605.286,0.068,-159730928.056011,0.007,61.046,44.5,935.016,06a41c60,4,0,38997638.562,0.312,-203070936.747663,0.029,58.552,34.3,41.000,0c1c1c84,4,0,38997612.937,0.128,-165011661.032809,0.011,47.709,37.4,42.000,06a41c80,8,0,36205801.058,0.040,-188533111.007711,0.005,-350.552,48.5,940.016,081c1d04,8,0,36205787.018,0.040,-153198531.158379,0.005,-284.870,48.1,940.016,02a41d00,9,0,37006438.895,0.040,-192702238.138773,0.005,412.767,48.6,939.016,081c1d24,9,0,37006424.336,0.083,-149009533.894187,0.008,319.169,42.6,938.016,023c1d2b,9,0,37006424.040,0.056,-156586287.263198,0.006,335.369,45.9,934.016,02a41d20,12,0,23951844.836,0.066,-124723551.504263,0.007,3123.966,44.8,934.016,081c1d84,12,0,23951828.895,0.064,-101348021.546210,0.007,2538.550,45.0,934.016,02a41d80,7,0,25561615.680,0.050,-134327202.651836,0.006,2395.475,46.7,770.000,083b1cc4,7,0,25561617.966,0.050,-100309278.638200,0.006,1788.783,46.8,770.000,01931ccb,7,0,25561613.049,0.079,-102926032.857782,0.007,1835.474,43.1,771.000,02331cc0*1608c1b8
#BESTPOSA,COM1,0,98.0,FINE,2427,351601.000,1028920,45897,18;SOL_COMPUTED,SINGLE,34.36852867590,109.22187618300,502.8089,-33.6675,WGS84,10.6582,1.6674,13.0238,"",0.000,0.000,13,9,0,8,0,06,03,5b*5beb1757
#RANGEA,COM1,0,98.0,FINE,2427,351602.000,1029920,2,18;29,19,0,22260982.808,0.065,-116982233.237582,0.007,-3251.044,44.9,948.016,08181c24,19,0,22260977.879,0.108,-91154969.671579,0.009,-2533.479,42.5,947.016,01301c2b,13,0,22811990.472,0.088,-119877813.008918,0.008,-2108.825,42.0,679.000,08181d44,13,0,22811986.933,0.210,-93411274.401460,0.021,-1643.351,36.1,675.000,01301d4b,13,0,22811992.462,0.081,-89519147.776610,0.008,-1574.714,42.8,678.000,01d01d40,12,0,22600832.653,0.085,-118768182.421886,0.008,-2037.233,42.4,931.016,08181da4,12,0,22600828.923,0.104,-92546616.589551,0.009,-1586.987,42.8,927.016,01301dab,5,0,21416470.827,0.054,-112544313.149265,0.006,2066.234,46.2,937.016,08181dc4,5,0,21416467.294,0.072,-87696856.391757,0.007,1609.938,45.7,933.016,01301dcb,40,12,20346603.446,0.040,-108916952.121199,0.005,3174.163,53.0,898.000,08191c24,40,12,20346584.807,0.058,-84713121.751045,0.006,2468.839,45.8,898.000,00b91c2b,3,0,36952799.336,0.040,-192422910.293303,0.005,61.942,48.2,949.016,0c1c1c24,3,0,36952770.907,0.040,-156359264.673964,0.005,50.310,48.2,948.016,06a41c20,1,0,37762471.613,0.040,-196639090.291831,0.005,-2.439,51.2,933.016,0c1c1c44,1,0,37762451.872,0.040,-159785290.663482,0.005,-1.941,49.0,932.016,06a41c40,2,0,37749623.498,0.064,-196572194.719392,0.006,74.898,45.0,937.016,0c1c1c64,2,0,37749590.930,0.067,-159730867.030898,0.007,60.867,44.6,936.016,06a41c60,4,0,38997627.449,0.420,-203070878.075838,0.040,58.552,34.0,42.000,0c1c1c84,4,0,38997601.684,0.127,-165011613.384971,0.011,47.545,37.4,43.000,06a41c80,8,0,36205868.312,0.040,-188533461.628182,0.005,-350.843,48.4,941.016,081c1d04,8,0,36205854.385,0.040,-153198816.064893,0.005,-285.116,48.2,941.016,02a41d00,9,0,37006359.676,0.040,-192701825.403351,0.005,412.521,48.5,940.016,081c1d24,9,0,37006345.007,0.083,-149009214.744432,0.008,318.967,42.6,939.016,023c1d2b,9,0,37006344.805,0.056,-156585951.878386,0.006,335.183,46.0,935.016,02a41d20,12,0,23951244.949,0.067,-124720427.591929,0.007,3123.631,44.7,935.016,081c1d84,12,0,23951229.025,0.063,-101345483.116637,0.006,2538.200,45.1,935.016,02a41d80,7,0,25561159.902,0.050,-134324807.277873,0.006,2395.095,46.8,771.000,083b1cc4,7,0,25561162.176,0.050,-100307489.880436,0.006,1788.522,46.8,771.000,01931ccb,7,0,25561157.192,0.079,-102924197.435345,0.007,1835.250,43.1,772.000,02331cc0*6654047f
#BESTPOSA,COM1,0,98.0,FINE,2427,351602.000,1029920,46897,18;SOL_COMPUTED,SINGLE,34.36852858410,109.22187618971,502.8472,-33.6675,WGS84,10.6767,1.6734,13.0344,"",0.000,0.000,13,9,0,8,0,06,03,5b*832e6478
#RANGEA,COM1,0,98.0,FINE,2427,351603.000,1030920,2,18;29,19,0,22261601.564,0.066,-116985484.717371,0.007,-3251.990,44.8,949.016,08181c24,19,0,22261596.543,0.106,-91157503.298847,0.009,-2533.658,42.7,948.016,01301c2b,13,0,22812391.861,0.089,-119879922.221835,0.008,-2109.764,41.9,680.000,08181d44,13,0,22812388.567,0.210,-93412917.951439,0.021,-1643.872,36.1,676.000,01301d4b,13,0,22812393.757,0.081,-89520722.830272,0.008,-1575.460,42.8,679.000,01d01d40,12,0,22601220.597,0.086,-118770220.243656,0.008,-2038.455,42.2,932.016,08181da4,12,0,22601216.832,0.105,-92548204.526183,0.009,-1588.984,42.8,928.016,01301dab,5,0,21416077.809,0.056,-112542247.412162,0.006,2065.131,46.0,938.016,08181dc4,5,0,21416074.130,0.070,-87695246.738635,0.007,1608.954,45.9,934.016,01301dcb,40,12,20346010.547,0.040,-108913778.552533,0.005,3172.860,52.8,899.000,08191c24,40,12,20345991.994,0.058,-84710653.431077,0.006,2467.796,45.8,899.000,00b91c2b,3,0,36952787.499,0.040,-192422848.630811,0.005,61.278,48.3,950.016,0c1c1c24,3,0,36952759.044,0.040,-156359214.563401,0.005,49.810,48.2,949.016,06a41c20,1,0,37762472.087,0.040,-196639092.980418,0.005,-3.050,51.5,934.016,0c1c1c44,1,0,37762452.341,0.040,-159785292.844654,0.005,-2.478,49.0,933.016,06a41c40,2,0,37749609.192,0.061,-196572120.068091,0.006,74.250,45.4,938.016,0c1c1c64,2,0,37749576.506,0.067,-159730806.360194,0.007,60.375,44.6,937.016,06a41c60,4,0,38997616.211,0.343,-203070819.858246,0.032,58.484,34.4,43.000,0c1c1c84,4,0,38997590.472,0.127,-165011566.124638,0.011,46.912,37.4,44.000,06a41c80,8,0,36205935.683,0.040,-188533812.817892,0.005,-351.603,48.8,942.016,081c1d04,8,0,36205921.839,0.040,-153199101.427911,0.005,-285.682,48.2,942.016,02a41d00,9,0,37006280.567,0.040,-192701413.254533,0.005,411.739,48.9,941.016,081c1d24,9,0,37006265.860,0.083,-149008896.037327,0.008,318.371,42.7,940.016,023c1d2b,9,0,37006265.639,0.056,-156585616.966790,0.006,334.572,46.0,936.016,02a41d20,12,0,23950645.201,0.063,-124717304.349104,0.006,3122.737,45.1,936.016,081c1d84,12,0,23950629.286,0.063,-101342945.226411,0.006,2537.507,45.1,936.016,02a41d80,7,0,25560704.233,0.049,-134322412.573107,0.006,2394.216,46.9,772.000,083b1cc4,7,0,25560706.484,0.049,-100305701.620438,0.006,1787.941,46.9,772.000,01931ccb,7,0,25560701.493,0.078,-102922362.536310,0.007,1834.550,43.2,773.000,02331cc0*f6402b71
#BESTPOSA,COM1,0,98.0,FINE,2427,351603.000,1030920,47897,18;SOL_COMPUTED,SINGLE,34.36852865019,109.22187633933,502.8568,-33.6675,WGS84,10.6460,1.6663,13.0346,"",0.000,0.000,13,9,0,8,0,06,03,5b*2003ad7f
