#RANGEA,COM1,0,98.0,FINE,2427,444205.000,2361121,2,18;25,15,0,21648082.223,0.040,-113761460.748683,0.005,3163.235,48.8,2352.012,08181c44,15,0,21648078.344,0.068,-88645281.051124,0.007,2465.026,46.1,2348.000,01301c4b,20,0,20485098.647,0.040,-107649928.220930,0.005,1349.898,48.0,2352.012,08181c64,20,0,20485095.093,0.099,-83883047.773577,0.009,1051.621,43.3,2348.000,01301c6b,20,0,20485097.443,0.048,-80387933.030859,0.005,1008.096,47.0,2352.012,01d01c60,55,4,22144397.040,0.044,-118208298.125488,0.005,-3106.005,47.5,2349.000,08191c24,55,4,22144390.601,0.082,-91939708.896654,0.008,-2415.806,42.8,2348.000,00b91c2b,42,8,19670562.277,0.040,-105150439.847186,0.005,1892.135,52.5,2349.000,08191c44,42,8,19670552.497,0.040,-81783628.859276,0.005,1471.683,50.8,2349.000,00b91c4b,1,0,37834294.362,0.040,-197013099.387800,0.005,-6.380,49.7,2356.806,0c1c1c24,1,0,37834275.096,0.040,-160089195.810013,0.005,-5.182,49.7,2355.012,06a41c20,2,0,37721244.899,0.048,-196424413.566452,0.005,72.894,47.0,2356.012,0c1c1c44,2,0,37721210.794,0.059,-159610781.346253,0.006,59.220,45.7,2355.012,06a41c40,3,0,36945584.567,0.058,-192385354.782251,0.006,54.491,45.7,2356.012,0c1c1c64,3,0,36945557.185,0.040,-156328738.798194,0.005,44.252,49.8,2355.012,06a41c60,8,0,37248828.913,0.072,-193964408.592186,0.007,-1234.251,44.0,2356.012,081c1c84,8,0,37248812.581,0.040,-157611906.220555,0.005,-1002.964,48.6,2354.012,02a41c80,4,0,39005442.766,0.414,-203111574.813586,0.040,34.739,33.0,4.000,0c1c1ca4,4,0,39005417.601,0.130,-165044692.817188,0.011,27.719,37.2,2341.000,06a41ca0,3,0,23799310.538,0.054,-125066211.184399,0.006,1017.341,46.3,2348.000,083b1c24,3,0,23799308.102,0.084,-93393606.006033,0.008,759.724,42.5,2348.000,01931c2b,3,0,23799306.069,0.093,-95829947.208016,0.008,779.644,41.3,2349.000,02331c20,8,0,26153162.702,0.126,-137435822.851477,0.011,2985.733,37.5,304.000,083b1d84,8,0,26153166.371,0.168,-102630641.504800,0.016,2229.664,34.0,304.000,01931d8b,8,0,26153162.458,0.162,-105307955.022198,0.015,2287.709,34.5,305.000,02331d807feb0496
#BESTPOSA,COM1,0,98.0,FINE,2427,444205.000,2361121,1842,18;SOL_COMPUTED,SINGLE,34.36851648190,109.22192043485,490.9023,-33.6671,WGS84,8.9991,3.1436,9.4399,,0.000,0.000,11,11,0,4,0,06,03,53524be36c
#RANGEA,COM1,0,98.0,FINE,2427,444206.000,2362121,2,18;25,15,0,21647480.267,0.040,-113758297.583457,0.005,3162.907,48.8,2353.012,08181c44,15,0,21647476.313,0.072,-88642816.256440,0.007,2464.750,45.7,2349.000,01301c4b,20,0,20484841.740,0.040,-107648578.445966,0.005,1349.399,48.1,2353.012,08181c64,20,0,20484838.225,0.099,-83881996.008850,0.009,1051.711,43.3,2349.000,01301c6b,20,0,20484840.543,0.048,-80386925.088600,0.006,1007.649,47.0,2353.012,01d01c60,55,4,22144978.936,0.044,-118211404.224974,0.005,-3106.371,47.5,2350.000,08191c24,55,4,22144972.612,0.081,-91942124.747577,0.008,-2416.044,42.9,2349.000,00b91c2b,42,8,19670208.306,0.040,-105148547.942802,0.005,1891.471,52.5,2350.000,08191c44,42,8,19670198.544,0.040,-81782157.382170,0.005,1471.147,50.7,2350.000,00b91c4b,1,0,37834295.514,0.040,-197013105.643598,0.005,-6.321,49.8,2357.806,0c1c1c24,1,0,37834276.302,0.040,-160089200.897519,0.005,-5.167,49.6,2356.012,06a41c20,2,0,37721230.821,0.047,-196424340.525355,0.005,72.968,47.1,2357.012,0c1c1c44,2,0,37721196.766,0.059,-159610721.992886,0.006,59.280,45.7,2356.012,06a41c40,3,0,36945573.951,0.058,-192385300.169484,0.006,54.528,45.7,2357.012,0c1c1c64,3,0,36945546.719,0.040,-156328694.419596,0.005,44.267,49.7,2356.012,06a41c60,8,0,37249066.025,0.071,-193965642.777368,0.007,-1234.340,44.1,2357.012,081c1c84,8,0,37249049.598,0.040,-157612909.101273,0.005,-1002.979,48.6,2355.012,02a41c80,4,0,39005436.292,0.461,-203111540.496275,0.045,33.912,33.2,5.000,0c1c1ca4,4,0,39005411.224,0.130,-165044664.958428,0.011,27.794,37.2,2342.000,06a41ca0,3,0,23799116.920,0.055,-125065193.948289,0.006,1016.917,46.1,2349.000,083b1c24,3,0,23799114.521,0.083,-93392846.387486,0.008,759.396,42.6,2349.000,01931c2b,3,0,23799112.385,0.093,-95829167.793399,0.008,779.227,41.3,2350.000,02331c20,8,0,26152594.509,0.126,-137432837.030756,0.011,2985.688,37.5,305.000,083b1d84,8,0,26152598.280,0.166,-102628411.840661,0.016,2229.515,34.2,305.000,01931d8b,8,0,26152594.399,0.160,-105305667.183199,0.015,2287.768,34.7,306.000,02331d804368840a
#BESTPOSA,COM1,0,98.0,FINE,2427,444206.000,2362121,2842,18;SOL_COMPUTED,SINGLE,34.36852220162,109.22192146798,489.9910,-33.6672,WGS84,8.2042,3.1369,8.1023,,0.000,0.000,11,11,0,4,0,06,03,53efcc8670
#RANGEA,COM1,0,98.0,FINE,2427,444207.000,2363121,2,18;25,15,0,21646878.370,0.040,-113755134.604476,0.005,3162.646,48.8,2354.012,08181c44,15,0,21646874.393,0.074,-88640351.603522,0.007,2464.378,45.6,2350.000,01301c4b,20,0,20484584.924,0.040,-107647229.085470,0.005,1348.907,48.1,2354.012,08181c64,20,0,20484581.398,0.100,-83880944.546013,0.009,1051.286,43.2,2350.000,01301c6b,20,0,20484583.769,0.048,-80385917.450842,0.005,1007.307,47.0,2354.012,01d01c60,55,4,22145560.931,0.044,-118214510.570315,0.005,-3106.721,47.6,2351.000,08191c24,55,4,22145554.639,0.079,-91944540.786448,0.007,-2416.313,43.1,2350.000,00b91c2b,42,8,19669854.433,0.040,-105146656.568124,0.005,1890.860,52.6,2351.000,08191c44,42,8,19669844.631,0.040,-81780686.315173,0.005,1470.670,50.7,2351.000,00b91c4b,1,0,37834296.719,0.040,-197013111.733408,0.005,-6.313,49.8,2358.806,0c1c1c24,1,0,37834277.463,0.040,-160089205.839676,0.005,-5.130,49.6,2357.012,06a41c20,2,0,37721216.754,0.048,-196424267.304327,0.005,73.043,47.0,2358.012,0c1c1c44,2,0,37721182.668,0.059,-159610662.491879,0.006,59.347,45.6,2357.012,06a41c40,3,0,36945563.493,0.058,-192385245.362145,0.006,54.655,45.7,2358.012,0c1c1c64,3,0,36945536.178,0.040,-156328649.887238,0.005,44.371,49.7,2357.012,06a41c60,8,0,37249303.090,0.071,-193966876.925103,0.007,-1234.392,44.2,2358.012,081c1c84,8,0,37249286.620,0.040,-157613911.936193,0.005,-1003.016,48.6,2356.012,02a41c80,4,0,39005429.626,0.525,-203111506.072801,0.051,34.248,32.9,6.000,0c1c1ca4,4,0,39005404.447,0.129,-165044636.982410,0.011,27.816,37.3,2343.000,06a41ca0,3,0,23798923.322,0.056,-125064176.962240,0.006,1016.633,46.0,2350.000,083b1c24,3,0,23798921.008,0.084,-93392086.943342,0.008,759.217,42.5,2350.000,01931c2b,3,0,23798918.961,0.094,-95828388.548827,0.008,778.944,41.3,2351.000,02331c20,8,0,26152026.326,0.124,-137429851.161389,0.011,2985.680,37.6,306.000,083b1d84,8,0,26152029.968,0.166,-102626182.135506,0.016,2229.492,34.1,306.000,01931d8b,8,0,26152026.256,0.161,-105303379.315869,0.015,2287.709,34.6,307.000,02331d8088203c2a
#BESTPOSA,COM1,0,98.0,FINE,2427,444207.000,2363121,3841,18;SOL_COMPUTED,SINGLE,34.36852575048,109.22192165507,489.4495,-33.6672,WGS84,8.2164,3.1370,8.1203,,0.000,0.000,11,11,0,4,0,06,03,539361342b
#RANGEA,COM1,0,98.0,FINE,2427,444208.000,2364121,2,18;25,15,0,21646276.484,0.040,-113751971.866633,0.005,3162.438,48.9,2355.012,08181c44,15,0,21646272.576,0.075,-88637887.134577,0.007,2464.370,45.5,2351.000,01301c4b,20,0,20484328.255,0.040,-107645880.199703,0.005,1348.445,48.2,2355.012,08181c64,20,0,20484324.649,0.101,-83879893.477011,0.009,1050.787,43.1,2351.000,01301c6b,20,0,20484327.049,0.047,-80384910.173484,0.005,1006.934,47.1,2355.012,01d01c60,55,4,22146142.949,0.043,-118217617.198897,0.005,-3106.967,47.6,2352.000,08191c24,55,4,22146136.669,0.078,-91946957.061606,0.007,-2416.536,43.2,2351.000,00b91c2b,42,8,19669500.663,0.040,-105144765.780642,0.005,1890.309,52.7,2352.000,08191c44,42,8,19669490.875,0.040,-81779215.705925,0.005,1470.230,50.8,2352.000,00b91c4b,1,0,37834297.882,0.040,-197013117.676964,0.005,-6.119,49.8,2359.806,0c1c1c24,1,0,37834278.590,0.040,-160089210.674964,0.005,-4.959,49.6,2358.012,06a41c20,2,0,37721202.660,0.048,-196424193.954702,0.005,73.222,47.0,2359.012,0c1c1c44,2,0,37721168.529,0.059,-159610602.895996,0.006,59.481,45.6,2358.012,06a41c40,3,0,36945552.938,0.058,-192385190.436700,0.006,54.819,45.7,2359.012,0c1c1c64,3,0,36945525.662,0.040,-156328605.257768,0.005,44.506,49.7,2358.012,06a41c60,8,0,37249540.101,0.071,-193968111.063480,0.007,-1234.318,44.2,2359.012,081c1c84,8,0,37249523.629,0.040,-157614914.778247,0.005,-1002.979,48.6,2357.012,02a41c80,4,0,39005423.011,0.397,-203111471.492213,0.039,34.807,33.0,7.000,0c1c1ca4,4,0,39005397.710,0.143,-165044608.900498,0.012,27.891,37.2,2344.000,06a41ca0,3,0,23798729.710,0.057,-125063160.315165,0.006,1016.321,45.9,2351.000,083b1c24,3,0,23798727.407,0.084,-93391327.761474,0.008,758.979,42.5,2351.000,01931c2b,3,0,23798725.588,0.094,-95827609.556007,0.008,778.743,41.3,2352.000,02331c20,8,0,26151458.045,0.125,-137426865.307285,0.011,2985.710,37.6,307.000,083b1d84,8,0,26151461.856,0.167,-102623952.435417,0.016,2229.604,34.1,307.000,01931d8b,8,0,26151458.022,0.160,-105301091.441424,0.015,2287.768,34.6,308.000,02331d806015a665
#BESTPOSA,COM1,0,98.0,FINE,2427,444208.000,2364121,4842,18;SOL_COMPUTED,SINGLE,34.36852825102,109.22192162126,489.0740,-33.6672,WGS84,8.2154,3.1370,8.1215,,0.000,0.000,11,11,0,4,0,06,03,535a9e20dd
#RANGEA,COM1,0,98.0,FINE,2427,444209.000,2365121,2,18;25,15,0,21645674.765,0.040,-113748809.834230,0.005,3161.842,48.9,2356.012,08181c44,15,0,21645670.887,0.074,-88635423.204030,0.007,2463.730,45.5,2352.000,01301c4b,20,0,20484071.703,0.040,-107644532.233531,0.005,1347.678,48.1,2356.012,08181c64,20,0,20484068.239,0.102,-83878843.097537,0.009,1050.287,43.1,2352.000,01301c6b,20,0,20484070.544,0.048,-80383903.579243,0.005,1006.368,47.0,2356.012,01d01c60,55,4,22146725.108,0.043,-118220724.539203,0.005,-3107.525,47.6,2353.000,08191c24,55,4,22146718.888,0.077,-91949373.871582,0.007,-2416.931,43.4,2352.000,00b91c2b,42,8,19669147.095,0.040,-105142876.055404,0.005,1889.341,52.7,2353.000,08191c44,42,8,19669137.337,0.040,-81777745.921472,0.005,1469.508,50.9,2353.000,00b91c4b,1,0,37834299.138,0.040,-197013123.961484,0.005,-6.298,49.9,2360.806,0c1c1c24,1,0,37834279.786,0.040,-160089215.775777,0.005,-5.085,49.4,2359.012,06a41c20,2,0,37721188.567,0.048,-196424120.940860,0.005,73.028,47.1,2360.012,0c1c1c44,2,0,37721154.493,0.061,-159610543.557203,0.006,59.377,45.3,2359.012,06a41c40,3,0,36945542.457,0.058,-192385135.851329,0.006,54.528,45.7,2360.012,0c1c1c64,3,0,36945515.154,0.040,-156328560.893226,0.005,44.379,49.4,2359.012,06a41c60,8,0,37249777.301,0.070,-193969345.674961,0.007,-1234.690,44.2,2360.012,081c1c84,8,0,37249760.747,0.040,-157615917.994945,0.005,-1003.262,48.3,2358.012,02a41c80,4,0,39005416.421,0.374,-203111437.249479,0.036,34.106,33.2,8.000,0c1c1ca4,4,0,39005391.175,0.134,-165044581.048991,0.012,27.913,36.9,2345.000,06a41ca0,3,0,23798536.247,0.058,-125062144.451516,0.006,1015.613,45.8,2352.000,083b1c24,3,0,23798534.075,0.084,-93390569.155923,0.008,758.390,42.5,2352.000,01931c2b,3,0,23798532.262,0.093,-95826831.148265,0.008,778.273,41.4,2353.000,02331c20,8,0,26150889.942,0.125,-137423879.935714,0.011,2985.420,37.6,308.000,083b1d84,8,0,26150893.874,0.166,-102621723.095918,0.016,2229.328,34.2,308.000,01931d8b,8,0,26150889.931,0.158,-105298803.992202,0.015,2287.306,34.8,309.000,02331d8031228870
#BESTPOSA,COM1,0,98.0,FINE,2427,444209.000,2365121,5842,18;SOL_COMPUTED,SINGLE,34.36853011709,109.22192151202,488.7875,-33.6672,WGS84,8.2047,3.1369,8.1058,,0.000,0.000,11,11,0,4,0,06,03,5387adb354
#RANGEA,COM1,0,98.0,FINE,2427,444210.000,2366121,2,18;25,15,0,21645073.009,0.040,-113745647.980325,0.005,3162.036,48.9,2357.012,08181c44,15,0,21645069.173,0.071,-88632959.431286,0.007,2464.117,45.8,2353.000,01301c4b,20,0,20483815.270,0.040,-107643184.690426,0.005,1347.581,48.2,2357.012,08181c64,20,0,20483811.823,0.102,-83877793.082229,0.009,1050.161,43.0,2353.000,01301c6b,20,0,20483814.111,0.048,-80382897.296064,0.005,1006.286,47.0,2357.012,01d01c60,55,4,22147307.217,0.044,-118223832.081151,0.005,-3107.421,47.6,2354.000,08191c24,55,4,22147301.144,0.077,-91951790.848571,0.007,-2416.834,43.4,2353.000,00b91c2b,42,8,19668793.631,0.040,-105140986.868306,0.005,1889.154,52.6,2354.000,08191c44,42,8,19668783.891,0.040,-81776276.553461,0.005,1469.359,50.8,2354.000,00b91c4b,1,0,37834300.327,0.040,-197013130.046794,0.005,-5.717,49.9,2361.806,0c1c1c24,1,0,37834280.962,0.040,-160089220.727273,0.005,-4.631,49.7,2360.012,06a41c20,2,0,37721174.465,0.048,-196424047.739293,0.005,73.587,47.0,2361.012,0c1c1c44,2,0,37721140.557,0.060,-159610484.083152,0.006,59.712,45.5,2360.012,06a41c40,3,0,36945531.916,0.058,-192385081.074463,0.006,55.109,45.7,2361.012,0c1c1c64,3,0,36945504.678,0.040,-156328516.379084,0.005,44.819,49.5,2360.012,06a41c60,8,0,37250014.459,0.070,-193970580.212432,0.007,-1234.229,44.2,2361.012,081c1c84,8,0,37249997.839,0.040,-157616921.162128,0.005,-1002.972,48.4,2359.012,02a41c80,4,0,39005410.014,0.379,-203111402.825468,0.037,34.285,33.0,9.000,0c1c1ca4,4,0,39005384.726,0.132,-165044553.091764,0.011,28.241,37.0,2346.000,06a41ca0,3,0,23798342.789,0.059,-125061128.827034,0.006,1015.792,45.6,2353.000,083b1c24,3,0,23798340.834,0.084,-93389810.739602,0.008,758.584,42.5,2353.000,01931c2b,3,0,23798338.984,0.092,-95826052.965662,0.008,778.318,41.4,2354.000,02331c20,8,0,26150321.819,0.125,-137420894.524152,0.011,2985.748,37.6,309.000,083b1d84,8,0,26150325.719,0.166,-102619493.725462,0.016,2229.634,34.2,309.000,01931d8b,8,0,26150322.041,0.157,-105296516.437759,0.015,2287.850,34.9,310.000,02331d80b819a220
#BD2EPHEMA,COM1,0,98.0,FINE,2427,444210.000,2366121,3,18;1,444180.0,0,1,1,2427,2427,442800.0,4.216457261e+07,3.747298947e-09,-7.941954125e-01,4.9002585001e-04,1.0141745270e-01,1.237029210e-05,2.862466499e-05,-8.83390625e+02,3.78890625e+02,3.073364496e-08,2.607703209e-08,7.9156108324e-02,6.725280135e-10,-2.272096882e+00,-2.79261632e-09,1,442800.0,4.500000000e-09,4.500000000e-09,-8.95932e-07,-2.75335e-14,0.00000e+00,TRUE,7.292386048e-05,4.00000000e+00a7bd470a
#BD2EPHEMA,COM1,0,98.0,FINE,2427,444210.000,2366121,4,18;2,444150.0,0,1,1,2427,2427,442800.0,4.216425309e+07,7.514598727e-10,-8.516326718e-01,1.8973043188e-04,-2.8348598287e-01,-1.988140866e-05,1.864600927e-05,-5.66296875e+02,-6.09234375e+02,-3.026798368e-08,1.066364348e-07,8.3001131022e-02,3.507288950e-10,-2.879964264e+00,1.94293807e-10,1,442800.0,4.730000000e-08,4.730000000e-08,1.11526e-07,2.66454e-15,0.00000e+00,TRUE,7.292169351e-05,4.00000000e+00093b34e8
#BD2EPHEMA,COM1,0,98.0,FINE,2427,444210.000,2366121,4,18;3,444150.0,0,1,1,2427,2427,442800.0,4.216379313e+07,1.118618024e-09,1.207654130e+00,2.1941622254e-04,-1.9429219088e+00,-1.804810017e-05,2.406910062e-05,-7.32609375e+02,-5.62281250e+02,-9.220093489e-08,3.958120942e-08,9.6145420706e-02,4.739483133e-10,-2.747662335e+00,-3.63586573e-10,1,442800.0,3.530000000e-08,3.530000000e-08,-1.95228e-07,4.70735e-14,0.00000e+00,TRUE,7.292325390e-05,4.00000000e+0071ac8c27
#BD2EPHEMA,COM1,0,98.0,FINE,2427,444210.000,2366121,4,18;4,444150.0,0,1,1,2427,2427,442800.0,4.216421143e+07,1.867220634e-09,8.042476010e-01,8.0782978330e-04,-7.5679709091e-01,-1.188972965e-05,3.150524572e-05,-9.74484375e+02,-3.72921875e+02,-1.024454832e-08,6.845220923e-08,1.1951755585e-01,5.196645033e-10,-2.666899897e+00,-8.33963309e-10,1,442800.0,4.170000000e-08,4.170000000e-08,-6.46804e-07,-1.19904e-13,0.00000e+00,TRUE,7.292291735e-05,4.00000000e+0064c0a469
#BD2EPHEMA,COM1,0,98.0,FINE,2427,444210.000,2366121,4,18;8,444150.0,0,1,1,2427,2427,442800.0,4.216155411e+07,1.490419225e-09,-2.656951391e-01,4.6369143529e-03,-2.8965254376e+00,-7.028225809e-06,1.507671550e-05,-2.27734375e+02,-1.99328125e+02,1.545995474e-07,-1.578591764e-07,9.5604152427e-01,-1.291125209e-09,-1.622833868e-01,-2.14187493e-09,1,442800.0,9.000000000e-10,9.000000000e-10,-2.49877e-04,-3.37508e-12,0.00000e+00,TRUE,7.292943466e-05,4.00000000e+00abb01c85
#BD2EPHEMA,COM1,0,98.0,FINE,2427,444210.000,2366121,4,18;9,439200.0,0,1,1,2427,2427,439200.0,4.215856165e+07,1.248266281e-09,2.677533831e+00,5.8233417803e-03,-2.3093162181e+00,1.012301072e-05,-4.729256034e-06,4.13453125e+02,3.01546875e+02,-1.913867891e-07,-6.565824151e-08,1.0513420513e+00,5.789526871e-10,1.882590019e+00,-2.62582366e-09,1,439200.0,-1.030000000e-08,2.800000000e-09,-5.76941e-04,-2.11227e-11,0.00000e+00,TRUE,7.293695740e-05,4.00000000e+0078df3ecf
#GLOEPHEMERISA,COM1,0,98.0,FINE,2427,444210.000,2366121,5,18;41,13,1,0,2427,441918000,10782,929,0,0,23,0,-8.995685546875000e+06,1.858226269531250e+07,1.501763281250000e+07,4.076690673828125e+02,-2.019845962524414e+03,2.746392250061035e+03,-0.000003725290298,-9.313225746154785e-07,-0.000000000000000e+00,-9.154900908470154e-07,-2.793967724e-09,2.728484105318785e-12,20640,2,4,0,121565653b
#GLOEPHEMERISA,COM1,0,98.0,FINE,2427,444210.000,2366121,5,18;42,8,1,0,2427,443718000,10782,929,0,0,25,0,-2.160596679687500e+06,2.482281347656250e+07,5.519044921875000e+06,2.117385864257813e+02,-7.584428787231445e+02,3.495445251464844e+03,-0.000002793967724,-9.313225746154785e-07,0.000000000000000e+00,-1.712050288915634e-04,2.793967724e-09,9.094947017729282e-13,21600,2,3,0,13015c6170
#GLOEPHEMERISA,COM1,0,98.0,FINE,2427,444210.000,2366121,5,18;54,11,1,0,2427,440118000,10782,929,0,0,21,0,-2.459555712890625e+07,5.806184082031250e+06,-3.240311035156250e+06,4.796152114868164e+02,4.908657073974609e+01,-3.552113533020020e+03,-0.000004656612873,-0.000000000000000e+00,2.793967723846436e-06,-3.138212487101555e-04,0.000000000e+00,2.728484105318785e-12,18000,2,3,0,131a8d945e
#GLOEPHEMERISA,COM1,0,98.0,FINE,2427,444210.000,2366121,5,18;55,4,1,0,2427,443718000,10782,929,0,0,25,0,-2.186305566406250e+07,1.317552050781250e+07,2.563686523437500e+05,7.929039001464844e+01,1.981067657470703e+02,-3.588510513305664e+03,-0.000005587935448,9.313225746154785e-07,1.862645149230957e-06,-2.712905406951904e-04,5.587935448e-09,1.818989403545856e-12,21600,2,2,0,13f726d9c1
#GALEPHEMERISA,COM1,0,98.0,FINE,2427,444210.000,2366121,5,18;3,TRUE,TRUE,0,0,0,0,0,0,107,0,104,443400,5.44062375e+03,3.1019e-09,-2.85734688e-01,5.375930341e-04,6.111469320e-01,-9.1083e-06,6.0741e-06,2.164e+02,-1.960e+02,6.1467e-08,8.7544e-08,9.693742949e-01,-3.1858e-10,2.974746324e+00,-5.79774150e-09,443400,-2.906174632e-05,-2.231104e-12,0.0e+00,443400,-2.906133886e-05,-2.231104e-12,0.0e+00,6.985e-10,1.164e-09f30f95ea
#GALEPHEMERISA,COM1,0,98.0,FINE,2427,444210.000,2366121,6,18;8,TRUE,TRUE,0,0,0,0,0,0,107,0,101,441600,5.44062768e+03,2.9601e-09,-1.13176403e+00,4.887898685e-04,4.441482282e-01,-8.7153e-06,5.5395e-06,2.277e+02,-1.907e+02,9.1270e-08,1.3039e-08,9.751238511e-01,-3.0823e-10,2.977979050e+00,-5.76559730e-09,441600,-1.842179336e-04,-7.119638e-12,0.0e+00,441600,-1.842186321e-04,-7.119638e-12,0.0e+00,-6.054e-09,-6.752e-096c3c15a1
#GALEPHEMERISA,COM1,0,98.0,FINE,2427,444210.000,2366121,6,18;30,TRUE,TRUE,0,0,0,0,0,0,107,0,101,441600,5.44060682e+03,3.8234e-09,2.94136476e+00,2.041085390e-04,5.346559971e-01,2.0862e-06,4.6697e-06,2.357e+02,4.513e+01,-1.1176e-08,-1.3597e-07,9.582840899e-01,2.5930e-10,-1.204952063e+00,-5.94167607e-09,441600,-1.262770384e-03,-3.984724e-11,0.0e+00,441600,-1.262770267e-03,-3.984724e-11,0.0e+00,-1.164e-09,-1.164e-095514ca2a
#GPSEPHEM,98,GPS,FINE,2427,444210000,0,0,18,6;6,444180.0,0,65,65,2427,2427,446384.0,2.656090188e+07,3.590506702e-09,-2.100133433e+00,3.6949324422e-03,-5.4521298743e-01,4.176050425e-06,1.219287515e-05,1.58593750e+02,8.24062500e+01,-4.097819328e-08,7.450580597e-09,9.8594922399e-01,-1.578637185e-10,7.069202917e-01,-7.59960227e-09,65,446384.0,3.725290298e-09,-5.7218922e-04,7.7307050e-12,0.0000000e+00,TRUE,1.458530061e-04,4.00000000e+00731e6024
#GPSEPHEM,98,GPS,FINE,2427,444210000,0,0,18,6;12,444180.0,0,28,28,2427,2427,446400.0,2.656060573e+07,5.025923636e-09,2.605506236e+00,8.7071456946e-03,1.5869451225e+00,1.937150955e-06,6.068497896e-06,2.55750000e+02,3.76250000e+01,1.117587090e-07,-1.806765795e-07,9.5821653235e-01,3.075128091e-10,-1.343977498e+00,-8.15283960e-09,28,446400.0,-1.257285476e-08,-6.0566608e-04,5.6843419e-13,0.0000000e+00,TRUE,1.458568809e-04,4.00000000e+00a38eb657
#GPSEPHEM,98,GPS,FINE,2427,444210000,0,0,18,6;13,439200.0,63,228,228,2427,2427,446400.0,2.655944668e+07,4.986993443e-09,2.463705863e+00,2.2715845844e-03,1.8219386875e+00,2.086162567e-06,6.932765245e-06,2.42093750e+02,3.96875000e+01,6.705522537e-08,-1.229345798e-07,9.5873004001e-01,4.282321233e-10,-1.452512725e+00,-8.22141388e-09,996,446400.0,-8.381903172e-09,4.1664299e-04,4.8885340e-12,0.0000000e+00,TRUE,1.458663895e-04,4.00000000e+0044de2887
#GPSEPHEM,98,GPS,FINE,2427,444210000,0,0,18,7;15,444180.0,0,22,22,2427,2427,446400.0,2.656116167e+07,5.184858827e-09,-1.179137318e+00,1.7026434070e-02,1.5349942844e+00,-3.559514880e-06,3.051012754e-06,3.13093750e+02,-7.72500000e+01,-1.806765795e-07,3.706663847e-07,9.4471042353e-01,-1.225051028e-10,2.600904886e+00,-8.84465413e-09,22,446400.0,-1.071020961e-08,4.2895321e-04,3.0695446e-12,0.0000000e+00,TRUE,1.458524607e-04,4.00000000e+0045cd27d9
#GPSEPHEM,98,GPS,FINE,2427,444210000,0,0,18,7;19,439200.0,0,70,70,2427,2427,446400.0,2.656117294e+07,4.903418533e-09,1.485044892e+00,1.1771167628e-02,3.0263263084e+00,-1.078471541e-06,7.644295692e-06,2.29093750e+02,-2.45312500e+01,8.940696716e-08,1.713633537e-07,9.5669776006e-01,-8.486067764e-10,-2.678034820e-01,-8.19641284e-09,70,446400.0,-1.536682248e-08,7.0364494e-04,4.5474735e-13,0.0000000e+00,TRUE,1.458520864e-04,4.00000000e+00d2153d3b
#GPSEPHEM,98,GPS,FINE,2427,444210000,0,0,18,7;20,444150.0,0,13,13,2427,2427,446400.0,2.655974705e+07,4.653765277e-09,2.453013630e+00,1.9116624026e-03,-1.7585265035e+00,-5.641952157e-06,4.054978490e-06,3.02281250e+02,-1.09312500e+02,5.215406418e-08,2.048909664e-08,9.6209452776e-01,-2.332240004e-10,2.753103992e+00,-8.35963393e-09,13,446400.0,-6.984919310e-09,2.3262715e-04,1.2164492e-11,0.0000000e+00,TRUE,1.458635818e-04,4.00000000e+008438a2fb
#BESTPOSA,COM1,0,98.0,FINE,2427,444210.000,2366121,6846,18;SOL_COMPUTED,SINGLE,34.36853138702,109.22192136857,488.5856,-33.6672,WGS84,8.2134,3.1369,8.1237,,0.000,0.000,11,11,0,4,0,06,03,53d828d658
#RANGEA,COM1,0,98.0,FINE,2427,444211.000,2367130,2,18;25,15,0,21644471.272,0.040,-113742485.946003,0.005,3162.781,48.9,2358.012,08181c44,15,0,21644467.527,0.070,-88630495.491910,0.007,2464.773,45.9,2354.000,01301c4b,20,0,20483558.824,0.040,-107641837.180639,0.005,1348.177,48.2,2358.012,08181c64,20,0,20483555.419,0.102,-83876743.069939,0.009,1050.645,43.0,2354.000,01301c6b,20,0,20483557.588,0.048,-80381891.033430,0.005,1006.763,47.0,2358.012,01d01c60,55,4,22147889.367,0.044,-118226939.465356,0.005,-3106.654,47.5,2355.000,08191c24,55,4,22147883.409,0.076,-91954207.704293,0.007,-2416.275,43.5,2354.000,00b91c2b,42,8,19668440.228,0.040,-105139097.844645,0.005,1889.631,52.6,2355.000,08191c44,42,8,19668430.527,0.040,-81774807.316566,0.005,1469.709,50.8,2355.000,00b91c4b,1,0,37834301.330,0.040,-197013135.585172,0.005,-4.585,50.0,2362.806,0c1c1c24,1,0,37834282.026,0.040,-160089225.219712,0.005,-3.715,49.8,2361.012,06a41c20,2,0,37721160.291,0.048,-196423973.980065,0.005,74.757,47.0,2362.012,0c1c1c44,2,0,37721126.415,0.060,-159610424.149832,0.006,60.644,45.5,2361.012,06a41c40,3,0,36945521.274,0.058,-192385025.733860,0.006,56.309,45.7,2362.012,0c1c1c64,3,0,36945494.064,0.040,-156328471.421599,0.005,45.727,49.5,2361.012,06a41c60,8,0,37250251.487,0.070,-193971814.324244,0.007,-1233.223,44.2,2362.012,081c1c84,8,0,37250234.847,0.040,-157617923.981666,0.005,-1002.115,48.4,2360.012,02a41c80,4,0,39005403.453,0.304,-203111367.874753,0.029,35.857,33.1,10.000,0c1c1ca4,4,0,39005377.897,0.132,-165044524.677209,0.012,29.142,37.0,2347.000,06a41ca0,3,0,23798149.342,0.059,-125060113.118393,0.006,1016.455,45.6,2354.000,083b1c24,3,0,23798147.638,0.084,-93389052.252027,0.008,759.053,42.5,2354.000,01931c2b,3,0,23798145.725,0.092,-95825274.702894,0.008,778.810,41.5,2355.000,02331c20,8,0,26149753.696,0.124,-137417908.681853,0.010,2986.783,37.7,310.000,083b1d84,8,0,26149757.459,0.165,-102617264.052903,0.016,2230.491,34.3,310.000,01931d8b,8,0,26149753.835,0.157,-105294228.569889,0.015,2288.692,34.9,311.000,02331d80f050cc0d
#BESTPOSA,COM1,0,98.0,FINE,2427,444211.000,2367130,7851,18;SOL_COMPUTED,SINGLE,34.36853244821,109.22192121398,488.4234,-33.6672,WGS84,8.2027,3.1367,8.1080,,0.000,0.000,11,11,0,4,0,06,03,53105b87c7
#RANGEA,COM1,0,98.0,FINE,2427,444212.000,2368130,2,18;25,15,0,21643869.522,0.040,-113739323.656611,0.005,3161.268,48.9,2359.012,08181c44,15,0,21643865.681,0.074,-88628031.396835,0.007,2462.716,45.5,2355.000,01301c4b,20,0,20483302.384,0.040,-107640489.651310,0.005,1346.366,48.2,2359.012,08181c64,20,0,20483299.158,0.102,-83875693.054534,0.009,1048.797,43.1,2355.000,01301c6b,20,0,20483301.135,0.047,-80380884.760649,0.005,1005.429,47.1,2359.012,01d01c60,55,4,22148471.402,0.043,-118230046.648574,0.005,-3108.226,47.6,2356.000,08191c24,55,4,22148465.637,0.076,-91956624.399218,0.007,-2417.550,43.6,2355.000,00b91c2b,42,8,19668086.871,0.040,-105137208.908975,0.005,1887.731,52.7,2356.000,08191c44,42,8,19668077.134,0.040,-81773338.145936,0.005,1468.234,50.8,2356.000,00b91c4b,1,0,37834302.184,0.040,-197013140.500588,0.005,-5.658,50.0,2363.806,0c1c1c24,1,0,37834282.891,0.040,-160089229.222496,0.005,-4.638,49.9,2362.012,06a41c20,2,0,37721145.972,0.048,-196423899.604972,0.005,73.624,47.0,2363.012,0c1c1c44,2,0,37721112.093,0.059,-159610363.716728,0.006,59.794,45.6,2362.012,06a41c40,3,0,36945510.558,0.059,-192384969.801178,0.006,55.072,45.7,2363.012,0c1c1c64,3,0,36945483.322,0.040,-156328425.964050,0.005,44.796,49.6,2362.012,06a41c60,8,0,37250488.451,0.070,-193973047.968108,0.007,-1234.541,44.2,2363.012,081c1c84,8,0,37250471.747,0.040,-157618926.410171,0.005,-1003.158,48.5,2361.012,02a41c80,4,0,39005396.153,0.447,-203111332.291134,0.043,36.073,33.1,11.000,0c1c1ca4,4,0,39005370.946,0.132,-165044495.741169,0.011,28.286,37.0,2348.000,06a41ca0,3,0,23797955.822,0.060,-125059097.219015,0.006,1014.838,45.5,2355.000,083b1c24,3,0,23797954.266,0.084,-93388293.635550,0.008,757.787,42.5,2355.000,01931c2b,3,0,23797952.410,0.092,-95824496.283601,0.008,777.610,41.5,2356.000,02331c20,8,0,26149185.477,0.122,-137414922.371118,0.010,2985.427,37.8,311.000,083b1d84,8,0,26149189.141,0.165,-102615034.038363,0.016,2229.276,34.3,311.000,01931d8b,8,0,26149185.769,0.159,-105291940.364228,0.015,2287.642,34.7,312.000,02331d801ac28d9e
#BESTPOSA,COM1,0,98.0,FINE,2427,444212.000,2368130,8850,18;SOL_COMPUTED,SINGLE,34.36853388338,109.22192110614,488.2236,-33.6672,WGS84,8.2016,3.1366,8.1091,,0.000,0.000,11,11,0,4,0,06,03,532a39d143
#RANGEA,COM1,0,98.0,FINE,2427,444213.000,2369130,2,18;25,15,0,21643268.060,0.040,-113736162.943687,0.005,3160.180,48.9,2360.012,08181c44,15,0,21643264.232,0.075,-88625568.487706,0.007,2462.739,45.5,2356.000,01301c4b,20,0,20483046.353,0.040,-107639143.915205,0.005,1345.092,48.3,2360.012,08181c64,20,0,20483042.971,0.102,-83874644.431929,0.009,1048.239,43.0,2356.000,01301c6b,20,0,20483044.980,0.048,-80379879.826621,0.005,1004.498,47.0,2360.012,01d01c60,55,4,22149053.763,0.043,-118233155.441907,0.005,-3109.343,47.7,2357.000,08191c24,55,4,22149048.077,0.074,-91959042.338508,0.007,-2418.362,43.8,2356.000,00b91c2b,42,8,19667733.897,0.040,-105135321.908965,0.005,1886.301,52.9,2357.000,08191c44,42,8,19667724.139,0.040,-81771870.477388,0.005,1467.146,51.0,2357.000,00b91c4b,1,0,37834303.332,0.040,-197013146.609952,0.005,-6.447,50.0,2364.806,0c1c1c24,1,0,37834284.131,0.040,-160089234.179389,0.005,-5.227,49.9,2363.012,06a41c20,2,0,37721131.954,0.048,-196423826.428559,0.005,72.797,47.0,2364.012,0c1c1c44,2,0,37721098.041,0.059,-159610304.244137,0.006,59.220,45.6,2363.012,06a41c40,3,0,36945499.947,0.059,-192384915.046824,0.006,54.439,45.7,2364.012,0c1c1c64,3,0,36945472.806,0.040,-156328381.474115,0.005,44.208,49.7,2363.012,06a41c60,8,0,37250725.609,0.070,-193974282.926950,0.007,-1235.361,44.2,2364.012,081c1c84,8,0,37250708.910,0.040,-157619929.904222,0.005,-1003.799,48.5,2362.012,02a41c80,4,0,39005389.603,0.397,-203111297.937696,0.039,34.434,33.0,12.000,0c1c1ca4,4,0,39005364.628,0.145,-165044467.809699,0.013,27.705,37.0,2349.000,06a41ca0,3,0,23797762.569,0.061,-125058082.977748,0.006,1013.713,45.4,2356.000,083b1c24,3,0,23797761.238,0.084,-93387536.254461,0.008,756.989,42.5,2356.000,01931c2b,3,0,23797759.444,0.092,-95823719.124200,0.008,776.739,41.5,2357.000,02331c20,8,0,26148617.602,0.120,-137411937.365493,0.010,2984.600,38.0,312.000,083b1d84,8,0,26148621.045,0.163,-102612804.977516,0.015,2228.606,34.4,312.000,01931d8b,8,0,26148617.692,0.158,-105289653.147073,0.015,2286.994,34.8,313.000,02331d8095dbf18a
#BESTPOSA,COM1,0,98.0,FINE,2427,444213.000,2369130,9850,18;INSUFFICIENT_OBS,NONE,0.00000000000,0.00000000000,0.0000,0.0000,ERROR,0.0000,0.0000,0.0000,,0.000,0.000,0,0,0,0,0,00,00,00e33eb212
#RANGEA,COM1,0,98.0,FINE,2427,444214.000,2370130,2,18;25,15,0,21642666.647,0.040,-113733002.613779,0.005,3160.166,49.0,2361.012,08181c44,15,0,21642662.889,0.074,-88623105.901095,0.007,2462.873,45.5,2357.000,01301c4b,20,0,20482790.428,0.040,-107637798.786319,0.005,1344.861,48.3,2361.012,08181c64,20,0,20482787.038,0.102,-83873596.272308,0.009,1048.149,43.0,2357.000,01301c6b,20,0,20482788.957,0.048,-80378875.350059,0.006,1004.274,47.0,2361.012,01d01c60,55,4,22149636.202,0.043,-118236264.626217,0.005,-3109.403,47.6,2358.000,08191c24,55,4,22149630.663,0.074,-91961460.594687,0.007,-2418.458,43.7,2357.000,00b91c2b,42,8,19667381.037,0.040,-105133435.628995,0.005,1885.936,52.9,2358.000,08191c44,42,8,19667371.362,0.040,-81770403.378928,0.005,1466.818,50.9,2358.000,00b91c4b,1,0,37834304.581,0.040,-197013152.730377,0.005,-6.142,50.0,2365.806,0c1c1c24,1,0,37834285.327,0.040,-160089239.152764,0.005,-4.981,50.0,2364.012,06a41c20,2,0,37721117.920,0.048,-196423753.259655,0.005,73.155,47.0,2365.012,0c1c1c44,2,0,37721084.020,0.059,-159610244.789845,0.006,59.489,45.7,2364.012,06a41c40,3,0,36945489.432,0.058,-192384860.302826,0.006,54.707,45.7,2365.012,0c1c1c64,3,0,36945462.301,0.040,-156328336.990807,0.005,44.453,49.8,2364.012,06a41c60,8,0,37250962.888,0.070,-193975518.013905,0.007,-1235.145,44.2,2365.012,081c1c84,8,0,37250946.081,0.040,-157620933.521363,0.005,-1003.642,48.5,2363.012,02a41c80,4,0,39005382.876,0.411,-203111264.544340,0.150,34.583,33.1,0.000,0c1c10a4,4,0,39005357.889,0.130,-165044439.896091,0.011,27.898,37.2,2350.000,06a41ca0,3,0,23797569.422,0.061,-125057069.203483,0.006,1013.549,45.4,2357.000,083b1c24,3,0,23797568.281,0.084,-93386779.212269,0.008,756.915,42.5,2357.000,01931c2b,3,0,23797566.448,0.092,-95822942.352349,0.008,776.560,41.4,2358.000,02331c20,8,0,26148049.673,0.121,-137408952.535985,0.010,2984.846,38.0,313.000,083b1d84,8,0,26148053.037,0.162,-102610576.016730,0.015,2229.083,34.5,313.000,01931d8b,8,0,26148049.821,0.162,-105287366.106254,0.015,2287.023,34.5,314.000,02331d80b404bb31
#BESTPOSA,COM1,0,98.0,FINE,2427,444214.000,2370130,10850,18;SOL_COMPUTED,SINGLE,34.36853560809,109.22191996101,488.0118,-33.6673,WGS84,10.2673,3.1548,11.4721,,0.000,0.000,11,11,0,4,0,06,03,53e47259cd
#RANGEA,COM1,0,98.0,FINE,2427,444215.000,2371130,2,18;25,15,0,21642065.293,0.040,-113729842.466056,0.005,3160.009,48.9,2362.012,08181c44,15,0,21642061.479,0.073,-88620643.447271,0.007,2462.448,45.6,2358.000,01301c4b,20,0,20482534.561,0.040,-107636454.066640,0.005,1344.452,48.2,2362.012,08181c64,20,0,20482531.092,0.102,-83872548.445157,0.009,1047.955,43.0,2358.000,01301c6b,20,0,20482533.056,0.048,-80377871.181437,0.005,1004.006,47.0,2362.012,01d01c60,55,4,22150218.683,0.042,-118239374.033925,0.005,-3109.582,47.7,2359.000,08191c24,55,4,22150213.225,0.073,-91963879.022318,0.007,-2418.570,43.9,2358.000,00b91c2b,42,8,19667028.308,0.040,-105131549.868941,0.005,1885.429,53.1,2359.000,08191c44,42,8,19667018.597,0.040,-81768936.676198,0.005,1466.446,51.0,2359.000,00b91c4b,1,0,37834305.757,0.040,-197013158.659624,0.005,-5.859,49.9,2366.806,0c1c1c24,1,0,37834286.533,0.040,-160089243.973490,0.005,-4.765,50.0,2365.012,06a41c20,2,0,37721103.818,0.048,-196423679.909196,0.005,73.415,47.0,2366.012,0c1c1c44,2,0,37721069.942,0.058,-159610185.179121,0.006,59.682,45.8,2365.012,06a41c40,3,0,36945478.942,0.059,-192384805.381501,0.006,54.953,45.7,2366.012,0c1c1c64,3,0,36945451.784,0.040,-156328292.356107,0.005,44.699,49.9,2365.012,06a41c60,8,0,37251200.054,0.071,-193976753.054134,0.007,-1235.063,44.2,2366.012,081c1c84,8,0,37251183.247,0.040,-157621937.092669,0.005,-1003.642,48.6,2364.012,02a41c80,4,0,39005375.992,0.412,-203111228.990257,0.040,34.583,33.1,1.000,0c1c1ca4,4,0,39005351.200,0.129,-165044411.815628,0.011,28.077,37.2,2351.000,06a41ca0,3,0,23797376.344,0.061,-125056055.663032,0.006,1013.415,45.4,2358.000,083b1c24,3,0,23797375.327,0.085,-93386022.363896,0.008,756.677,42.4,2358.000,01931c2b,3,0,23797373.573,0.092,-95822165.732934,0.008,776.500,41.5,2359.000,02331c20,8,0,26147481.752,0.119,-137405967.651954,0.010,2984.906,38.1,314.000,083b1d84,8,0,26147485.136,0.161,-102608347.075427,0.015,2228.941,34.6,314.000,01931d8b,8,0,26147481.768,0.158,-105285078.995791,0.015,2287.001,34.8,315.000,02331d802659c345
#BESTPOSA,COM1,0,98.0,FINE,2427,444215.000,2371130,11850,18;SOL_COMPUTED,SINGLE,34.36853445606,109.22191972185,488.1598,-33.6673,WGS84,9.8479,3.1507,10.8715,,0.000,0.000,11,11,0,4,0,06,03,533a4d3870
#RANGEA,COM1,0,98.0,FINE,2427,444216.000,2372130,2,18;25,15,0,21641464.021,0.040,-113726682.818770,0.005,3158.951,48.9,2363.012,08181c44,15,0,21641460.303,0.072,-88618181.404329,0.007,2461.822,45.7,2359.000,01301c4b,20,0,20482278.826,0.040,-107635110.083162,0.005,1343.170,48.2,2363.012,08181c64,20,0,20482275.376,0.102,-83871501.189961,0.009,1046.525,43.0,2359.000,01301c6b,20,0,20482277.276,0.047,-80376867.560123,0.005,1003.023,47.1,2363.012,01d01c60,55,4,22150801.315,0.042,-118242483.976868,0.005,-3110.692,47.8,2360.000,08191c24,55,4,22150795.927,0.073,-91966297.865989,0.007,-2419.442,43.9,2359.000,00b91c2b,42,8,19666675.754,0.040,-105129664.976477,0.005,1883.969,53.2,2360.000,08191c44,42,8,19666666.022,0.040,-81767470.645020,0.005,1465.335,50.9,2360.000,00b91c4b,1,0,37834306.931,0.040,-197013164.730334,0.005,-6.656,50.0,2367.806,0c1c1c24,1,0,37834287.634,0.040,-160089248.897281,0.005,-5.376,49.8,2366.012,06a41c20,2,0,37721089.708,0.047,-196423606.681537,0.005,72.708,47.2,2367.012,0c1c1c44,2,0,37721055.885,0.058,-159610125.677085,0.006,59.079,45.8,2366.012,06a41c40,3,0,36945468.379,0.058,-192384750.591034,0.006,54.253,45.8,2367.012,0c1c1c64,3,0,36945441.246,0.040,-156328247.838914,0.005,44.081,49.8,2366.012,06a41c60,8,0,37251437.319,0.070,-193977988.351523,0.007,-1235.927,44.3,2367.012,081c1c84,8,0,37251420.491,0.040,-157622940.867323,0.005,-1004.305,48.5,2365.012,02a41c80,4,0,39005369.548,0.348,-203111194.564228,0.034,33.927,33.5,2.000,0c1c1ca4,4,0,39005344.601,0.131,-165044383.828792,0.011,27.600,37.1,2352.000,06a41ca0,3,0,23797183.354,0.062,-125055042.741543,0.006,1012.133,45.2,2359.000,083b1c24,3,0,23797182.588,0.084,-93385265.945065,0.008,755.835,42.5,2359.000,01931c2b,3,0,23797180.826,0.093,-95821389.598923,0.008,775.569,41.3,2360.000,02331c20,8,0,26146913.836,0.120,-137402983.047513,0.010,2983.967,38.0,315.000,083b1d84,8,0,26146917.202,0.159,-102606118.273618,0.015,2228.390,34.8,315.000,01931d8b,8,0,26146913.706,0.159,-105282792.065893,0.015,2286.502,34.7,316.000,02331d804974974f
#BESTPOSA,COM1,0,98.0,FINE,2427,444216.000,2372130,12850,18;SOL_COMPUTED,SINGLE,34.36853334332,109.22191944223,488.3047,-33.6672,WGS84,9.8468,3.1506,10.8728,,0.000,0.000,11,11,0,4,0,06,03,53f4402129
#RANGEA,COM1,0,98.0,FINE,2427,444217.000,2373130,2,18;25,15,0,21640862.945,0.040,-113723523.921143,0.005,3158.452,49.0,2364.012,08181c44,15,0,21640859.053,0.071,-88615719.907234,0.007,2461.278,45.8,2360.000,01301c4b,20,0,20482023.264,0.040,-107633767.069894,0.005,1342.373,48.2,2364.012,08181c64,20,0,20482019.698,0.103,-83870454.685084,0.009,1046.525,43.0,2360.000,01301c6b,20,0,20482021.635,0.047,-80375864.665412,0.005,1002.359,47.1,2364.012,01d01c60,55,4,22151384.043,0.041,-118245594.706577,0.005,-3111.273,47.9,2361.000,08191c24,55,4,22151378.810,0.072,-91968717.318359,0.007,-2419.859,44.0,2360.000,00b91c2b,42,8,19666323.410,0.040,-105127781.206831,0.005,1883.060,53.4,2361.000,08191c44,42,8,19666313.612,0.040,-81766005.495841,0.005,1464.590,50.9,2361.000,00b91c4b,1,0,37834308.152,0.040,-197013171.160107,0.005,-6.775,50.0,2368.806,0c1c1c24,1,0,37834288.849,0.040,-160089254.128028,0.005,-5.488,49.6,2367.012,06a41c20,2,0,37721075.657,0.046,-196423533.841159,0.005,72.484,47.3,2368.012,0c1c1c44,2,0,37721041.882,0.059,-159610066.491953,0.006,58.893,45.7,2367.012,06a41c40,3,0,36945457.973,0.057,-192384696.169024,0.006,54.081,45.9,2368.012,0c1c1c64,3,0,36945430.754,0.040,-156328203.619879,0.005,43.962,49.7,2367.012,06a41c60,8,0,37251674.713,0.069,-193979224.149979,0.007,-1236.218,44.4,2368.012,081c1c84,8,0,37251657.823,0.040,-157623945.056512,0.005,-1004.529,48.4,2366.012,02a41c80,4,0,39005363.027,0.392,-203111160.525505,0.038,34.151,33.8,3.000,0c1c1ca4,4,0,39005338.187,0.133,-165044356.170635,0.012,27.392,36.9,2353.000,06a41ca0,3,0,23796990.540,0.063,-125054030.635362,0.006,1011.493,45.1,2360.000,083b1c24,3,0,23796989.974,0.085,-93384510.150767,0.008,755.402,42.4,2360.000,01931c2b,3,0,23796988.247,0.093,-95820614.099389,0.008,775.077,41.4,2361.000,02331c20,8,0,26146346.033,0.121,-137399998.938514,0.010,2983.743,37.9,316.000,083b1d84,8,0,26146349.050,0.159,-102603889.900720,0.015,2228.271,34.7,316.000,01931d8b,8,0,26146345.771,0.158,-105280505.558909,0.015,2286.353,34.8,317.000,02331d80b294da31
#BESTPOSA,COM1,0,98.0,FINE,2427,444217.000,2373130,13850,18;SOL_COMPUTED,SINGLE,34.36853310169,109.22191933563,488.3235,-33.6672,WGS84,8.9902,3.1429,9.4546,,0.000,0.000,11,11,0,4,0,06,03,532bb450a8
#RANGEA,COM1,0,98.0,FINE,2427,444218.000,2374130,1,18;25,15,0,21640261.923,0.040,-113720365.381330,0.005,3158.363,48.9,2365.012,08181c44,15,0,21640257.944,0.074,-88613258.713639,0.007,2460.578,45.5,2361.000,01301c4b,20,0,20481767.801,0.040,-107632424.644618,0.005,1342.142,48.2,2365.012,08181c64,20,0,20481764.311,0.103,-83869408.641598,0.009,1045.720,43.0,2361.000,01301c6b,20,0,20481766.121,0.047,-80374862.199091,0.005,1002.270,47.1,2365.012,01d01c60,55,4,22151966.883,0.042,-118248705.827248,0.005,-3111.310,47.7,2362.000,08191c24,55,4,22151961.739,0.072,-91971137.078035,0.007,-2419.904,44.0,2361.000,00b91c2b,42,8,19665971.196,0.040,-105125898.185089,0.005,1882.657,53.4,2362.000,08191c44,42,8,19665961.342,0.040,-81764540.923262,0.005,1464.270,50.7,2362.000,00b91c4b,1,0,37834309.413,0.040,-197013177.584419,0.005,-6.418,50.0,2369.806,0c1c1c24,1,0,37834290.055,0.040,-160089259.348114,0.005,-5.175,49.5,2368.012,06a41c20,2,0,37721061.630,0.045,-196423460.972827,0.005,72.886,47.4,2369.012,0c1c1c44,2,0,37721027.916,0.058,-159610007.281325,0.006,59.213,45.7,2368.012,06a41c40,3,0,36945447.646,0.056,-192384641.738446,0.006,54.446,46.0,2369.012,0c1c1c64,3,0,36945420.308,0.040,-156328159.388557,0.005,44.290,49.8,2368.012,06a41c60,8,0,37251912.102,0.068,-193980460.059515,0.007,-1235.994,44.6,2369.012,081c1c84,8,0,37251895.178,0.040,-157624949.338257,0.005,-1004.350,48.4,2367.012,02a41c80,4,0,39005356.221,0.349,-203111126.490240,0.033,34.106,34.2,4.000,0c1c1ca4,4,0,39005331.499,0.132,-165044328.502081,0.012,27.712,37.0,2354.000,06a41ca0,3,0,23796797.859,0.064,-125053018.939177,0.006,1011.545,45.0,2361.000,083b1c24,3,0,23796797.426,0.084,-93383754.671893,0.008,755.298,42.5,2361.000,01931c2b,3,0,23796795.767,0.092,-95819838.920435,0.008,775.062,41.5,2362.000,02331c20,8,0,26145778.254,0.123,-137397014.985072,0.010,2983.855,37.8,317.000,083b1d84,8,0,26145781.330,0.158,-102601661.649099,0.015,2228.106,34.9,317.000,01931d8b,8,0,26145778.120,0.154,-105278219.151110,0.014,2286.323,35.2,318.000,02331d80e101ab71
#BESTPOSA,COM1,0,98.0,FINE,2427,444218.000,2374130,14850,18;SOL_COMPUTED,SINGLE,34.36853298679,109.22191925335,488.3368,-33.6672,WGS84,8.9300,3.1422,9.3586,,0.000,0.000,11,11,0,4,0,06,03,5373287809
#RANGEA,COM1,0,98.0,FINE,2427,444219.000,2375130,2,18;25,15,0,21639660.892,0.040,-113717206.592854,0.005,3158.720,48.8,2366.012,08181c44,15,0,21639656.838,0.073,-88610797.313030,0.007,2461.562,45.6,2362.000,01301c4b,20,0,20481512.344,0.040,-107631082.202705,0.005,1342.239,48.0,2366.012,08181c64,20,0,20481508.882,0.102,-83868362.580939,0.009,1046.219,43.0,2362.000,01301c6b,20,0,20481510.589,0.049,-80373859.723069,0.006,1002.337,46.9,2366.012,01d01c60,55,4,22152549.639,0.042,-118251816.714687,0.005,-3111.012,47.7,2363.000,08191c24,55,4,22152544.599,0.071,-91973556.654590,0.007,-2419.688,44.1,2362.000,00b91c2b,42,8,19665618.999,0.040,-105124015.302643,0.005,1882.590,53.4,2363.000,08191c44,42,8,19665609.076,0.040,-81763076.460937,0.005,1464.233,50.7,2363.000,00b91c4b,1,0,37834310.534,0.040,-197013183.405211,0.005,-5.777,50.1,2370.806,0c1c1c24,1,0,37834291.179,0.040,-160089264.075399,0.005,-4.683,49.6,2369.012,06a41c20,2,0,37721047.453,0.044,-196423387.510564,0.005,73.490,47.5,2370.012,0c1c1c44,2,0,37721013.807,0.058,-159609947.587586,0.006,59.727,45.8,2369.012,06a41c40,3,0,36945437.047,0.055,-192384586.714757,0.006,55.072,46.2,2370.012,0c1c1c64,3,0,36945409.715,0.040,-156328114.672449,0.005,44.744,49.8,2369.012,06a41c60,8,0,37252149.356,0.067,-193981695.512395,0.007,-1235.436,44.7,2370.012,081c1c84,8,0,37252132.431,0.040,-157625953.233457,0.005,-1003.895,48.5,2368.012,02a41c80,4,0,39005349.881,0.411,-203111091.825769,0.039,34.970,34.3,5.000,0c1c1ca4,4,0,39005324.865,0.145,-165044300.351220,0.013,28.189,37.0,2355.000,06a41ca0,3,0,23796605.102,0.064,-125052007.119888,0.006,1011.649,45.0,2362.000,083b1c24,3,0,23796604.863,0.085,-93382999.084189,0.008,755.469,42.4,2362.000,01931c2b,3,0,23796603.192,0.092,-95819063.608202,0.008,775.234,41.5,2363.000,02331c20,8,0,26145210.276,0.123,-137394030.529833,0.010,2984.436,37.8,318.000,083b1d84,8,0,26145213.600,0.158,-102599432.999486,0.015,2228.598,34.8,318.000,01931d8b,8,0,26145210.312,0.155,-105275932.359905,0.014,2286.882,35.1,319.000,02331d80bd54a3de
#BESTPOSA,COM1,0,98.0,FINE,2427,444219.000,2375130,15850,18;SOL_COMPUTED,SINGLE,34.36853410080,109.22191933642,488.1696,-33.6673,WGS84,8.1862,3.1361,8.1025,,0.000,0.000,11,11,0,4,0,06,03,5308054be5
#RANGEA,COM1,0,98.0,FINE,2427,444220.000,2376130,2,18;25,15,0,21639059.866,0.040,-113714048.059113,0.005,3157.707,48.5,2367.012,08181c44,15,0,21639055.901,0.075,-88608336.150690,0.007,2460.556,45.5,2363.000,01301c4b,20,0,20481256.988,0.042,-107629740.238960,0.005,1341.039,47.7,2367.012,08181c64,20,0,20481253.501,0.103,-83867316.899001,0.009,1044.871,43.0,2363.000,01301c6b,20,0,20481255.197,0.049,-80372857.621276,0.006,1001.406,46.8,2367.012,01d01c60,55,4,22153132.400,0.042,-118254927.882490,0.005,-3112.003,47.7,2364.000,08191c24,55,4,22153127.527,0.070,-91975976.448524,0.007,-2420.463,44.2,2363.000,00b91c2b,42,8,19665266.926,0.040,-105122133.045226,0.005,1881.242,53.6,2364.000,08191c44,42,8,19665256.920,0.040,-81761612.480560,0.005,1463.197,50.7,2364.000,00b91c4b,1,0,37834311.607,0.040,-197013189.104898,0.005,-6.321,50.2,2371.806,0c1c1c24,1,0,37834292.322,0.040,-160089268.705134,0.005,-5.130,49.5,2370.012,06a41c20,2,0,37721033.355,0.043,-196423313.919749,0.005,72.924,47.6,2371.012,0c1c1c44,2,0,37720999.633,0.058,-159609887.784964,0.006,59.250,45.8,2370.012,06a41c40,3,0,36945426.405,0.054,-192384531.553322,0.006,54.543,46.2,2371.012,0c1c1c64,3,0,36945399.110,0.040,-156328069.854673,0.005,44.290,49.8,2370.012,06a41c60,8,0,37252386.657,0.066,-193982930.953237,0.007,-1236.136,44.8,2371.012,081c1c84,8,0,37252369.679,0.040,-157626957.128148,0.005,-1004.424,48.5,2369.012,02a41c80,4,0,39005343.222,0.447,-203111057.054751,0.042,34.613,34.2,6.000,0c1c1ca4,4,0,39005318.237,0.132,-165044272.090673,0.012,27.779,37.0,2356.000,06a41ca0,3,0,23796412.403,0.065,-125050995.611252,0.007,1010.666,44.9,2363.000,083b1c24,3,0,23796412.373,0.085,-93382243.733837,0.008,754.695,42.4,2363.000,01931c2b,3,0,23796410.683,0.094,-95818288.563783,0.008,774.392,41.3,2364.000,02331c20,8,0,26144642.395,0.123,-137391046.096454,0.010,2983.713,37.8,319.000,083b1d84,8,0,26144645.966,0.157,-102597204.348998,0.015,2228.099,34.9,319.000,01931d8b,8,0,26144642.351,0.159,-105273645.597589,0.015,2286.256,34.7,320.000,02331d80acbde6e3
#BD2EPHEMA,COM1,0,98.0,FINE,2427,444220.000,2376130,3,18;1,444180.0,0,1,1,2427,2427,442800.0,4.216457261e+07,3.747298947e-09,-7.941954125e-01,4.9002585001e-04,1.0141745270e-01,1.237029210e-05,2.862466499e-05,-8.83390625e+02,3.78890625e+02,3.073364496e-08,2.607703209e-08,7.9156108324e-02,6.725280135e-10,-2.272096882e+00,-2.79261632e-09,1,442800.0,4.500000000e-09,4.500000000e-09,-8.95932e-07,-2.75335e-14,0.00000e+00,TRUE,7.292386048e-05,4.00000000e+00e26d4c93
#BD2EPHEMA,COM1,0,98.0,FINE,2427,444220.000,2376130,3,18;2,444180.0,0,1,1,2427,2427,442800.0,4.216425309e+07,7.514598727e-10,-8.516326718e-01,1.8973043188e-04,-2.8348598287e-01,-1.988140866e-05,1.864600927e-05,-5.66296875e+02,-6.09234375e+02,-3.026798368e-08,1.066364348e-07,8.3001131022e-02,3.507288950e-10,-2.879964264e+00,1.94293807e-10,1,442800.0,4.730000000e-08,4.730000000e-08,1.11526e-07,2.66454e-15,0.00000e+00,TRUE,7.292169351e-05,4.00000000e+00e47bf8f6
#BD2EPHEMA,COM1,0,98.0,FINE,2427,444220.000,2376130,4,18;3,444180.0,0,1,1,2427,2427,442800.0,4.216379313e+07,1.118618024e-09,1.207654130e+00,2.1941622254e-04,-1.9429219088e+00,-1.804810017e-05,2.406910062e-05,-7.32609375e+02,-5.62281250e+02,-9.220093489e-08,3.958120942e-08,9.6145420706e-02,4.739483133e-10,-2.747662335e+00,-3.63586573e-10,1,442800.0,3.530000000e-08,3.530000000e-08,-1.95228e-07,4.70735e-14,0.00000e+00,TRUE,7.292325390e-05,4.00000000e+00862852da
#BD2EPHEMA,COM1,0,98.0,FINE,2427,444220.000,2376130,4,18;4,444180.0,0,1,1,2427,2427,442800.0,4.216421143e+07,1.867220634e-09,8.042476010e-01,8.0782978330e-04,-7.5679709091e-01,-1.188972965e-05,3.150524572e-05,-9.74484375e+02,-3.72921875e+02,-1.024454832e-08,6.845220923e-08,1.1951755585e-01,5.196645033e-10,-2.666899897e+00,-8.33963309e-10,1,442800.0,4.170000000e-08,4.170000000e-08,-6.46804e-07,-1.19904e-13,0.00000e+00,TRUE,7.292291735e-05,4.00000000e+00a73bae16
#BD2EPHEMA,COM1,0,98.0,FINE,2427,444220.000,2376130,4,18;8,444180.0,0,1,1,2427,2427,442800.0,4.216155411e+07,1.490419225e-09,-2.656951391e-01,4.6369143529e-03,-2.8965254376e+00,-7.028225809e-06,1.507671550e-05,-2.27734375e+02,-1.99328125e+02,1.545995474e-07,-1.578591764e-07,9.5604152427e-01,-1.291125209e-09,-1.622833868e-01,-2.14187493e-09,1,442800.0,9.000000000e-10,9.000000000e-10,-2.49877e-04,-3.37508e-12,0.00000e+00,TRUE,7.292943466e-05,4.00000000e+00e3c25359
#BD2EPHEMA,COM1,0,98.0,FINE,2427,444220.000,2376130,4,18;9,439200.0,0,1,1,2427,2427,439200.0,4.215856165e+07,1.248266281e-09,2.677533831e+00,5.8233417803e-03,-2.3093162181e+00,1.012301072e-05,-4.729256034e-06,4.13453125e+02,3.01546875e+02,-1.913867891e-07,-6.565824151e-08,1.0513420513e+00,5.789526871e-10,1.882590019e+00,-2.62582366e-09,1,439200.0,-1.030000000e-08,2.800000000e-09,-5.76941e-04,-2.11227e-11,0.00000e+00,TRUE,7.293695740e-05,4.00000000e+004f8e93c4
#GLOEPHEMERISA,COM1,0,98.0,FINE,2427,444220.000,2376130,4,18;41,13,1,0,2427,441918000,10782,929,0,0,23,0,-8.995685546875000e+06,1.858226269531250e+07,1.501763281250000e+07,4.076690673828125e+02,-2.019845962524414e+03,2.746392250061035e+03,-0.000003725290298,-9.313225746154785e-07,-0.000000000000000e+00,-9.154900908470154e-07,-2.793967724e-09,2.728484105318785e-12,20640,2,4,0,12286fbf1d
#GLOEPHEMERISA,COM1,0,98.0,FINE,2427,444220.000,2376130,5,18;42,8,1,0,2427,443718000,10782,929,0,0,25,0,-2.160596679687500e+06,2.482281347656250e+07,5.519044921875000e+06,2.117385864257813e+02,-7.584428787231445e+02,3.495445251464844e+03,-0.000002793967724,-9.313225746154785e-07,0.000000000000000e+00,-1.712050288915634e-04,2.793967724e-09,9.094947017729282e-13,21600,2,3,0,1355803e17
#GLOEPHEMERISA,COM1,0,98.0,FINE,2427,444220.000,2376130,5,18;54,11,1,0,2427,440118000,10782,929,0,0,21,0,-2.459555712890625e+07,5.806184082031250e+06,-3.240311035156250e+06,4.796152114868164e+02,4.908657073974609e+01,-3.552113533020020e+03,-0.000004656612873,-0.000000000000000e+00,2.793967723846436e-06,-3.138212487101555e-04,0.000000000e+00,2.728484105318785e-12,18000,2,3,0,13cbe57187
#GLOEPHEMERISA,COM1,0,98.0,FINE,2427,444220.000,2376130,5,18;55,4,1,0,2427,443718000,10782,929,0,0,25,0,-2.186305566406250e+07,1.317552050781250e+07,2.563686523437500e+05,7.929039001464844e+01,1.981067657470703e+02,-3.588510513305664e+03,-0.000005587935448,9.313225746154785e-07,1.862645149230957e-06,-2.712905406951904e-04,5.587935448e-09,1.818989403545856e-12,21600,2,2,0,13f52e9737
#GALEPHEMERISA,COM1,0,98.0,FINE,2427,444220.000,2376130,5,18;3,TRUE,TRUE,0,0,0,0,0,0,107,0,104,443400,5.44062375e+03,3.1019e-09,-2.85734688e-01,5.375930341e-04,6.111469320e-01,-9.1083e-06,6.0741e-06,2.164e+02,-1.960e+02,6.1467e-08,8.7544e-08,9.693742949e-01,-3.1858e-10,2.974746324e+00,-5.79774150e-09,443400,-2.906174632e-05,-2.231104e-12,0.0e+00,443400,-2.906133886e-05,-2.231104e-12,0.0e+00,6.985e-10,1.164e-091ccf537b
#GALEPHEMERISA,COM1,0,98.0,FINE,2427,444220.000,2376130,5,18;8,TRUE,TRUE,0,0,0,0,0,0,107,0,101,441600,5.44062768e+03,2.9601e-09,-1.13176403e+00,4.887898685e-04,4.441482282e-01,-8.7153e-06,5.5395e-06,2.277e+02,-1.907e+02,9.1270e-08,1.3039e-08,9.751238511e-01,-3.0823e-10,2.977979050e+00,-5.76559730e-09,441600,-1.842179336e-04,-7.119638e-12,0.0e+00,441600,-1.842186321e-04,-7.119638e-12,0.0e+00,-6.054e-09,-6.752e-09ac3b81be
#GALEPHEMERISA,COM1,0,98.0,FINE,2427,444220.000,2376130,6,18;30,TRUE,TRUE,0,0,0,0,0,0,107,0,101,441600,5.44060682e+03,3.8234e-09,2.94136476e+00,2.041085390e-04,5.346559971e-01,2.0862e-06,4.6697e-06,2.357e+02,4.513e+01,-1.1176e-08,-1.3597e-07,9.582840899e-01,2.5930e-10,-1.204952063e+00,-5.94167607e-09,441600,-1.262770384e-03,-3.984724e-11,0.0e+00,441600,-1.262770267e-03,-3.984724e-11,0.0e+00,-1.164e-09,-1.164e-094f49f934
#GPSEPHEM,98,GPS,FINE,2427,444220000,0,0,18,6;6,444180.0,0,65,65,2427,2427,446384.0,2.656090188e+07,3.590506702e-09,-2.100133433e+00,3.6949324422e-03,-5.4521298743e-01,4.176050425e-06,1.219287515e-05,1.58593750e+02,8.24062500e+01,-4.097819328e-08,7.450580597e-09,9.8594922399e-01,-1.578637185e-10,7.069202917e-01,-7.59960227e-09,65,446384.0,3.725290298e-09,-5.7218922e-04,7.7307050e-12,0.0000000e+00,TRUE,1.458530061e-04,4.00000000e+006f30f2d0
#GPSEPHEM,98,GPS,FINE,2427,444220000,0,0,18,6;12,444180.0,0,28,28,2427,2427,446400.0,2.656060573e+07,5.025923636e-09,2.605506236e+00,8.7071456946e-03,1.5869451225e+00,1.937150955e-06,6.068497896e-06,2.55750000e+02,3.76250000e+01,1.117587090e-07,-1.806765795e-07,9.5821653235e-01,3.075128091e-10,-1.343977498e+00,-8.15283960e-09,28,446400.0,-1.257285476e-08,-6.0566608e-04,5.6843419e-13,0.0000000e+00,TRUE,1.458568809e-04,4.00000000e+00bfa024a3
#GPSEPHEM,98,GPS,FINE,2427,444220000,0,0,18,6;13,439200.0,63,228,228,2427,2427,446400.0,2.655944668e+07,4.986993443e-09,2.463705863e+00,2.2715845844e-03,1.8219386875e+00,2.086162567e-06,6.932765245e-06,2.42093750e+02,3.96875000e+01,6.705522537e-08,-1.229345798e-07,9.5873004001e-01,4.282321233e-10,-1.452512725e+00,-8.22141388e-09,996,446400.0,-8.381903172e-09,4.1664299e-04,4.8885340e-12,0.0000000e+00,TRUE,1.458663895e-04,4.00000000e+0069b216c0
#GPSEPHEM,98,GPS,FINE,2427,444220000,0,0,18,6;15,444180.0,0,22,22,2427,2427,446400.0,2.656116167e+07,5.184858827e-09,-1.179137318e+00,1.7026434070e-02,1.5349942844e+00,-3.559514880e-06,3.051012754e-06,3.13093750e+02,-7.72500000e+01,-1.806765795e-07,3.706663847e-07,9.4471042353e-01,-1.225051028e-10,2.600904886e+00,-8.84465413e-09,22,446400.0,-1.071020961e-08,4.2895321e-04,3.0695446e-12,0.0000000e+00,TRUE,1.458524607e-04,4.00000000e+005ae91803
#GPSEPHEM,98,GPS,FINE,2427,444220000,0,0,18,7;19,439200.0,0,70,70,2427,2427,446400.0,2.656117294e+07,4.903418533e-09,1.485044892e+00,1.1771167628e-02,3.0263263084e+00,-1.078471541e-06,7.644295692e-06,2.29093750e+02,-2.45312500e+01,8.940696716e-08,1.713633537e-07,9.5669776006e-01,-8.486067764e-10,-2.678034820e-01,-8.19641284e-09,70,446400.0,-1.536682248e-08,7.0364494e-04,4.5474735e-13,0.0000000e+00,TRUE,1.458520864e-04,4.00000000e+0068d925ac
#GPSEPHEM,98,GPS,FINE,2427,444220000,0,0,18,7;20,444210.0,0,13,13,2427,2427,446400.0,2.655974705e+07,4.653765277e-09,2.453013630e+00,1.9116624026e-03,-1.7585265035e+00,-5.641952157e-06,4.054978490e-06,3.02281250e+02,-1.09312500e+02,5.215406418e-08,2.048909664e-08,9.6209452776e-01,-2.332240004e-10,2.753103992e+00,-8.35963393e-09,13,446400.0,-6.984919310e-09,2.3262715e-04,1.2164492e-11,0.0000000e+00,TRUE,1.458635818e-04,4.00000000e+00bd2d3487
#BESTPOSA,COM1,0,98.0,FINE,2427,444220.000,2376130,16854,18;INSUFFICIENT_OBS,NONE,0.00000000000,0.00000000000,0.0000,0.0000,ERROR,0.0000,0.0000,0.0000,,0.000,0.000,0,0,0,0,0,00,00,0064abf932
#RANGEA,COM1,0,98.0,FINE,2427,444221.000,2377121,2,18;25,15,0,21638459.009,0.040,-113710890.526171,0.005,3157.111,48.4,2368.012,08181c44,15,0,21638454.965,0.078,-88605875.686693,0.007,2460.377,45.2,2364.000,01301c4b,20,0,20481001.910,0.043,-107628399.502801,0.005,1340.250,47.7,2368.012,08181c64,20,0,20480998.305,0.105,-83866272.165983,0.009,1044.208,42.8,2364.000,01301c6b,20,0,20481000.009,0.048,-80371856.413108,0.006,1000.825,47.0,2368.012,01d01c60,55,4,22153715.416,0.044,-118258040.086714,0.005,-3112.614,47.5,2365.000,08191c24,55,4,22153710.733,0.069,-91978397.039714,0.007,-2420.895,44.3,2364.000,00b91c2b,42,8,19664915.080,0.040,-105120252.134069,0.005,1880.333,53.5,2365.000,08191c44,42,8,19664904.981,0.040,-81760149.547601,0.005,1462.527,50.7,2365.000,00b91c4b,1,0,37834312.743,0.040,-197013195.415018,0.005,-6.499,50.2,2372.806,0c1c1c24,1,0,37834293.539,0.040,-160089273.835444,0.005,-5.264,49.6,2371.012,06a41c20,2,0,37721019.419,0.044,-196423240.956795,0.005,72.730,47.5,2372.012,0c1c1c44,2,0,37720985.638,0.058,-159609828.491530,0.006,59.131,45.8,2371.012,06a41c40,3,0,36945416.065,0.055,-192384477.011704,0.006,54.387,46.2,2372.012,0c1c1c64,3,0,36945388.666,0.040,-156328025.540438,0.005,44.141,49.8,2371.012,06a41c60,8,0,37252624.016,0.066,-193984167.143542,0.007,-1236.479,44.7,2372.012,081c1c84,8,0,37252607.065,0.040,-157627961.638916,0.005,-1004.722,48.5,2370.012,02a41c80,4,0,39005336.485,0.412,-203111022.925821,0.039,34.412,33.7,7.000,0c1c1ca4,4,0,39005311.948,0.133,-165044244.359124,0.012,27.578,36.9,2357.000,06a41ca0,3,0,23796219.948,0.065,-125049985.170612,0.007,1010.010,44.8,2364.000,083b1c24,3,0,23796220.076,0.085,-93381489.182248,0.008,754.263,42.4,2364.000,01931c2b,3,0,23796218.395,0.094,-95817514.319105,0.008,774.019,41.3,2365.000,02331c20,8,0,26144074.822,0.121,-137388062.419726,0.010,2983.490,37.9,320.000,083b1d84,8,0,26144078.202,0.155,-102594976.295991,0.014,2227.816,35.1,320.000,01931d8b,8,0,26144074.720,0.158,-105271359.420461,0.015,2285.958,34.8,321.000,02331d807ebfbd78
#BESTPOSA,COM1,0,98.0,FINE,2427,444221.000,2377121,17842,18;INSUFFICIENT_OBS,NONE,0.00000000000,0.00000000000,0.0000,0.0000,ERROR,0.0000,0.0000,0.0000,,0.000,0.000,0,0,0,0,0,00,00,00e8d00f6b
#RANGEA,COM1,0,98.0,FINE,2427,444222.000,2378122,2,18;25,15,0,21637858.227,0.046,-113707733.307533,0.005,3157.156,47.3,2369.012,08181c44,15,0,21637854.111,0.078,-88603415.535397,0.007,2459.542,45.2,2365.000,01301c4b,20,0,20480746.926,0.051,-107627059.313087,0.006,1340.048,46.6,2369.012,08181c64,20,0,20480743.220,0.106,-83865227.875534,0.009,1044.022,42.7,2365.000,01301c6b,20,0,20480744.942,0.049,-80370855.618522,0.006,1000.676,46.9,2369.012,01d01c60,55,4,22154298.476,0.044,-118261152.639088,0.005,-3112.629,47.5,2366.000,08191c24,55,4,22154293.928,0.069,-91980817.904460,0.007,-2420.887,44.4,2365.000,00b91c2b,42,8,19664563.392,0.040,-105118371.869057,0.005,1880.042,53.6,2366.000,08191c44,42,8,19664553.165,0.040,-81758687.119225,0.005,1462.258,50.5,2366.000,00b91c4b,1,0,37834313.948,0.040,-197013201.696539,0.005,-6.142,50.1,2373.806,0c1c1c24,1,0,37834294.763,0.040,-160089278.931965,0.005,-4.989,49.7,2372.012,06a41c20,2,0,37721005.446,0.044,-196423167.932566,0.005,73.155,47.5,2373.012,0c1c1c44,2,0,37720971.603,0.057,-159609769.151590,0.006,59.519,45.8,2372.012,06a41c40,3,0,36945405.580,0.055,-192384422.434976,0.006,54.744,46.2,2373.012,0c1c1c64,3,0,36945378.168,0.040,-156327981.183182,0.005,44.461,49.8,2372.012,06a41c60,8,0,37252861.432,0.067,-193985403.415757,0.007,-1236.181,44.7,2373.012,081c1c84,8,0,37252844.471,0.040,-157628966.212000,0.005,-1004.499,48.5,2371.012,02a41c80,4,0,39005330.243,0.467,-203110988.714141,0.045,34.069,33.6,8.000,0c1c1ca4,4,0,39005305.352,0.133,-165044216.570239,0.012,27.868,37.0,2358.000,06a41ca0,3,0,23796027.596,0.066,-125048975.137329,0.007,1009.958,44.7,2365.000,083b1c24,3,0,23796027.873,0.085,-93380734.952572,0.008,754.143,42.4,2365.000,01931c2b,3,0,23796026.196,0.093,-95816740.416265,0.008,773.863,41.3,2366.000,02331c20,8,0,26143507.096,0.121,-137385078.864118,0.010,2983.632,37.9,321.000,083b1d84,8,0,26143510.363,0.154,-102592748.284279,0.014,2228.129,35.2,321.000,01931d8b,8,0,26143506.971,0.155,-105269073.285447,0.014,2286.234,35.1,322.000,02331d8009123aeb
#BESTPOSA,COM1,0,98.0,FINE,2427,444222.000,2378122,18842,18;INSUFFICIENT_OBS,NONE,0.00000000000,0.00000000000,0.0000,0.0000,ERROR,0.0000,0.0000,0.0000,,0.000,0.000,0,0,0,0,0,00,00,00dd604e52
#RANGEA,COM1,0,98.0,FINE,2427,444223.000,2379121,2,18;26,15,0,21637257.491,0.052,-113704576.529316,0.006,3156.857,46.6,2370.012,08181c44,15,0,21637253.387,0.081,-88600955.718538,0.008,2459.684,45.0,2366.000,01301c4b,20,0,20480492.092,0.056,-107625719.796213,0.006,1339.452,46.0,2370.012,08181c64,20,0,20480488.327,0.105,-83864184.077925,0.009,1043.634,42.8,2366.000,01301c6b,20,0,20480489.975,0.048,-80369855.324154,0.006,1000.310,47.0,2370.012,01d01c60,11,0,22148731.344,1.012,-116392368.406546,0.150,-1960.015,35.2,0.000,08181144,55,4,22154881.605,0.045,-118264265.670371,0.005,-3112.964,47.4,2367.000,08191c24,55,4,22154877.229,0.068,-91983239.154595,0.007,-2421.230,44.5,2366.000,00b91c2b,42,8,19664211.844,0.040,-105116492.384761,0.005,1879.387,53.6,2367.000,08191c44,42,8,19664201.490,0.040,-81757225.298682,0.005,1461.767,50.5,2367.000,00b91c4b,1,0,37834315.199,0.040,-197013208.027029,0.005,-6.060,50.1,2374.806,0c1c1c24,1,0,37834296.000,0.040,-160089284.080495,0.005,-4.899,49.9,2373.012,06a41c20,2,0,37720991.456,0.044,-196423094.992649,0.005,73.147,47.5,2374.012,0c1c1c44,2,0,37720957.547,0.056,-159609709.885231,0.006,59.481,46.0,2373.012,06a41c40,3,0,36945395.148,0.054,-192384367.919715,0.006,54.767,46.2,2374.012,0c1c1c64,3,0,36945367.751,0.040,-156327936.893195,0.005,44.506,50.0,2373.012,06a41c60,8,0,37253098.973,0.066,-193986639.898132,0.007,-1236.285,44.7,2374.012,081c1c84,8,0,37253081.909,0.040,-157629970.951590,0.005,-1004.566,48.7,2372.012,02a41c80,4,0,39005323.669,0.427,-203110954.580397,0.041,34.501,33.8,9.000,0c1c1ca4,4,0,39005298.735,0.130,-165044188.830286,0.011,28.003,37.1,2359.000,06a41ca0,3,0,23795835.366,0.066,-125047965.615543,0.007,1009.578,44.8,2366.000,083b1c24,3,0,23795835.709,0.085,-93379981.101691,0.008,753.875,42.4,2366.000,01931c2b,3,0,23795834.097,0.093,-95815966.886381,0.008,773.535,41.4,2367.000,02331c20,8,0,26142939.496,0.119,-137382095.495334,0.010,2983.542,38.2,322.000,083b1d84,8,0,26142942.698,0.152,-102590520.477457,0.014,2227.883,35.3,322.000,01931d8b,8,0,26142939.306,0.152,-105266787.361023,0.014,2286.122,35.3,323.000,02331d80a50e5b6a
#BESTPOSA,COM1,0,98.0,FINE,2427,444223.000,2379121,19841,18;INSUFFICIENT_OBS,NONE,0.00000000000,0.00000000000,0.0000,0.0000,ERROR,0.0000,0.0000,0.0000,,0.000,0.000,0,0,0,0,0,00,00,004934668c
