#BESTPOSA,COM1,0,98.0,FINE,2427,457563.000,755730,34851,18;SOL_COMPUTED,SINGLE,34.36873131967,109.22193227916,502.5509,-33.6681,WGS84,9.5157,3.7133,7.3099,"",0.000,0.000,12,9,0,7,0,06,00,5b*04c051ad
#RANGEA,COM1,0,98.0,FINE,2427,457564.000,756730,2,18;27,18,0,20771058.623,0.048,-109152649.332607,0.005,-1970.558,47.1,747.014,08181c24,18,0,20771055.500,0.126,-85053993.579544,0.011,-1534.304,41.1,743.014,01301c2b,18,0,20771060.589,0.044,-81510098.479122,0.005,-1471.502,47.5,747.014,01d01c20,32,0,23843103.715,0.148,-125296368.902937,0.013,2299.243,35.7,601.000,08181c44,32,0,23843105.999,0.597,-97633554.842446,0.064,1791.769,32.4,37.000,01301c4b,32,0,23843106.326,0.161,-93565475.834945,0.015,1716.870,34.6,683.000,01d01c40,58,11,20456621.611,0.040,-109467506.765875,0.005,-2874.956,51.8,725.000,08191c44,58,11,20456606.344,0.040,-85141326.592631,0.005,-2236.083,49.4,725.000,00b91c4b,53,6,21571914.722,0.123,-115233292.289338,0.011,2246.119,41.2,67.000,08191d24,53,6,21571911.523,0.111,-89625843.415613,0.009,1746.975,39.2,704.000,00b91d2b,1,0,37763741.070,0.040,-196645704.511176,0.005,-18.972,49.5,752.014,0c1c1c24,1,0,37763724.192,0.040,-159790672.051578,0.005,-15.472,49.5,751.014,06a41c20,2,0,37488554.354,0.047,-195212732.766790,0.005,18.646,47.1,752.014,0c1c1c44,2,0,37488524.559,0.050,-158626214.161687,0.006,15.158,46.8,751.014,06a41c40,3,0,36764571.536,0.071,-191442764.232476,0.007,-0.196,44.1,751.014,0c1c1c64,3,0,36764546.248,0.040,-155562823.419240,0.005,-0.101,50.1,751.014,06a41c60,7,0,37052102.353,0.040,-192940012.226102,0.005,1331.275,48.4,751.014,081c1c84,7,0,37052085.232,0.041,-156779485.718190,0.005,1081.790,47.9,750.014,02a41c80,10,0,37997029.087,0.077,-197860502.358798,0.007,1417.403,43.4,751.014,081c1ca4,10,0,37997013.352,0.100,-152998226.895140,0.009,1095.974,40.5,750.014,023c1cab,10,0,37997011.353,0.075,-160777794.483623,0.007,1151.721,43.6,751.014,02a41ca0,11,0,24958849.851,0.106,-129967251.060658,0.009,-3044.392,39.7,751.014,081c1cc4,11,0,24958832.816,0.160,-105608970.973934,0.015,-2473.880,34.7,750.014,02a41cc0,4,0,38905091.450,0.312,-202589014.348387,0.028,-36.034,35.6,144.000,0c1c1ce4,4,0,38905069.085,0.096,-164620076.899969,0.008,-29.851,41.0,704.000,06a41ce0,7,0,24200450.253,0.756,-94967751.899731,0.079,827.882,27.0,80.000,01931c2b,7,0,24200443.254,0.233,-97445164.379012,0.024,848.562,28.5,748.014,02331c20*c2db76d0
#BESTPOSA,COM1,0,98.0,FINE,2427,457564.000,756730,35851,18;SOL_COMPUTED,SINGLE,34.36873118408,109.22193250662,502.5322,-33.6681,WGS84,9.4879,3.7116,7.2896,"",0.000,0.000,12,9,0,7,0,06,00,5b*8bd96ac8
#RANGEA,COM1,0,98.0,FINE,2427,457565.000,757730,2,18;27,18,0,20771433.598,0.048,-109154620.625140,0.005,-1971.779,47.0,748.014,08181c24,18,0,20771430.728,0.124,-85055529.675879,0.011,-1536.621,41.2,744.014,01301c2b,18,0,20771435.749,0.043,-81511570.552972,0.005,-1472.478,47.6,748.014,01d01c20,32,0,23842666.321,0.148,-125294070.332512,0.014,2298.186,35.6,602.000,08181c44,32,0,23842667.981,0.606,-97631763.724212,0.065,1790.093,32.2,38.000,01301c4b,32,0,23842668.941,0.161,-93563759.355584,0.015,1716.259,34.5,684.000,01d01c40,58,11,20457158.954,0.040,-109470382.522384,0.005,-2876.297,51.8,726.000,08191c44,58,11,20457143.778,0.040,-85143563.282310,0.005,-2237.104,49.5,726.000,00b91c4b,53,6,21571494.379,0.094,-115231047.056250,0.008,2244.413,41.2,68.000,08191d24,53,6,21571491.127,0.110,-89624097.127582,0.009,1745.820,39.2,705.000,00b91d2b,1,0,37763744.872,0.040,-196645723.990958,0.005,-19.672,49.6,753.014,0c1c1c24,1,0,37763727.917,0.040,-159790687.877252,0.005,-16.023,49.6,752.014,06a41c20,2,0,37488550.860,0.046,-195212714.635035,0.005,17.916,47.2,753.014,0c1c1c44,2,0,37488521.048,0.050,-158626199.435115,0.006,14.539,46.8,752.014,06a41c40,3,0,36764571.655,0.071,-191442764.843647,0.007,-0.770,44.1,752.014,0c1c1c64,3,0,36764546.362,0.040,-155562823.943888,0.005,-0.675,50.1,752.014,06a41c60,7,0,37051846.748,0.040,-192938681.496259,0.005,1330.440,48.4,752.014,081c1c84,7,0,37051829.594,0.041,-156778404.387936,0.005,1081.127,47.9,751.014,02a41c80,10,0,37996757.076,0.076,-197859085.493330,0.007,1416.576,43.5,752.014,081c1ca4,10,0,37996741.285,0.100,-152997131.271259,0.009,1095.489,40.5,751.014,023c1cab,10,0,37996739.310,0.075,-160776643.149069,0.007,1151.185,43.6,752.014,02a41ca0,11,0,24959434.458,0.106,-129970296.011013,0.009,-3045.204,39.8,752.014,081c1cc4,11,0,24959417.613,0.159,-105611445.196296,0.015,-2474.253,34.8,751.014,02a41cc0,4,0,38905098.489,0.232,-202589051.502630,0.021,-37.293,35.9,145.000,0c1c1ce4,4,0,38905076.193,0.096,-164620107.114189,0.008,-30.350,41.0,705.000,06a41ce0,7,0,24200239.568,0.527,-94966925.208014,0.055,826.660,27.1,81.000,01931c2b,7,0,24200232.297,0.609,-97444316.110459,0.063,849.344,28.5,749.014,02331c20*f5538d56
#BESTPOSA,COM1,0,98.0,FINE,2427,457565.000,757730,36850,18;SOL_COMPUTED,SINGLE,34.36873061790,109.22193255240,502.5684,-33.6681,WGS84,9.4612,3.7099,7.2702,"",0.000,0.000,12,9,0,7,0,06,00,5b*2735f494
#RANGEA,COM1,0,98.0,FINE,2427,457566.000,758730,2,18;27,18,0,20771808.678,0.049,-109156592.312677,0.006,-1971.921,46.9,749.014,08181c24,18,0,20771805.848,0.122,-85057066.045426,0.010,-1537.023,41.3,745.014,01301c2b,18,0,20771810.960,0.044,-81513042.910748,0.005,-1472.522,47.5,749.014,01d01c20,32,0,23842228.989,0.148,-125291771.709636,0.014,2298.647,35.6,603.000,08181c44,32,0,23842230.836,0.531,-97629972.636823,0.057,1791.024,31.9,39.000,01301c4b,32,0,23842231.403,0.164,-93562042.886728,0.015,1716.579,34.3,685.000,01d01c40,58,11,20457696.354,0.040,-109473258.724502,0.005,-2876.453,51.6,727.000,08191c44,58,11,20457681.256,0.040,-85145800.327118,0.005,-2237.223,49.5,727.000,00b91c4b,53,6,21571074.085,0.134,-115228802.228636,0.012,2244.592,41.0,69.000,08191d24,53,6,21571070.880,0.111,-89622351.128245,0.009,1745.790,39.1,706.000,00b91d2b,1,0,37763748.579,0.040,-196645743.281733,0.005,-19.203,49.7,754.014,0c1c1c24,1,0,37763731.643,0.040,-159790703.547626,0.005,-15.561,49.5,753.014,06a41c20,2,0,37488547.341,0.046,-195212696.317086,0.005,18.348,47.3,754.014,0c1c1c44,2,0,37488517.475,0.050,-158626184.542459,0.006,14.957,46.8,753.014,06a41c40,3,0,36764571.742,0.071,-191442765.303534,0.007,-0.330,44.2,753.014,0c1c1c64,3,0,36764546.440,0.040,-155562824.303214,0.005,-0.362,50.1,753.014,06a41c60,7,0,37051591.110,0.040,-192937350.692210,0.005,1330.798,48.5,753.014,081c1c84,7,0,37051573.944,0.042,-156777323.006451,0.005,1081.351,47.8,752.014,02a41c80,10,0,37996485.016,0.075,-197857668.508273,0.007,1416.934,43.6,753.014,081c1ca4,10,0,37996469.196,0.100,-152996035.572322,0.009,1095.757,40.5,752.014,023c1cab,10,0,37996467.220,0.076,-160775491.731889,0.007,1151.431,43.5,753.014,02a41ca0,11,0,24960019.150,0.104,-129973340.818920,0.009,-3044.876,40.0,753.014,081c1cc4,11,0,24960002.578,0.159,-105613919.354680,0.015,-2474.089,34.8,752.014,02a41cc0,4,0,38905105.871,0.212,-202589088.514566,0.019,-36.905,36.2,146.000,0c1c1ce4,4,0,38905083.333,0.096,-164620137.161740,0.009,-29.918,41.0,706.000,06a41ce0,7,0,24200028.620,0.634,-94966098.592807,0.067,826.153,26.9,82.000,01931c2b,7,0,24200021.306,0.585,-97443467.834909,0.061,847.787,28.5,750.014,02331c20*e7b1e6d3
#BESTPOSA,COM1,0,98.0,FINE,2427,457566.000,758730,37850,18;SOL_COMPUTED,SINGLE,34.36873060671,109.22193270400,502.5629,-33.6681,WGS84,9.4297,3.6992,7.2290,"",0.000,0.000,12,9,0,7,0,06,00,5b*d21f14e4
#RANGEA,COM1,0,98.0,FINE,2427,457567.000,759730,2,18;27,18,0,20772183.807,0.049,-109158564.364357,0.006,-1971.742,46.9,750.014,08181c24,18,0,20772181.063,0.123,-85058602.718856,0.010,-1535.817,41.2,746.014,01301c2b,18,0,20772186.230,0.044,-81514515.550964,0.005,-1472.411,47.5,750.014,01d01c20,32,0,23841791.822,0.148,-125289473.065377,0.014,2299.236,35.7,604.000,08181c44,32,0,23841793.329,0.538,-97628181.460772,0.058,1791.494,31.7,40.000,01301c4b,32,0,23841793.961,0.164,-93560326.385686,0.016,1716.773,34.3,686.000,01d01c40,58,11,20458233.823,0.040,-109476135.363011,0.005,-2876.364,51.6,728.000,08191c44,58,11,20458218.848,0.040,-85148037.706050,0.005,-2237.156,49.5,728.000,00b91c4b,53,6,21570653.987,0.152,-115226557.817153,0.013,2244.338,41.1,70.000,08191d24,53,6,21570650.716,0.112,-89620605.477596,0.010,1745.872,39.0,707.000,00b91d2b,1,0,37763752.179,0.040,-196645762.375381,0.005,-18.502,49.7,755.014,0c1c1c24,1,0,37763735.271,0.040,-159790719.062372,0.005,-15.017,49.6,754.014,06a41c20,2,0,37488543.759,0.046,-195212677.793583,0.005,19.116,47.3,755.014,0c1c1c44,2,0,37488513.942,0.050,-158626169.491224,0.006,15.515,46.8,754.014,06a41c40,3,0,36764571.754,0.070,-191442765.545179,0.007,0.400,44.2,754.014,0c1c1c64,3,0,36764546.510,0.040,-155562824.499187,0.005,0.301,50.1,754.014,06a41c60,7,0,37051335.513,0.040,-192936019.820598,0.005,1331.386,48.5,754.014,081c1c84,7,0,37051318.286,0.042,-156776241.556927,0.005,1081.880,47.8,753.014,02a41c80,10,0,37996212.938,0.075,-197856251.412031,0.007,1417.649,43.7,754.014,081c1ca4,10,0,37996197.031,0.100,-152994939.789073,0.009,1096.264,40.5,753.014,023c1cab,10,0,37996195.167,0.076,-160774340.236164,0.007,1151.975,43.5,754.014,02a41ca0,11,0,24960603.884,0.103,-129976385.462285,0.009,-3044.101,40.1,754.014,081c1cc4,11,0,24960587.344,0.157,-105616393.369980,0.015,-2473.485,34.9,753.014,02a41cc0,4,0,38905112.773,0.256,-202589125.303998,0.023,-36.265,36.1,147.000,0c1c1ce4,4,0,38905090.440,0.096,-164620167.065211,0.008,-29.404,41.0,707.000,06a41ce0,7,0,24199817.847,1.058,-94965282.961850,0.150,826.153,26.5,0.000,0193102b,7,0,24199810.690,0.423,-97442619.738672,0.044,848.465,28.4,751.014,02331c20*eb2beccf
#BESTPOSA,COM1,0,98.0,FINE,2427,457567.000,759730,38851,18;SOL_COMPUTED,SINGLE,34.36873000990,109.22193268823,502.5533,-33.6681,WGS84,9.3385,3.6965,7.1527,"",0.000,0.000,12,9,0,7,0,06,00,5b*fc5a3461
#RANGEA,COM1,0,98.0,FINE,2427,457568.000,760730,2,18;27,18,0,20772559.057,0.049,-109160536.681684,0.006,-1972.592,46.8,751.014,08181c24,18,0,20772556.552,0.123,-85060139.564432,0.010,-1536.882,41.3,747.014,01301c2b,18,0,20772561.562,0.044,-81515988.374431,0.005,-1473.014,47.5,751.014,01d01c20,32,0,23841354.385,0.146,-125287174.265847,0.013,2298.804,35.9,605.000,08181c44,32,0,23841355.848,0.509,-97626390.250150,0.055,1791.359,31.7,41.000,01301c4b,32,0,23841356.607,0.164,-93558609.733918,0.016,1716.676,34.3,687.000,01d01c40,58,11,20458771.396,0.040,-109479012.327975,0.005,-2877.235,51.6,729.000,08191c44,58,11,20458756.467,0.040,-85150275.343064,0.005,-2237.856,49.5,729.000,00b91c4b,53,6,21570233.576,0.134,-115224313.648544,0.012,2243.750,41.0,71.000,08191d24,53,6,21570230.546,0.112,-89618860.041643,0.010,1745.217,39.0,708.000,00b91d2b,1,0,37763755.804,0.040,-196645781.109925,0.005,-18.666,49.6,756.014,0c1c1c24,1,0,37763738.939,0.040,-159790734.292938,0.005,-15.188,49.6,755.014,06a41c20,2,0,37488540.227,0.046,-195212658.934613,0.005,18.907,47.2,756.014,0c1c1c44,2,0,37488510.300,0.050,-158626154.167179,0.006,15.359,46.8,755.014,06a41c40,3,0,36764571.744,0.071,-191442765.476760,0.007,0.035,44.1,755.014,0c1c1c64,3,0,36764546.480,0.040,-155562824.422416,0.005,0.145,50.1,755.014,06a41c60,7,0,37051079.844,0.040,-192934688.730863,0.005,1331.081,48.5,755.014,081c1c84,7,0,37051062.591,0.042,-156775159.946948,0.005,1081.604,47.8,754.014,02a41c80,10,0,37995940.740,0.075,-197854834.085275,0.007,1417.388,43.6,755.014,081c1ca4,10,0,37995924.951,0.099,-152993843.838954,0.009,1095.914,40.6,754.014,023c1cab,10,0,37995922.981,0.076,-160773188.545353,0.007,1151.714,43.5,755.014,02a41ca0,11,0,24961188.527,0.103,-129979429.845085,0.009,-3044.407,40.2,755.014,081c1cc4,11,0,24961171.988,0.157,-105618867.178060,0.015,-2473.821,35.0,754.014,02a41cc0,4,0,38905119.881,0.246,-202589161.738544,0.022,-36.265,36.0,148.000,0c1c1ce4,4,0,38905097.345,0.096,-164620196.679108,0.008,-29.568,41.0,708.000,06a41ce0,7,0,24199607.281,0.775,-94964456.318629,0.082,826.153,26.5,1.000,01931c2b,7,0,24199599.798,0.496,-97441771.485288,0.051,848.614,28.3,752.014,02331c20*8592d6e9
#BESTPOSA,COM1,0,98.0,FINE,2427,457568.000,760730,39850,18;SOL_COMPUTED,SINGLE,34.36872935177,109.22193271246,502.5227,-33.6681,WGS84,9.3240,3.7060,7.1589,"",0.000,0.000,12,9,0,7,0,06,00,5b*18c60892
#RANGEA,COM1,0,98.0,FINE,2427,457569.000,761730,2,18;27,18,0,20772934.235,0.049,-109162509.642208,0.006,-1973.650,46.8,752.014,08181c24,18,0,20772931.974,0.122,-85061676.934574,0.010,-1537.590,41.3,748.014,01301c2b,18,0,20772936.957,0.044,-81517461.686679,0.005,-1473.849,47.5,752.014,01d01c20,32,0,23840917.153,0.143,-125284875.709355,0.013,2298.238,36.1,606.000,08181c44,32,0,23840918.677,0.565,-97624599.143092,0.061,1792.194,31.8,42.000,01301c4b,32,0,23840919.239,0.164,-93556893.278399,0.016,1716.170,34.3,688.000,01d01c40,58,11,20459309.099,0.040,-109481890.047202,0.005,-2878.427,51.6,730.000,08191c44,58,11,20459294.273,0.040,-85152513.569183,0.005,-2238.788,49.6,730.000,00b91c4b,53,6,21569813.615,0.117,-115222070.196650,0.010,2242.856,40.8,72.000,08191d24,53,6,21569810.550,0.113,-89617115.158911,0.010,1744.382,38.9,709.000,00b91d2b,1,0,37763759.396,0.040,-196645799.923282,0.005,-19.203,49.7,757.014,0c1c1c24,1,0,37763742.542,0.040,-159790749.569638,0.005,-15.554,49.6,756.014,06a41c20,2,0,37488536.629,0.046,-195212640.151141,0.005,18.408,47.2,757.014,0c1c1c44,2,0,37488506.682,0.049,-158626138.906878,0.006,14.942,46.8,756.014,06a41c40,3,0,36764571.597,0.071,-191442765.446995,0.007,-0.397,44.1,756.014,0c1c1c64,3,0,36764546.467,0.040,-155562824.407396,0.005,-0.302,50.2,756.014,06a41c60,7,0,37050824.245,0.040,-192933357.845676,0.005,1330.425,48.5,756.014,081c1c84,7,0,37050806.931,0.042,-156774078.481301,0.005,1081.135,47.8,755.014,02a41c80,10,0,37995668.558,0.075,-197853416.917015,0.007,1416.807,43.7,756.014,081c1ca4,10,0,37995652.803,0.099,-152992748.000444,0.009,1095.489,40.6,755.014,023c1cab,10,0,37995650.870,0.075,-160772036.986641,0.007,1151.170,43.6,756.014,02a41ca0,11,0,24961773.246,0.102,-129982474.341341,0.009,-3044.891,40.3,756.014,081c1cc4,11,0,24961756.898,0.154,-105621341.068934,0.014,-2474.133,35.1,755.014,02a41cc0,4,0,38905126.949,0.244,-202589198.264435,0.022,-36.786,36.1,149.000,0c1c1ce4,4,0,38905104.463,0.095,-164620226.365559,0.008,-30.008,41.1,709.000,06a41ce0,7,0,24199396.248,0.701,-94963629.776922,0.074,826.153,26.4,2.000,01931c2b,7,0,24199388.905,0.332,-97440923.480977,0.034,847.743,28.3,753.014,02331c20*6a8102b7
#BESTPOSA,COM1,0,98.0,FINE,2427,457569.000,761730,40851,18;SOL_COMPUTED,SINGLE,34.36872898497,109.22193287134,502.4581,-33.6681,WGS84,9.2192,3.6581,7.1103,"",0.000,0.000,12,9,0,7,0,06,00,5b*36f60c74
#RANGEA,COM1,0,98.0,FINE,2427,457570.000,762730,2,18;27,18,0,20773309.565,0.050,-109164483.186735,0.006,-1973.560,46.7,753.014,08181c24,18,0,20773307.572,0.124,-85063214.774035,0.010,-1537.970,41.2,749.014,01301c2b,18,0,20773312.540,0.044,-81518935.431250,0.005,-1473.752,47.5,753.014,01d01c20,32,0,23840479.812,0.142,-125282577.355668,0.013,2298.565,36.2,607.000,08181c44,32,0,23840481.336,0.444,-97622808.224980,0.048,1792.134,32.0,43.000,01301c4b,32,0,23840481.955,0.163,-93555176.954830,0.015,1716.527,34.4,689.000,01d01c40,58,11,20459846.980,0.040,-109484768.428991,0.005,-2878.435,51.6,731.000,08191c44,58,11,20459832.201,0.040,-85154752.307038,0.005,-2238.773,49.5,731.000,00b91c4b,53,6,21569393.785,0.137,-115219827.445082,0.012,2242.684,40.8,73.000,08191d24,53,6,21569390.667,0.116,-89615370.767067,0.010,1744.345,38.5,710.000,00b91d2b,1,0,37763763.020,0.040,-196645818.738918,0.005,-18.577,49.7,758.014,0c1c1c24,1,0,37763746.137,0.040,-159790764.861746,0.005,-15.062,49.7,757.014,06a41c20,2,0,37488533.074,0.046,-195212621.381653,0.005,19.004,47.2,758.014,0c1c1c44,2,0,37488503.098,0.049,-158626123.649698,0.006,15.456,46.9,757.014,06a41c40,3,0,36764571.571,0.071,-191442765.419890,0.007,0.310,44.1,757.014,0c1c1c64,3,0,36764546.445,0.040,-155562824.396697,0.005,0.249,50.3,757.014,06a41c60,7,0,37050568.660,0.040,-192932027.090934,0.005,1330.939,48.4,757.014,081c1c84,7,0,37050551.309,0.041,-156772997.137770,0.005,1081.537,47.8,756.014,02a41c80,10,0,37995396.442,0.075,-197851999.869798,0.007,1417.284,43.6,757.014,081c1ca4,10,0,37995380.738,0.098,-152991652.237573,0.009,1095.847,40.7,756.014,023c1cab,10,0,37995378.756,0.074,-160770885.504595,0.007,1151.669,43.7,757.014,02a41ca0,11,0,24962357.981,0.101,-129985518.907485,0.009,-3044.280,40.4,757.014,081c1cc4,11,0,24962341.579,0.152,-105623815.023742,0.014,-2473.671,35.3,756.014,02a41cc0,4,0,38905134.103,0.241,-202589234.804034,0.022,-36.235,36.2,150.000,0c1c1ce4,4,0,38905111.505,0.094,-164620256.050609,0.008,-29.456,41.2,710.000,06a41ce0,7,0,24199185.648,0.786,-94962803.603937,0.083,826.049,26.2,3.000,01931c2b,7,0,24199178.129,0.527,-97440075.732273,0.055,848.309,28.0,754.014,02331c20*92dfa38d
#BD2EPHEMA,COM1,0,98.0,FINE,2427,457570.000,762730,3,18;1,457530.0,0,1,1,2427,2427,457200.0,4.216484424e+07,8.587143403e-09,2.467598034e-01,4.9869460054e-04,-1.0259545066e+00,1.001125202e-05,-2.897717059e-05,8.96718750e+02,3.03515625e+02,-1.639127731e-07,-1.420266926e-07,8.3237810686e-02,1.325055194e-10,-1.135299470e+00,-7.79282460e-09,1,457200.0,4.500000000e-09,4.500000000e-09,-8.97096e-07,-9.68114e-14,0.00000e+00,TRUE,7.292799568e-05,4.00000000e+00*959469ae
#BD2EPHEMA,COM1,0,98.0,FINE,2427,457570.000,762730,3,18;2,457530.0,0,1,1,2427,2427,457200.0,4.216440783e+07,1.100903000e-08,2.327984374e-01,1.9412219990e-04,-1.7878021422e+00,2.733990550e-05,-1.480896026e-05,4.54687500e+02,8.44875000e+02,2.468004823e-08,-5.494803190e-08,3.7019452134e-02,1.014327965e-10,-1.408240027e+00,-1.01357793e-08,1,457200.0,4.730000000e-08,4.730000000e-08,1.10711e-07,-6.66134e-14,0.00000e+00,TRUE,7.293154966e-05,4.00000000e+00*2477335f
#BD2EPHEMA,COM1,0,98.0,FINE,2427,457570.000,762730,4,18;3,457530.0,0,1,1,2427,2427,457200.0,4.216343134e+07,8.780722895e-09,2.307503859e+00,2.2303336300e-04,-3.1184752154e+00,3.249663860e-05,-3.780238330e-06,1.16218750e+02,1.00879688e+03,-1.862645149e-08,-9.406358004e-08,5.2028919945e-02,2.246522148e-10,-1.620817503e+00,-7.80318218e-09,1,457200.0,3.530000000e-08,3.530000000e-08,-1.95461e-07,-1.06581e-14,0.00000e+00,TRUE,7.293185459e-05,4.00000000e+00*be5d5142
#BD2EPHEMA,COM1,0,98.0,FINE,2427,457570.000,762730,4,18;4,457530.0,0,1,1,2427,2427,457200.0,4.216463941e+07,6.153827760e-09,1.837648564e+00,8.0972572323e-04,-1.5548770249e+00,3.098370507e-05,5.797948688e-06,-1.73375000e+02,9.57359375e+02,2.216547728e-07,-8.754432201e-08,7.2531381817e-02,2.960837616e-10,-1.852000680e+00,-5.37415243e-09,1,457200.0,4.170000000e-08,4.170000000e-08,-6.47851e-07,-1.35891e-13,0.00000e+00,TRUE,7.292609371e-05,4.00000000e+00*67e41326
#BD2EPHEMA,COM1,0,98.0,FINE,2427,457570.000,762730,4,18;7,457530.0,0,1,1,2427,2427,457200.0,4.216887319e+07,7.807468070e-10,2.543634722e+00,3.8400654448e-03,-2.5433191344e+00,-6.224960089e-06,3.769667819e-05,-9.31312500e+02,-2.10890625e+02,2.281740308e-08,1.941807568e-07,9.6434510873e-01,7.789610183e-10,-2.291725621e+00,-1.60399538e-09,1,457200.0,6.400000000e-09,6.400000000e-09,-2.80505e-05,-6.91891e-13,0.00000e+00,TRUE,7.290973911e-05,4.00000000e+00*ac38eb2e
#BD2EPHEMA,COM1,0,98.0,FINE,2427,457570.000,762730,4,18;10,457530.0,0,1,1,2427,2427,457200.0,4.215825776e+07,8.900370736e-10,1.927052763e+00,1.0684675421e-02,-2.1466118079e+00,-3.853812814e-06,3.739073873e-05,-9.30328125e+02,-1.45062500e+02,-5.355104804e-08,1.736916602e-07,9.6358071502e-01,8.889656004e-10,-2.218140242e+00,-1.65864052e-09,1,457200.0,-2.900000000e-09,4.800000000e-09,-7.65745e-04,4.29523e-12,0.00000e+00,TRUE,7.293738778e-05,4.00000000e+00*9722f36e
#BD2EPHEMA,COM1,0,98.0,FINE,2427,457570.000,762730,4,18;11,457530.0,0,1,1,2427,2427,457200.0,2.790631027e+07,3.974451266e-09,-2.133534951e+00,1.5055504628e-04,-6.3421900364e-01,-5.415640771e-07,1.129833981e-05,1.22875000e+02,-8.56250000e+00,-2.095475793e-08,-6.519258022e-08,9.5058480034e-01,-7.003863168e-10,1.972808052e-01,-6.81992693e-09,1,457200.0,2.900000000e-09,2.900000000e-09,-7.81530e-04,-2.15978e-11,0.00000e+00,TRUE,1.354340934e-04,4.00000000e+00*14c1de7b
#GLOEPHEMERISA,COM1,0,98.0,FINE,2427,457570.000,762730,5,18;53,6,1,0,2427,458118000,10782,929,0,0,41,0,-2.222642480468750e+07,9.201479003906250e+06,8.562996582031250e+06,1.076228141784668e+03,-4.843273162841797e+02,3.316510200500488e+03,0.000000931322575,3.725290298461914e-06,-0.000000000000000e+00,-5.223695188760757e-05,3.725290298e-09,9.094947017729282e-13,36000,2,3,0,13*6609160c
#GLOEPHEMERISA,COM1,0,98.0,FINE,2427,457570.000,762730,5,18;57,9,1,0,2427,458118000,10782,929,0,0,41,2,-6.310500976562500e+06,2.085372460937500e+07,-1.327550878906250e+07,1.391515731811523e+02,-1.819747924804688e+03,-2.917770385742188e+03,-0.000000931322575,2.793967723846436e-06,2.793967723846436e-06,-2.353535965085030e-04,1.862645149e-09,9.094947017729282e-13,36000,2,5,0,13*60fe5599
#GLOEPHEMERISA,COM1,0,98.0,FINE,2427,457570.000,762730,5,18;58,11,1,0,2427,458118000,10782,929,0,0,41,0,1.031904296875000e+06,2.544447802734375e+07,1.047403320312500e+06,2.039680480957031e+02,1.397247314453125e+02,-3.588834762573242e+03,-0.000001862645149,4.656612873077393e-06,1.862645149230957e-06,3.266036510467529e-04,9.313225746e-10,-3.637978807091713e-12,36000,2,3,0,13*bdc8b2d1
#GALEPHEMERISA,COM1,0,98.0,FINE,2427,457570.000,762730,5,18;3,TRUE,TRUE,0,0,0,0,0,0,107,0,106,444600,5.44062508e+03,3.0698e-09,-1.37512800e-01,5.381962983e-04,6.116954414e-01,-8.9407e-06,6.1784e-06,2.134e+02,-1.913e+02,4.2841e-08,8.9407e-08,9.693739774e-01,-3.2787e-10,2.974739399e+00,-5.79059834e-09,444600,-2.906436566e-05,-2.231104e-12,0.0e+00,444600,-2.906395821e-05,-2.231104e-12,0.0e+00,6.985e-10,1.164e-09*55d7560d
#GALEPHEMERISA,COM1,0,98.0,FINE,2427,457570.000,762730,5,18;7,TRUE,TRUE,0,0,0,0,0,0,107,0,126,456600,5.44062460e+03,2.9858e-09,2.57858937e-01,4.423354985e-04,1.332024230e-01,-8.5216e-06,5.8562e-06,2.173e+02,-1.862e+02,3.5390e-08,1.3225e-07,9.694106074e-01,-3.4859e-10,2.974757353e+00,-5.76274004e-09,456600,-7.764564361e-05,-2.629008e-12,0.0e+00,456600,-7.764500333e-05,-2.629008e-12,0.0e+00,2.328e-09,3.027e-09*6470fa05
#GPSEPHEM,98,GPS,FINE,2427,457570000,0,0,18,6;5,457530.0,0,58,58,2427,2427,460800.0,2.656135139e+07,4.214104106e-09,2.226328716e+00,5.6083553936e-03,1.4792356767e+00,4.317611456e-06,3.721565008e-06,3.17750000e+02,8.58125000e+01,1.695007086e-07,-1.862645149e-08,9.8106000694e-01,2.403671551e-10,1.683166030e+00,-8.11748098e-09,58,460800.0,-1.071020961e-08,-2.3516361e-04,-3.4106051e-13,0.0000000e+00,TRUE,1.458499273e-04,4.00000000e+00*d8351a6b
#GPSEPHEM,98,GPS,FINE,2427,457570000,0,0,18,6;11,444600.0,0,12,12,2427,2427,451776.0,2.656014111e+07,4.180888436e-09,-8.129319172e-02,2.4743376998e-03,-2.3562128981e+00,4.094094038e-06,1.173838973e-05,1.54125000e+02,8.00625000e+01,2.980232239e-08,2.980232239e-08,9.6283573130e-01,-2.085801168e-10,7.226579782e-01,-7.92497296e-09,780,451776.0,-8.847564459e-09,-2.7231080e-04,1.2278178e-11,0.0000000e+00,TRUE,1.458598630e-04,4.00000000e+00*a2c7a108
#GPSEPHEM,98,GPS,FINE,2427,457570000,0,0,18,6;18,457530.0,0,224,224,2427,2427,460800.0,2.655985925e+07,4.070526697e-09,-1.944115577e-02,6.2770525692e-03,-2.8615127449e+00,2.905726433e-06,1.190975308e-05,1.52687500e+02,6.00000000e+01,3.725290298e-08,2.421438694e-08,9.7091984733e-01,-2.935836575e-10,6.998460821e-01,-7.87782814e-09,224,460800.0,-8.381903172e-09,-3.0233199e-04,9.0949470e-12,0.0000000e+00,TRUE,1.458620744e-04,4.00000000e+00*81d8eae6
#GPSEPHEM,98,GPS,FINE,2427,457570000,0,0,18,6;32,457560.0,0,9,9,2427,2427,460800.0,2.655931634e+07,4.320179953e-09,2.586632939e+00,9.4512887299e-03,-1.9712419518e+00,-5.267560482e-06,4.198402166e-06,3.00812500e+02,-1.02625000e+02,8.568167686e-08,-4.842877388e-08,9.6969421310e-01,-2.546534645e-10,2.765527363e+00,-8.09462289e-09,9,460800.0,9.313225746e-10,1.6815169e-04,2.0349944e-11,0.0000000e+00,TRUE,1.458667964e-04,4.00000000e+00*5b52382d
#BESTPOSA,COM1,0,98.0,FINE,2427,457570.000,762730,41854,18;SOL_COMPUTED,SINGLE,34.36872834997,109.22193298996,502.4143,-33.6681,WGS84,9.1962,3.6565,7.0941,"",0.000,0.000,12,9,0,7,0,06,00,5b*8415af00
#RANGEA,COM1,0,98.0,FINE,2427,457571.000,763724,2,18;27,18,0,20773685.019,0.051,-109166457.040897,0.006,-1974.477,46.6,754.014,08181c24,18,0,20773683.169,0.126,-85064752.812840,0.011,-1537.895,41.0,750.014,01301c2b,18,0,20773688.171,0.044,-81520409.407229,0.005,-1474.437,47.5,754.014,01d01c20,32,0,23840042.597,0.141,-125280278.891191,0.013,2298.059,36.3,608.000,08181c44,32,0,23840044.204,0.412,-97621017.198090,0.044,1791.009,32.2,44.000,01301c4b,32,0,23840044.587,0.161,-93553460.582310,0.015,1715.916,34.6,690.000,01d01c40,58,11,20460384.911,0.040,-109487647.184967,0.005,-2879.441,51.7,732.000,08191c44,58,11,20460370.125,0.040,-85156991.335809,0.005,-2239.570,49.6,732.000,00b91c4b,53,6,21568974.217,0.117,-115217585.008583,0.010,2241.626,40.8,74.000,08191d24,53,6,21568970.705,0.116,-89613626.646424,0.010,1743.540,38.5,711.000,00b91d2b,1,0,37763766.647,0.040,-196645837.272446,0.005,-18.897,49.7,759.014,0c1c1c24,1,0,37763749.739,0.040,-159790779.923155,0.005,-15.337,49.7,758.014,06a41c20,2,0,37488529.398,0.047,-195212602.331863,0.005,18.706,47.2,759.014,0c1c1c44,2,0,37488499.474,0.049,-158626108.169422,0.006,15.173,46.9,758.014,06a41c40,3,0,36764571.603,0.071,-191442765.123327,0.007,-0.062,44.1,758.014,0c1c1c64,3,0,36764546.396,0.040,-155562824.159537,0.005,-0.041,50.3,758.014,06a41c60,7,0,37050313.025,0.040,-192930696.191710,0.005,1330.477,48.4,758.014,081c1c84,7,0,37050295.664,0.041,-156771915.675401,0.005,1081.164,47.8,757.014,02a41c80,10,0,37995124.356,0.075,-197850582.621668,0.007,1416.897,43.6,758.014,081c1ca4,10,0,37995108.652,0.098,-152990556.337276,0.009,1095.601,40.8,757.014,023c1cab,10,0,37995106.594,0.075,-160769733.883074,0.007,1151.267,43.7,758.014,02a41ca0,11,0,24962942.474,0.100,-129988563.271408,0.009,-3044.779,40.5,758.014,081c1cc4,11,0,24962926.334,0.151,-105626288.817845,0.014,-2474.111,35.4,757.014,02a41cc0,4,0,38905140.906,0.268,-202589271.099344,0.024,-36.667,36.2,151.000,0c1c1ce4,4,0,38905118.468,0.094,-164620285.503172,0.008,-29.725,41.2,711.000,06a41ce0,7,0,24198974.710,0.811,-94961977.381674,0.086,826.831,26.2,4.000,01931c2b,7,0,24198967.913,0.604,-97439227.838647,0.063,847.385,27.9,755.014,02331c20*7daa95a4
#BESTPOSA,COM1,0,98.0,FINE,2427,457571.000,763724,42845,18;SOL_COMPUTED,SINGLE,34.36872759121,109.22193304597,502.3763,-33.6681,WGS84,9.1739,3.6549,7.0786,"",0.000,0.000,12,9,0,7,0,06,00,5b*2e6e6c6d
$command,GPSIONA ONCHANGED,response: OK*70
#RANGEA,COM1,0,98.0,FINE,2427,457572.000,764730,2,18;27,18,0,20774060.802,0.052,-109168432.090832,0.006,-1975.050,46.5,755.014,08181c24,18,0,20774058.956,0.128,-85066291.840371,0.011,-1539.460,40.9,751.014,01301c2b,18,0,20774063.997,0.044,-81521884.277292,0.005,-1474.862,47.5,755.014,01d01c20,32,0,23839605.513,0.139,-125277981.196583,0.012,2297.947,36.4,609.000,08181c44,32,0,23839607.252,0.410,-97619226.790045,0.044,1791.203,32.3,45.000,01301c4b,32,0,23839607.373,0.158,-93551744.799653,0.015,1716.065,34.8,691.000,01d01c40,58,11,20460923.132,0.040,-109490527.210458,0.005,-2880.022,51.8,733.000,08191c44,58,11,20460908.382,0.040,-85159231.359373,0.005,-2240.032,49.7,733.000,00b91c4b,53,6,21568554.621,0.143,-115215343.748502,0.013,2241.239,41.1,75.000,08191d24,53,6,21568550.847,0.115,-89611883.460412,0.010,1743.205,38.6,712.000,00b91d2b,1,0,37763770.315,0.040,-196645856.400963,0.005,-18.771,49.7,760.014,0c1c1c24,1,0,37763753.342,0.040,-159790795.467122,0.005,-15.293,49.7,759.014,06a41c20,2,0,37488525.861,0.047,-195212583.883421,0.005,18.751,47.2,760.014,0c1c1c44,2,0,37488495.903,0.049,-158626093.185734,0.006,15.202,46.9,759.014,06a41c40,3,0,36764571.580,0.071,-191442765.445207,0.007,0.035,44.1,759.014,0c1c1c64,3,0,36764546.466,0.040,-155562824.427348,0.005,-0.049,50.3,759.014,06a41c60,7,0,37050057.597,0.040,-192929366.014045,0.005,1330.433,48.4,759.014,081c1c84,7,0,37050040.147,0.042,-156770834.804073,0.005,1081.075,47.8,758.014,02a41c80,10,0,37994852.375,0.075,-197849166.075576,0.007,1416.777,43.6,759.014,081c1ca4,10,0,37994836.641,0.100,-152989460.961127,0.009,1095.586,40.6,758.014,023c1cab,10,0,37994834.556,0.075,-160768582.821413,0.007,1151.245,43.7,759.014,02a41ca0,11,0,24963527.188,0.100,-129991608.271842,0.009,-3044.809,40.5,759.014,081c1cc4,11,0,24963511.226,0.151,-105628763.112105,0.014,-2474.133,35.4,758.014,02a41cc0,4,0,38905147.992,0.284,-202589307.887360,0.026,-36.302,36.2,152.000,0c1c1ce4,4,0,38905125.540,0.094,-164620315.449439,0.008,-29.650,41.2,712.000,06a41ce0,7,0,24198763.684,0.925,-94961145.679543,0.150,826.831,26.0,0.000,0193102b,7,0,24198757.242,0.657,-97438380.642999,0.069,847.385,27.7,756.014,02331c20*6b8e28e0
#BESTPOSA,COM1,0,98.0,FINE,2427,457572.000,764730,43851,18;SOL_COMPUTED,SINGLE,34.36872701705,109.22193324538,502.3215,-33.6681,WGS84,9.1225,3.6387,7.0605,"",0.000,0.000,12,9,0,7,0,06,00,5b*e080b993
#RANGEA,COM1,0,98.0,FINE,2427,457573.000,765730,2,18;27,18,0,20774436.488,0.054,-109170406.943331,0.006,-1975.281,46.3,756.014,08181c24,18,0,20774434.879,0.130,-85067830.670793,0.011,-1539.497,40.8,752.014,01301c2b,18,0,20774439.816,0.045,-81523358.998970,0.005,-1475.041,47.4,756.014,01d01c20,32,0,23839168.399,0.139,-125275682.909876,0.012,2298.037,36.4,610.000,08181c44,32,0,23839169.823,0.400,-97617435.886834,0.043,1791.240,32.7,46.000,01301c4b,32,0,23839169.918,0.157,-93550028.535539,0.015,1716.207,34.9,692.000,01d01c40,58,11,20461461.276,0.040,-109493407.115205,0.005,-2880.395,51.8,734.000,08191c44,58,11,20461446.639,0.040,-85161471.272982,0.005,-2240.285,49.7,734.000,00b91c4b,53,6,21568134.830,0.144,-115213102.341346,0.013,2240.956,41.0,76.000,08191d24,53,6,21568131.173,0.117,-89610140.154893,0.010,1742.981,38.4,713.000,00b91d2b,1,0,37763773.803,0.040,-196645874.775659,0.005,-18.525,49.8,761.014,0c1c1c24,1,0,37763756.857,0.040,-159790810.395672,0.005,-15.084,49.5,760.014,06a41c20,2,0,37488522.157,0.046,-195212564.676469,0.005,19.078,47.2,761.014,0c1c1c44,2,0,37488492.183,0.050,-158626077.575539,0.006,15.493,46.7,760.014,06a41c40,3,0,36764571.580,0.070,-191442765.007784,0.007,0.310,44.2,760.014,0c1c1c64,3,0,36764546.353,0.040,-155562824.056540,0.005,0.279,50.1,760.014,06a41c60,7,0,37049802.046,0.040,-192928035.213229,0.005,1330.612,48.5,760.014,081c1c84,7,0,37049784.550,0.043,-156769753.420919,0.005,1081.209,47.6,759.014,02a41c80,10,0,37994580.243,0.074,-197847748.865057,0.007,1416.994,43.7,760.014,081c1ca4,10,0,37994564.503,0.099,-152988365.079553,0.009,1095.787,40.7,759.014,023c1cab,10,0,37994562.378,0.076,-160767431.215717,0.007,1151.453,43.5,760.014,02a41ca0,11,0,24964111.910,0.099,-129994652.575300,0.009,-3044.548,40.7,760.014,081c1cc4,11,0,24964096.101,0.152,-105631236.857090,0.014,-2473.843,35.3,759.014,02a41cc0,4,0,38905154.832,0.249,-202589344.029143,0.022,-36.279,36.5,153.000,0c1c1ce4,4,0,38905132.394,0.096,-164620344.804503,0.008,-29.516,41.0,713.000,06a41ce0,7,0,24198553.088,0.793,-94960319.592455,0.084,826.831,26.0,1.000,01931c2b,7,0,24198546.390,0.693,-97437533.128989,0.073,847.467,27.4,757.014,02331c20*5d642cb8
#GPSION,98,GPS,FINE,2427,457573000,0,0,18,3;7.450580596923828e-09,2.235174179077148e-08,-5.960464477539063e-08,-1.192092895507813e-07,9.011200000000000e+04,1.146880000000000e+05,-6.553600000000000e+04,-5.242880000000000e+05,0*256c2686
#BESTPOSA,COM1,0,98.0,FINE,2427,457573.000,765730,44851,18;SOL_COMPUTED,SINGLE,34.36872634695,109.22193339072,502.2782,-33.6681,WGS84,9.0735,3.6235,7.0432,"",0.000,0.000,12,9,0,7,0,06,00,5b*e52fd470
#RANGEA,COM1,0,98.0,FINE,2427,457574.000,766730,1,18;27,18,0,20774812.254,0.055,-109172382.540079,0.006,-1975.780,46.1,757.014,08181c24,18,0,20774810.601,0.129,-85069370.088715,0.011,-1539.609,40.9,753.014,01301c2b,18,0,20774815.738,0.044,-81524834.277839,0.005,-1475.391,47.5,757.014,01d01c20,32,0,23838731.368,0.139,-125273384.935946,0.012,2297.932,36.4,611.000,08181c44,32,0,23838732.582,0.373,-97615645.272557,0.040,1790.018,32.7,47.000,01301c4b,32,0,23838732.612,0.154,-93548312.549481,0.014,1716.095,35.2,693.000,01d01c40,58,11,20461999.608,0.040,-109496287.851496,0.005,-2880.946,51.8,735.000,08191c44,58,11,20461985.035,0.040,-85163711.843158,0.005,-2240.732,49.8,735.000,00b91c4b,53,6,21567715.095,0.166,-115210861.734814,0.015,2240.248,40.8,77.000,08191d24,53,6,21567711.405,0.118,-89608397.459234,0.010,1742.579,38.3,714.000,00b91d2b,1,0,37763777.414,0.040,-196645893.302332,0.005,-18.435,49.7,762.014,0c1c1c24,1,0,37763760.446,0.040,-159790825.446754,0.005,-14.987,49.6,761.014,06a41c20,2,0,37488518.489,0.046,-195212545.632010,0.005,19.190,47.2,762.014,0c1c1c44,2,0,37488488.557,0.049,-158626062.091802,0.006,15.612,46.9,761.014,06a41c40,3,0,36764571.662,0.071,-191442764.740725,0.007,0.340,44.2,761.014,0c1c1c64,3,0,36764546.297,0.040,-155562823.829909,0.005,0.279,50.3,761.014,06a41c60,7,0,37049546.544,0.040,-192926704.695758,0.005,1330.574,48.5,761.014,081c1c84,7,0,37049528.929,0.043,-156768672.254354,0.005,1081.239,47.7,760.014,02a41c80,10,0,37994308.150,0.075,-197846331.908349,0.007,1417.061,43.7,761.014,081c1ca4,10,0,37994292.240,0.098,-152987269.409397,0.009,1095.825,40.7,760.014,023c1cab,10,0,37994290.251,0.075,-160766279.824502,0.007,1151.446,43.6,761.014,02a41ca0,11,0,24964696.544,0.098,-129997697.081869,0.009,-3044.302,40.7,761.014,081c1cc4,11,0,24964681.037,0.149,-105633710.749220,0.014,-2473.768,35.6,760.014,02a41cc0,4,0,38905161.582,0.239,-202589380.310595,0.021,-36.235,36.3,154.000,0c1c1ce4,4,0,38905139.441,0.095,-164620374.267467,0.008,-29.419,41.2,714.000,06a41ce0,7,0,24198342.308,0.588,-94959493.988441,0.062,825.758,25.7,2.000,01931c2b,7,0,24198336.230,0.649,-97436685.777654,0.068,847.266,27.2,758.014,02331c20*7a51cf36
#BESTPOSA,COM1,0,98.0,FINE,2427,457574.000,766730,45850,18;SOL_COMPUTED,SINGLE,34.36872517363,109.22193348316,502.2098,-33.6681,WGS84,9.0267,3.6091,7.0267,"",0.000,0.000,12,9,0,7,0,06,00,5b*190ff3af
#RANGEA,COM1,0,98.0,FINE,2427,457575.000,767730,2,18;27,18,0,20775188.119,0.055,-109174358.404892,0.006,-1975.915,46.1,758.014,08181c24,18,0,20775186.746,0.133,-85070909.734205,0.012,-1539.855,40.7,754.014,01301c2b,18,0,20775191.767,0.044,-81526309.767694,0.005,-1475.570,47.5,758.014,01d01c20,32,0,23838294.114,0.135,-125271086.862475,0.012,2298.260,36.7,612.000,08181c44,32,0,23838295.219,0.430,-97613854.611788,0.046,1792.023,32.6,48.000,01301c4b,32,0,23838295.231,0.153,-93546596.437731,0.014,1715.983,35.2,694.000,01d01c40,58,11,20462537.951,0.040,-109499168.971299,0.005,-2881.251,51.8,736.000,08191c44,58,11,20462523.497,0.040,-85165952.711701,0.005,-2240.993,49.8,736.000,00b91c4b,53,6,21567295.829,0.185,-115208621.415294,0.016,2240.211,40.8,78.000,08191d24,53,6,21567291.912,0.118,-89606654.974679,0.010,1742.445,38.3,715.000,00b91d2b,1,0,37763780.866,0.040,-196645911.516588,0.005,-18.011,49.7,763.014,0c1c1c24,1,0,37763763.927,0.040,-159790840.246527,0.005,-14.630,49.7,762.014,06a41c20,2,0,37488514.773,0.046,-195212526.289029,0.005,19.540,47.3,763.014,0c1c1c44,2,0,37488484.832,0.048,-158626046.374794,0.006,15.903,47.0,762.014,06a41c40,3,0,36764571.449,0.070,-191442764.147398,0.007,0.750,44.2,762.014,0c1c1c64,3,0,36764546.165,0.040,-155562823.351552,0.005,0.614,50.4,762.014,06a41c60,7,0,37049291.028,0.040,-192925374.000144,0.005,1330.828,48.5,762.014,081c1c84,7,0,37049273.332,0.042,-156767590.967625,0.005,1081.403,47.8,761.014,02a41c80,10,0,37994036.027,0.074,-197844914.743405,0.007,1417.277,43.7,762.014,081c1ca4,10,0,37994020.123,0.097,-152986173.571096,0.009,1095.966,40.9,761.014,023c1cab,10,0,37994018.163,0.074,-160765128.264590,0.007,1151.654,43.7,762.014,02a41ca0,11,0,24965281.107,0.097,-130000741.376155,0.009,-3044.138,40.9,762.014,081c1cc4,11,0,24965265.713,0.148,-105636184.457924,0.013,-2473.433,35.7,761.014,02a41cc0,4,0,38905168.189,0.271,-202589416.253283,0.024,-35.810,36.1,155.000,0c1c1ce4,4,0,38905146.307,0.094,-164620403.481998,0.008,-29.047,41.3,715.000,06a41ce0,7,0,24198131.622,0.838,-94958668.192642,0.089,825.758,25.5,3.000,01931c2b,7,0,24198125.616,0.556,-97435838.432793,0.058,847.340,26.9,759.014,02331c20*6e480cbb
#BESTPOSA,COM1,0,98.0,FINE,2427,457575.000,767730,46850,18;SOL_COMPUTED,SINGLE,34.36872433216,109.22193365275,502.1538,-33.6680,WGS84,8.9821,3.5955,7.0109,"",0.000,0.000,12,9,0,7,0,06,00,5b*7b8bb1db
#RANGEA,COM1,0,98.0,FINE,2427,457576.000,768730,2,18;27,18,0,20775564.157,0.056,-109176334.539919,0.006,-1976.682,46.0,759.014,08181c24,18,0,20775562.938,0.134,-85072449.553713,0.012,-1540.317,40.6,755.014,01301c2b,18,0,20775567.843,0.045,-81527785.437338,0.005,-1476.091,47.4,759.014,01d01c20,32,0,23837857.122,0.135,-125268788.621068,0.012,2297.783,36.8,613.000,08181c44,32,0,23837857.594,0.422,-97612063.765947,0.045,1789.609,32.9,49.000,01301c4b,32,0,23837857.785,0.154,-93544880.204239,0.014,1715.969,35.2,695.000,01d01c40,58,11,20463076.450,0.040,-109502050.426873,0.005,-2882.093,51.8,737.000,08191c44,58,11,20463062.024,0.040,-85168193.842369,0.005,-2241.641,49.8,737.000,00b91c4b,53,6,21566876.447,0.097,-115206381.402902,0.009,2239.205,40.8,79.000,08191d24,53,6,21566872.540,0.118,-89604912.757600,0.010,1741.737,38.2,716.000,00b91d2b,1,0,37763784.261,0.040,-196645929.414358,0.005,-18.249,49.7,764.014,0c1c1c24,1,0,37763767.368,0.040,-159790854.785963,0.005,-14.794,49.7,763.014,06a41c20,2,0,37488511.047,0.046,-195212506.617831,0.005,19.369,47.2,764.014,0c1c1c44,2,0,37488481.097,0.048,-158626030.391395,0.005,15.776,47.0,763.014,06a41c40,3,0,36764571.401,0.070,-191442763.228935,0.007,0.579,44.2,763.014,0c1c1c64,3,0,36764545.960,0.040,-155562822.612812,0.005,0.458,50.4,763.014,06a41c60,7,0,37049035.508,0.040,-192924043.117550,0.005,1330.500,48.5,763.014,081c1c84,7,0,37049017.639,0.042,-156766509.508729,0.005,1081.187,47.7,762.014,02a41c80,10,0,37993763.830,0.074,-197843497.346897,0.007,1417.083,43.7,763.014,081c1ca4,10,0,37993747.970,0.097,-152985077.542783,0.009,1095.772,40.9,762.014,023c1cab,10,0,37993745.939,0.074,-160763976.506113,0.007,1151.476,43.8,763.014,02a41ca0,11,0,24965865.753,0.096,-130003785.382302,0.009,-3044.354,41.0,763.014,081c1cc4,11,0,24965850.486,0.146,-105638658.002704,0.013,-2473.932,35.8,762.014,02a41cc0,4,0,38905174.898,0.286,-202589451.872497,0.026,-35.825,36.1,156.000,0c1c1ce4,4,0,38905153.181,0.094,-164620432.433077,0.008,-29.255,41.2,716.000,06a41ce0,7,0,24197920.946,0.959,-94957839.343869,0.150,826.123,25.2,0.000,0193102b,7,0,24197915.143,0.580,-97434991.104927,0.061,847.325,27.0,760.014,02331c20*a95b4aa3
#BESTPOSA,COM1,0,98.0,FINE,2427,457576.000,768730,47851,18;SOL_COMPUTED,SINGLE,34.36872309635,109.22193382658,502.0923,-33.6680,WGS84,8.9447,3.5853,6.9964,"",0.000,0.000,12,9,0,7,0,06,00,5b*d3cf0aa6
#RANGEA,COM1,0,98.0,FINE,2427,457577.000,769730,2,18;27,18,0,20775940.412,0.056,-109178311.738057,0.006,-1977.338,46.0,760.014,08181c24,18,0,20775938.985,0.137,-85073990.265150,0.012,-1540.667,40.5,756.014,01301c2b,18,0,20775944.089,0.044,-81529261.927087,0.005,-1476.590,47.5,760.014,01d01c20,32,0,23837420.165,0.133,-125266491.055131,0.012,2297.656,36.9,614.000,08181c44,32,0,23837420.305,0.503,-97610273.445670,0.053,1791.374,32.8,50.000,01301c4b,32,0,23837420.553,0.153,-93543164.515907,0.014,1715.633,35.3,696.000,01d01c40,58,11,20463615.126,0.040,-109504933.044849,0.005,-2882.838,51.8,738.000,08191c44,58,11,20463600.774,0.040,-85170435.872178,0.005,-2242.178,49.9,738.000,00b91c4b,53,6,21566457.292,0.198,-115204142.559490,0.017,2238.668,40.6,80.000,08191d24,53,6,21566453.384,0.119,-89603171.435694,0.010,1741.238,38.1,717.000,00b91d2b,1,0,37763787.776,0.040,-196645947.790827,0.005,-18.175,49.6,765.014,0c1c1c24,1,0,37763770.962,0.040,-159790869.728951,0.005,-14.823,49.8,764.014,06a41c20,2,0,37488507.363,0.047,-195212487.444790,0.005,19.302,47.1,765.014,0c1c1c44,2,0,37488477.366,0.048,-158626014.814351,0.005,15.642,47.0,764.014,06a41c40,3,0,36764571.431,0.071,-191442762.830925,0.007,0.482,44.1,764.014,0c1c1c64,3,0,36764545.912,0.040,-155562822.271560,0.005,0.488,50.4,764.014,06a41c60,7,0,37048780.092,0.040,-192922712.841746,0.005,1330.336,48.5,764.014,081c1c84,7,0,37048762.100,0.042,-156765428.560361,0.005,1080.986,47.7,763.014,02a41c80,10,0,37993491.768,0.075,-197842080.534969,0.007,1416.912,43.6,764.014,081c1ca4,10,0,37993475.859,0.097,-152983981.976846,0.009,1095.653,40.9,763.014,023c1cab,10,0,37993473.864,0.074,-160762825.235001,0.007,1151.379,43.8,764.014,02a41ca0,11,0,24966450.380,0.096,-130006829.929476,0.009,-3044.474,40.9,764.014,081c1cc4,11,0,24966435.166,0.146,-105641131.916519,0.013,-2473.917,35.8,763.014,02a41cc0,4,0,38905181.880,0.305,-202589488.006353,0.028,-36.309,35.9,157.000,0c1c1ce4,4,0,38905160.119,0.094,-164620461.782910,0.008,-29.233,41.3,717.000,06a41ce0,7,0,24197710.555,1.209,-94957012.773553,0.150,826.123,25.1,0.000,0193102b,7,0,24197704.727,0.456,-97434144.320678,0.048,846.640,26.9,761.014,02331c20*a7813fdd
#BESTPOSA,COM1,0,98.0,FINE,2427,457577.000,769730,48851,18;SOL_COMPUTED,SINGLE,34.36872164355,109.22193398775,502.0518,-33.6680,WGS84,8.9068,3.5837,7.0052,"",0.000,0.000,12,9,0,7,0,06,00,5b*0c7b092f
#RANGEA,COM1,0,98.0,FINE,2427,457578.000,770730,1,18;26,18,0,20776316.652,0.056,-109180288.810591,0.006,-1977.010,46.0,761.014,08181c24,18,0,20776315.314,0.139,-85075530.800086,0.012,-1540.034,40.3,757.014,01301c2b,18,0,20776320.317,0.044,-81530738.308236,0.005,-1476.397,47.5,761.014,01d01c20,32,0,23836983.112,0.133,-125264192.937628,0.012,2298.387,37.0,615.000,08181c44,32,0,23836983.348,0.529,-97608482.712928,0.056,1790.369,32.8,51.000,01301c4b,32,0,23836983.168,0.153,-93541448.401624,0.014,1716.460,35.2,697.000,01d01c40,58,11,20464153.800,0.040,-109507815.585474,0.005,-2882.555,51.7,739.000,08191c44,58,11,20464139.546,0.040,-85172677.844822,0.005,-2241.954,49.9,739.000,00b91c4b,53,6,21566038.070,0.109,-115201903.603978,0.010,2239.019,40.7,81.000,08191d24,53,6,21566034.086,0.119,-89601430.044274,0.010,1741.357,38.1,718.000,00b91d2b,1,0,37763791.122,0.040,-196645965.459074,0.005,-17.392,49.6,766.014,0c1c1c24,1,0,37763774.294,0.040,-159790884.076326,0.005,-14.071,49.7,765.014,06a41c20,2,0,37488503.572,0.046,-195212467.553762,0.005,20.189,47.2,766.014,0c1c1c44,2,0,37488473.620,0.048,-158625998.648797,0.005,16.424,47.0,765.014,06a41c40,3,0,36764571.220,0.070,-191442761.694764,0.007,1.368,44.2,765.014,0c1c1c64,3,0,36764545.672,0.040,-155562821.358849,0.005,1.173,50.4,765.014,06a41c60,7,0,37048524.569,0.040,-192921381.982592,0.005,1331.141,48.6,765.014,081c1c84,7,0,37048506.476,0.042,-156764347.120181,0.005,1081.649,47.7,764.014,02a41c80,10,0,37993219.592,0.074,-197840663.101655,0.007,1417.701,43.7,765.014,081c1ca4,10,0,37993203.829,0.097,-152982885.927537,0.009,1096.279,40.9,764.014,023c1cab,10,0,37993201.644,0.073,-160761673.454850,0.007,1152.020,43.8,765.014,02a41ca0,11,0,24967034.863,0.095,-130009873.819438,0.008,-3043.602,41.1,765.014,081c1cc4,11,0,24967019.870,0.146,-105643605.324555,0.013,-2473.262,35.8,764.014,02a41cc0,4,0,38905188.548,0.288,-202589523.437976,0.026,-35.102,36.0,158.000,0c1c1ce4,4,0,38905166.826,0.094,-164620490.562357,0.008,-28.547,41.2,718.000,06a41ce0,7,0,24197494.766,0.503,-97433297.099654,0.053,847.333,27.0,762.014,02331c20*5bfcb07f
#BESTPOSA,COM1,0,98.0,FINE,2427,457578.000,770730,49850,18;SOL_COMPUTED,SINGLE,34.36872019777,109.22193417773,501.9982,-33.6680,WGS84,8.8015,3.5712,6.9367,"",0.000,0.000,12,9,0,7,0,06,00,5b*49857f84
#RANGEA,COM1,0,98.0,FINE,2427,457579.000,771730,2,18;26,18,0,20776693.051,0.055,-109182266.376505,0.006,-1978.567,46.2,762.014,08181c24,18,0,20776691.877,0.137,-85077071.762711,0.012,-1541.918,40.4,758.014,01301c2b,18,0,20776696.630,0.044,-81532215.048157,0.005,-1477.462,47.5,762.014,01d01c20,32,0,23836546.295,0.131,-125261894.935236,0.011,2297.247,37.1,616.000,08181c44,32,0,23836546.269,0.503,-97606692.070637,0.053,1791.441,32.8,52.000,01301c4b,32,0,23836545.875,0.153,-93539732.356483,0.014,1715.402,35.2,698.000,01d01c40,58,11,20464692.597,0.040,-109510698.699484,0.005,-2884.112,51.8,740.000,08191c44,58,11,20464678.411,0.040,-85174920.267566,0.005,-2243.191,49.9,740.000,00b91c4b,53,6,21565619.039,0.109,-115199665.272928,0.010,2237.275,40.7,82.000,08191d24,53,6,21565614.869,0.120,-89599689.063857,0.010,1740.255,38.0,719.000,00b91d2b,1,0,37763794.464,0.040,-196645983.029853,0.005,-18.271,49.7,767.014,0c1c1c24,1,0,37763777.657,0.040,-159790898.357569,0.005,-14.853,49.9,766.014,06a41c20,2,0,37488499.633,0.046,-195212447.590118,0.005,19.294,47.3,767.014,0c1c1c44,2,0,37488469.695,0.047,-158625982.424666,0.005,15.657,47.2,766.014,06a41c40,3,0,36764570.961,0.070,-191442760.477927,0.007,0.489,44.3,766.014,0c1c1c64,3,0,36764545.414,0.040,-155562820.369658,0.005,0.435,50.5,766.014,06a41c60,7,0,37048269.039,0.040,-192920051.175845,0.005,1330.060,48.7,766.014,081c1c84,7,0,37048250.827,0.042,-156763265.732586,0.005,1080.777,47.8,765.014,02a41c80,10,0,37992947.300,0.074,-197839245.689337,0.007,1416.629,43.8,766.014,081c1ca4,10,0,37992931.634,0.097,-152981789.897637,0.009,1095.482,40.9,765.014,023c1cab,10,0,37992929.461,0.072,-160760521.687522,0.007,1151.178,43.9,766.014,02a41ca0,11,0,24967619.422,0.094,-130012917.685856,0.008,-3044.474,41.3,766.014,081c1cc4,11,0,24967604.443,0.145,-105646078.684523,0.013,-2473.858,35.9,765.014,02a41cc0,4,0,38905195.483,0.256,-202589558.761537,0.023,-35.892,36.1,159.000,0c1c1ce4,4,0,38905173.694,0.093,-164620519.265242,0.008,-29.307,41.4,719.000,06a41ce0,7,0,24197284.211,0.581,-97432450.157252,0.061,847.191,27.0,763.014,02331c20*1d77e144
#BESTPOSA,COM1,0,98.0,FINE,2427,457579.000,771730,50851,18;SOL_COMPUTED,SINGLE,34.36871861819,109.22193447371,501.9249,-33.6680,WGS84,8.6895,3.5158,6.8926,"",0.000,0.000,12,9,0,7,0,06,00,5b*fe8a8dfa
$command,BDSIONA ONCHANGED,response: OK*61
#RANGEA,COM1,0,98.0,FINE,2427,457580.000,772730,2,18;26,18,0,20777069.641,0.054,-109184245.592324,0.006,-1979.863,46.2,763.014,08181c24,18,0,20777068.371,0.140,-85078614.001882,0.012,-1542.954,40.3,759.014,01301c2b,18,0,20777073.276,0.044,-81533693.035156,0.005,-1478.438,47.4,763.014,01d01c20,32,0,23836109.412,0.130,-125259598.143786,0.011,2296.420,37.1,617.000,08181c44,32,0,23836109.534,0.405,-97604902.346704,0.043,1789.609,32.5,53.000,01301c4b,32,0,23836108.878,0.154,-93538017.215320,0.014,1714.888,35.1,699.000,01d01c40,58,11,20465231.682,0.040,-109513583.545575,0.005,-2885.513,51.7,741.000,08191c44,58,11,20465217.555,0.040,-85177164.033830,0.005,-2244.294,49.9,741.000,00b91c4b,53,6,21565200.607,0.130,-115197428.535409,0.011,2236.038,40.5,83.000,08191d24,53,6,21565196.115,0.123,-89597949.426840,0.010,1739.137,37.8,720.000,00b91d2b,1,0,37763798.030,0.040,-196646001.661058,0.005,-18.972,49.6,768.014,0c1c1c24,1,0,37763781.245,0.040,-159790913.499533,0.005,-15.442,50.0,767.014,06a41c20,2,0,37488495.996,0.046,-195212428.684791,0.005,18.557,47.2,768.014,0c1c1c44,2,0,37488466.118,0.046,-158625967.067771,0.005,15.053,47.3,767.014,06a41c40,3,0,36764570.946,0.070,-191442760.322203,0.007,-0.159,44.2,767.014,0c1c1c64,3,0,36764545.410,0.040,-155562820.252140,0.005,-0.161,50.6,767.014,06a41c60,7,0,37048013.772,0.040,-192918721.547511,0.005,1329.218,48.6,767.014,081c1c84,7,0,37047995.450,0.041,-156762185.295194,0.005,1080.144,47.8,766.014,02a41c80,10,0,37992675.317,0.074,-197837829.426337,0.007,1415.861,43.7,767.014,081c1ca4,10,0,37992659.682,0.097,-152980694.761732,0.009,1094.841,40.9,766.014,023c1cab,10,0,37992657.521,0.072,-160759370.864331,0.007,1150.492,44.0,767.014,02a41ca0,11,0,24968204.241,0.094,-130015962.680609,0.008,-3045.390,41.3,767.014,081c1cc4,11,0,24968189.268,0.143,-105648553.000479,0.013,-2474.595,36.1,766.014,02a41cc0,4,0,38905202.154,0.263,-202589595.138847,0.024,-36.674,35.8,160.000,0c1c1ce4,4,0,38905180.651,0.093,-164620548.848473,0.008,-29.874,41.4,720.000,06a41ce0,7,0,24197073.589,0.580,-97431604.043928,0.061,845.820,27.0,764.014,02331c20*d768b0bf
#BDSION,98,GPS,FINE,2427,457580000,0,0,18,3;2.048909664154053e-08,4.470348358154297e-08,-7.152557373046875e-07,1.251697540283203e-06,1.392640000000000e+05,-7.700480000000000e+05,5.963776000000000e+06,-4.980736000000000e+06,0*42b076f9
#BD2EPHEMA,COM1,0,98.0,FINE,2427,457580.000,772730,3,18;1,457530.0,0,1,1,2427,2427,457200.0,4.216484424e+07,8.587143403e-09,2.467598034e-01,4.9869460054e-04,-1.0259545066e+00,1.001125202e-05,-2.897717059e-05,8.96718750e+02,3.03515625e+02,-1.639127731e-07,-1.420266926e-07,8.3237810686e-02,1.325055194e-10,-1.135299470e+00,-7.79282460e-09,1,457200.0,4.500000000e-09,4.500000000e-09,-8.97096e-07,-9.68114e-14,0.00000e+00,TRUE,7.292799568e-05,4.00000000e+00*19b484a4
#BD2EPHEMA,COM1,0,98.0,FINE,2427,457580.000,772730,4,18;2,457530.0,0,1,1,2427,2427,457200.0,4.216440783e+07,1.100903000e-08,2.327984374e-01,1.9412219990e-04,-1.7878021422e+00,2.733990550e-05,-1.480896026e-05,4.54687500e+02,8.44875000e+02,2.468004823e-08,-5.494803190e-08,3.7019452134e-02,1.014327965e-10,-1.408240027e+00,-1.01357793e-08,1,457200.0,4.730000000e-08,4.730000000e-08,1.10711e-07,-6.66134e-14,0.00000e+00,TRUE,7.293154966e-05,4.00000000e+00*1e4c8e82
#BD2EPHEMA,COM1,0,98.0,FINE,2427,457580.000,772730,4,18;3,457530.0,0,1,1,2427,2427,457200.0,4.216343134e+07,8.780722895e-09,2.307503859e+00,2.2303336300e-04,-3.1184752154e+00,3.249663860e-05,-3.780238330e-06,1.16218750e+02,1.00879688e+03,-1.862645149e-08,-9.406358004e-08,5.2028919945e-02,2.246522148e-10,-1.620817503e+00,-7.80318218e-09,1,457200.0,3.530000000e-08,3.530000000e-08,-1.95461e-07,-1.06581e-14,0.00000e+00,TRUE,7.293185459e-05,4.00000000e+00*327dbc48
#BD2EPHEMA,COM1,0,98.0,FINE,2427,457580.000,772730,4,18;4,457530.0,0,1,1,2427,2427,457200.0,4.216463941e+07,6.153827760e-09,1.837648564e+00,8.0972572323e-04,-1.5548770249e+00,3.098370507e-05,5.797948688e-06,-1.73375000e+02,9.57359375e+02,2.216547728e-07,-8.754432201e-08,7.2531381817e-02,2.960837616e-10,-1.852000680e+00,-5.37415243e-09,1,457200.0,4.170000000e-08,4.170000000e-08,-6.47851e-07,-1.35891e-13,0.00000e+00,TRUE,7.292609371e-05,4.00000000e+00*9475ea78
#BD2EPHEMA,COM1,0,98.0,FINE,2427,457580.000,772730,4,18;7,457530.0,0,1,1,2427,2427,457200.0,4.216887319e+07,7.807468070e-10,2.543634722e+00,3.8400654448e-03,-2.5433191344e+00,-6.224960089e-06,3.769667819e-05,-9.31312500e+02,-2.10890625e+02,2.281740308e-08,1.941807568e-07,9.6434510873e-01,7.789610183e-10,-2.291725621e+00,-1.60399538e-09,1,457200.0,6.400000000e-09,6.400000000e-09,-2.80505e-05,-6.91891e-13,0.00000e+00,TRUE,7.290973911e-05,4.00000000e+00*20180624
#BD2EPHEMA,COM1,0,98.0,FINE,2427,457580.000,772730,4,18;10,457530.0,0,1,1,2427,2427,457200.0,4.215825776e+07,8.900370736e-10,1.927052763e+00,1.0684675421e-02,-2.1466118079e+00,-3.853812814e-06,3.739073873e-05,-9.30328125e+02,-1.45062500e+02,-5.355104804e-08,1.736916602e-07,9.6358071502e-01,8.889656004e-10,-2.218140242e+00,-1.65864052e-09,1,457200.0,-2.900000000e-09,4.800000000e-09,-7.65745e-04,4.29523e-12,0.00000e+00,TRUE,7.293738778e-05,4.00000000e+00*b3760901
#BD2EPHEMA,COM1,0,98.0,FINE,2427,457580.000,772730,5,18;11,457530.0,0,1,1,2427,2427,457200.0,2.790631027e+07,3.974451266e-09,-2.133534951e+00,1.5055504628e-04,-6.3421900364e-01,-5.415640771e-07,1.129833981e-05,1.22875000e+02,-8.56250000e+00,-2.095475793e-08,-6.519258022e-08,9.5058480034e-01,-7.003863168e-10,1.972808052e-01,-6.81992693e-09,1,457200.0,2.900000000e-09,2.900000000e-09,-7.81530e-04,-2.15978e-11,0.00000e+00,TRUE,1.354340934e-04,4.00000000e+00*5a88b222
#GLOEPHEMERISA,COM1,0,98.0,FINE,2427,457580.000,772730,5,18;53,6,1,0,2427,458118000,10782,929,0,0,41,0,-2.222642480468750e+07,9.201479003906250e+06,8.562996582031250e+06,1.076228141784668e+03,-4.843273162841797e+02,3.316510200500488e+03,0.000000931322575,3.725290298461914e-06,-0.000000000000000e+00,-5.223695188760757e-05,3.725290298e-09,9.094947017729282e-13,36000,2,3,0,13*c4c1a320
#GLOEPHEMERISA,COM1,0,98.0,FINE,2427,457580.000,772730,5,18;57,9,1,0,2427,458118000,10782,929,0,0,41,2,-6.310500976562500e+06,2.085372460937500e+07,-1.327550878906250e+07,1.391515731811523e+02,-1.819747924804688e+03,-2.917770385742188e+03,-0.000000931322575,2.793967723846436e-06,2.793967723846436e-06,-2.353535965085030e-04,1.862645149e-09,9.094947017729282e-13,36000,2,5,0,13*e2c4dbfc
#GLOEPHEMERISA,COM1,0,98.0,FINE,2427,457580.000,772730,5,18;58,11,1,0,2427,458118000,10782,929,0,0,41,0,1.031904296875000e+06,2.544447802734375e+07,1.047403320312500e+06,2.039680480957031e+02,1.397247314453125e+02,-3.588834762573242e+03,-0.000001862645149,4.656612873077393e-06,1.862645149230957e-06,3.266036510467529e-04,9.313225746e-10,-3.637978807091713e-12,36000,2,3,0,13*1f0007fd
#GALEPHEMERISA,COM1,0,98.0,FINE,2427,457580.000,772730,5,18;3,TRUE,TRUE,0,0,0,0,0,0,107,0,106,444600,5.44062508e+03,3.0698e-09,-1.37512800e-01,5.381962983e-04,6.116954414e-01,-8.9407e-06,6.1784e-06,2.134e+02,-1.913e+02,4.2841e-08,8.9407e-08,9.693739774e-01,-3.2787e-10,2.974739399e+00,-5.79059834e-09,444600,-2.906436566e-05,-2.231104e-12,0.0e+00,444600,-2.906395821e-05,-2.231104e-12,0.0e+00,6.985e-10,1.164e-09*d932f775
#GALEPHEMERISA,COM1,0,98.0,FINE,2427,457580.000,772730,6,18;7,TRUE,TRUE,0,0,0,0,0,0,107,0,126,456600,5.44062460e+03,2.9858e-09,2.57858937e-01,4.423354985e-04,1.332024230e-01,-8.5216e-06,5.8562e-06,2.173e+02,-1.862e+02,3.5390e-08,1.3225e-07,9.694106074e-01,-3.4859e-10,2.974757353e+00,-5.76274004e-09,456600,-7.764564361e-05,-2.629008e-12,0.0e+00,456600,-7.764500333e-05,-2.629008e-12,0.0e+00,2.328e-09,3.027e-09*d8444f35
#GPSEPHEM,98,GPS,FINE,2427,457580000,0,0,18,6;5,457560.0,0,58,58,2427,2427,460800.0,2.656135139e+07,4.214104106e-09,2.226328716e+00,5.6083553936e-03,1.4792356767e+00,4.317611456e-06,3.721565008e-06,3.17750000e+02,8.58125000e+01,1.695007086e-07,-1.862645149e-08,9.8106000694e-01,2.403671551e-10,1.683166030e+00,-8.11748098e-09,58,460800.0,-1.071020961e-08,-2.3516361e-04,-3.4106051e-13,0.0000000e+00,TRUE,1.458499273e-04,4.00000000e+00*635a198f
#GPSEPHEM,98,GPS,FINE,2427,457580000,0,0,18,6;11,444600.0,0,12,12,2427,2427,451776.0,2.656014111e+07,4.180888436e-09,-8.129319172e-02,2.4743376998e-03,-2.3562128981e+00,4.094094038e-06,1.173838973e-05,1.54125000e+02,8.00625000e+01,2.980232239e-08,2.980232239e-08,9.6283573130e-01,-2.085801168e-10,7.226579782e-01,-7.92497296e-09,780,451776.0,-8.847564459e-09,-2.7231080e-04,1.2278178e-11,0.0000000e+00,TRUE,1.458598630e-04,4.00000000e+00*ac20464a
#GPSEPHEM,98,GPS,FINE,2427,457580000,0,0,18,6;18,457530.0,0,224,224,2427,2427,460800.0,2.655985925e+07,4.070526697e-09,-1.944115577e-02,6.2770525692e-03,-2.8615127449e+00,2.905726433e-06,1.190975308e-05,1.52687500e+02,6.00000000e+01,3.725290298e-08,2.421438694e-08,9.7091984733e-01,-2.935836575e-10,6.998460821e-01,-7.87782814e-09,224,460800.0,-8.381903172e-09,-3.0233199e-04,9.0949470e-12,0.0000000e+00,TRUE,1.458620744e-04,4.00000000e+00*7df9be5d
#GPSEPHEM,98,GPS,FINE,2427,457580000,0,0,18,6;32,457560.0,0,9,9,2427,2427,460800.0,2.655931634e+07,4.320179953e-09,2.586632939e+00,9.4512887299e-03,-1.9712419518e+00,-5.267560482e-06,4.198402166e-06,3.00812500e+02,-1.02625000e+02,8.568167686e-08,-4.842877388e-08,9.6969421310e-01,-2.546534645e-10,2.765527363e+00,-8.09462289e-09,9,460800.0,9.313225746e-10,1.6815169e-04,2.0349944e-11,0.0000000e+00,TRUE,1.458667964e-04,4.00000000e+00*c515f7e1
#BESTPOSA,COM1,0,98.0,FINE,2427,457580.000,772730,51854,18;SOL_COMPUTED,SINGLE,34.36871692607,109.22193476106,501.8817,-33.6680,WGS84,8.6598,3.5194,6.9035,"",0.000,0.000,12,9,0,7,0,06,00,5b*9c32bc7b
#RANGEA,COM1,0,98.0,FINE,2427,457581.000,773725,2,18;26,18,0,20777446.436,0.053,-109186225.650648,0.006,-1980.273,46.3,764.014,08181c24,18,0,20777445.176,0.137,-85080156.885609,0.012,-1543.334,40.4,760.014,01301c2b,18,0,20777450.095,0.045,-81535171.640456,0.005,-1478.721,47.4,764.014,01d01c20,32,0,23835672.774,0.129,-125257301.804215,0.011,2296.301,37.2,618.000,08181c44,32,0,23835672.660,0.682,-97603112.987254,0.073,1788.946,32.3,54.000,01301c4b,32,0,23835672.013,0.157,-93536302.408913,0.015,1714.821,35.0,700.000,01d01c40,58,11,20465770.899,0.040,-109516469.312979,0.005,-2886.012,51.6,742.000,08191c44,58,11,20465756.869,0.040,-85179408.514018,0.005,-2244.651,49.8,742.000,00b91c4b,53,6,21564781.818,0.171,-115195192.598260,0.015,2235.994,40.4,84.000,08191d24,53,6,21564777.506,0.126,-89596210.403050,0.011,1738.846,37.5,721.000,00b91d2b,1,0,37763801.607,0.040,-196646020.547699,0.005,-18.800,49.5,769.014,0c1c1c24,1,0,37763784.878,0.040,-159790928.841470,0.005,-15.270,50.0,768.014,06a41c20,2,0,37488492.398,0.047,-195212410.023140,0.005,18.751,47.2,769.014,0c1c1c44,2,0,37488462.525,0.046,-158625951.900311,0.005,15.299,47.3,768.014,06a41c40,3,0,36764570.956,0.071,-191442760.420901,0.007,0.005,44.2,768.014,0c1c1c64,3,0,36764545.423,0.040,-155562820.330453,0.005,0.011,50.7,768.014,06a41c60,7,0,37047758.535,0.040,-192917392.304730,0.005,1329.248,48.6,768.014,081c1c84,7,0,37047740.138,0.041,-156761105.172962,0.005,1080.181,47.9,767.014,02a41c80,10,0,37992403.372,0.075,-197836413.511608,0.007,1415.995,43.7,768.014,081c1ca4,10,0,37992387.809,0.096,-152979599.879452,0.009,1094.938,40.9,767.014,023c1cab,10,0,37992385.672,0.071,-160758220.306716,0.007,1150.634,44.1,768.014,02a41ca0,11,0,24968789.042,0.094,-130019007.972778,0.008,-3045.234,41.3,768.014,081c1cc4,11,0,24968773.970,0.142,-105651027.514859,0.013,-2474.439,36.2,767.014,02a41cc0,4,0,38905209.099,0.265,-202589631.805732,0.024,-36.570,35.7,161.000,0c1c1ce4,4,0,38905187.638,0.092,-164620578.616731,0.008,-29.777,41.5,721.000,06a41ce0,7,0,24196863.712,0.428,-97430758.282263,0.045,845.969,27.0,765.014,02331c20*05ee73f8
#BESTPOSA,COM1,0,98.0,FINE,2427,457581.000,773725,52846,18;SOL_COMPUTED,SINGLE,34.36871537398,109.22193521633,501.8266,-33.6680,WGS84,8.6241,3.5095,6.8910,"",0.000,0.000,12,9,0,7,0,06,00,5b*63a3994a
#RANGEA,COM1,0,98.0,FINE,2427,457582.000,774730,2,18;26,18,0,20777823.229,0.052,-109188205.397940,0.006,-1980.094,46.5,765.014,08181c24,18,0,20777821.808,0.138,-85081699.570783,0.012,-1542.865,40.4,761.014,01301c2b,18,0,20777826.843,0.045,-81536650.023491,0.005,-1478.609,47.4,765.014,01d01c20,32,0,23835236.004,0.126,-125255004.737839,0.011,2296.926,37.5,619.000,08181c44,32,0,23835235.358,0.617,-97601323.078398,0.066,1789.549,32.6,55.000,01301c4b,32,0,23835234.877,0.157,-93534587.110171,0.015,1715.186,34.9,701.000,01d01c40,58,11,20466310.115,0.040,-109519354.878175,0.005,-2885.938,51.5,743.000,08191c44,58,11,20466296.148,0.040,-85181652.836464,0.005,-2244.607,49.6,743.000,00b91c4b,53,6,21564362.905,0.164,-115192956.516988,0.014,2235.785,40.2,85.000,08191d24,53,6,21564358.900,0.128,-89594471.186514,0.011,1738.973,37.3,722.000,00b91d2b,1,0,37763805.037,0.040,-196646038.553547,0.005,-18.040,49.5,770.014,0c1c1c24,1,0,37763788.377,0.040,-159790943.472980,0.005,-14.652,50.0,769.014,06a41c20,2,0,37488488.681,0.047,-195212390.510617,0.005,19.436,47.1,770.014,0c1c1c44,2,0,37488458.716,0.046,-158625936.040543,0.005,15.828,47.3,769.014,06a41c40,3,0,36764570.854,0.071,-191442759.662603,0.007,0.720,44.1,769.014,0c1c1c64,3,0,36764545.296,0.040,-155562819.710729,0.005,0.555,50.7,769.014,06a41c60,7,0,37047503.204,0.040,-192916062.316996,0.005,1329.844,48.6,769.014,081c1c84,7,0,37047484.696,0.041,-156760024.457663,0.005,1080.598,47.9,768.014,02a41c80,10,0,37992131.375,0.075,-197834996.818167,0.007,1416.606,43.6,769.014,081c1ca4,10,0,37992115.853,0.097,-152978504.402199,0.009,1095.482,40.9,768.014,023c1cab,10,0,37992113.639,0.071,-160757069.136067,0.007,1151.096,44.1,769.014,02a41ca0,11,0,24969373.769,0.093,-130022052.447410,0.008,-3044.563,41.3,769.014,081c1cc4,11,0,24969358.608,0.142,-105653501.382890,0.013,-2473.739,36.2,768.014,02a41cc0,4,0,38905215.977,0.299,-202589667.587414,0.027,-35.855,35.5,162.000,0c1c1ce4,4,0,38905194.532,0.092,-164620607.684471,0.008,-29.181,41.4,722.000,06a41ce0,7,0,24196653.710,0.557,-97429912.159902,0.059,846.431,26.9,766.014,02331c20*c271385d
#BESTPOSA,COM1,0,98.0,FINE,2427,457582.000,774730,53850,18;SOL_COMPUTED,SINGLE,34.36871349366,109.22193564595,501.7815,-33.6680,WGS84,8.5898,3.5001,6.8789,"",0.000,0.000,12,9,0,7,0,06,00,5b*2f548e1f
