#RANGEA,COM1,0,98.0,FINE,2427,456932.000,124730,2,18;32,18,0,20555670.525,0.040,-108020782.159789,0.005,-1631.005,50.8,115.014,08181c24,18,0,20555668.179,0.069,-84172020.137318,0.007,-1270.740,46.0,111.014,01301c2b,18,0,20555672.070,0.040,-80664874.092758,0.005,-1217.966,51.2,115.014,01d01c20,32,0,24125168.031,0.277,-126778632.267087,0.028,2368.199,31.5,119.014,08181c44,32,0,24125170.133,2.311,-98788533.788098,0.150,1849.534,26.4,3.000,01301c4b,32,0,24125172.103,0.199,-94672352.204317,0.020,1767.705,31.4,51.000,01d01c40,5,0,24473146.640,0.130,-128607252.581405,0.011,-2849.905,37.1,13.000,08181d24,5,0,24473146.384,0.830,-100213441.025811,0.090,-2220.957,30.3,9.000,01301d2b,57,9,22415633.643,0.127,-119866477.447955,0.011,-4412.644,37.4,93.000,08191c24,57,9,22415626.137,0.114,-93229434.137435,0.010,-3432.050,38.8,65.000,00b91c2b,58,11,20141970.420,0.040,-107783756.863112,0.005,-2468.489,52.4,93.000,08191c44,58,11,20141955.872,0.040,-83831744.798812,0.005,-1919.925,48.4,93.000,00b91c4b,53,6,21858698.667,0.085,-116765234.011748,0.008,2567.619,42.4,73.000,08191d24,53,6,21858690.957,0.106,-90817353.817316,0.009,1997.046,39.7,72.000,00b91d2b,1,0,37760226.664,0.040,-196627405.546467,0.005,-62.617,49.7,120.014,0c1c1c24,1,0,37760209.823,0.040,-159775802.977695,0.005,-50.839,49.6,119.014,06a41c20,2,0,37489797.410,0.046,-195219209.356116,0.005,-21.743,47.3,120.014,0c1c1c44,2,0,37489768.005,0.051,-158631477.177389,0.006,-17.699,46.7,119.014,06a41c40,3,0,36763509.940,0.071,-191437242.397194,0.007,-41.070,44.1,119.014,0c1c1c64,3,0,36763485.579,0.040,-155558336.728346,0.005,-33.308,49.9,119.014,06a41c60,7,0,37217388.225,0.049,-193800685.042363,0.006,1367.924,46.9,119.014,081c1c84,7,0,37217368.712,0.056,-157478852.558613,0.006,1111.548,46.0,118.014,02a41c80,10,0,38171474.522,0.064,-198768890.131027,0.007,1432.483,45.0,119.014,081c1ca4,10,0,38171459.802,0.087,-153700649.555196,0.008,1107.693,42.2,118.014,023c1cab,10,0,38171458.602,0.061,-161515933.640587,0.006,1164.067,45.4,119.014,02a41ca0,11,0,24591196.756,0.048,-128052804.684078,0.005,-3031.666,47.1,119.014,081c1cc4,11,0,24591181.604,0.062,-104053330.206498,0.006,-2463.427,45.3,118.014,02a41cc0,4,0,38899587.889,0.225,-202560362.537552,0.021,-77.667,35.5,51.000,0c1c1ce4,4,0,38899566.724,0.096,-164596796.831035,0.009,-63.081,41.0,72.000,06a41ce0,7,0,24341990.780,0.126,-127918038.661740,0.011,1223.290,37.5,116.014,083b1c24,7,0,24341992.092,0.140,-95523206.464838,0.013,913.459,36.3,116.014,01931c2b,7,0,24341990.649,0.133,-98015102.972564,0.012,937.291,36.9,116.014,02331c20*37c1cb23
#BESTPOSA,COM1,0,98.0,FINE,2427,456932.000,124730,59211,18;SOL_COMPUTED,SINGLE,34.36882473273,109.22179459093,489.0480,-33.6694,WGS84,14.4702,5.4363,8.6049,"",0.000,0.000,14,10,0,8,0,06,03,5b*e90cec23
#RANGEA,COM1,0,98.0,FINE,2427,456933.000,125730,2,18;31,18,0,20555980.998,0.040,-108022413.395299,0.005,-1632.063,50.8,116.014,08181c24,18,0,20555978.503,0.069,-84173291.226268,0.007,-1271.582,46.0,112.014,01301c2b,18,0,20555982.499,0.040,-80666092.223928,0.005,-1218.748,51.2,116.014,01d01c20,32,0,24124717.627,0.240,-126776264.798700,0.024,2366.716,31.3,120.014,08181c44,32,0,24124721.565,0.200,-94670584.182242,0.020,1767.594,31.4,52.000,01d01c40,5,0,24473689.397,0.129,-128610102.535757,0.011,-2850.501,37.2,14.000,08181d24,5,0,24473689.654,0.870,-100215661.706629,0.094,-2221.277,30.7,10.000,01301d2b,57,9,22416458.885,0.126,-119870890.158659,0.011,-4413.396,37.5,94.000,08191c24,57,9,22416451.212,0.114,-93232866.244780,0.010,-3432.572,38.8,66.000,00b91c2b,58,11,20142431.777,0.040,-107786225.661533,0.005,-2469.681,52.4,94.000,08191c44,58,11,20142417.289,0.040,-83833664.964642,0.005,-1920.819,48.5,94.000,00b91c4b,53,6,21858218.113,0.085,-116762666.625486,0.008,2566.635,42.4,74.000,08191d24,53,6,21858210.088,0.107,-90815356.974783,0.009,1996.219,39.6,73.000,00b91d2b,1,0,37760238.679,0.040,-196627468.031238,0.005,-63.034,49.8,121.014,0c1c1c24,1,0,37760221.839,0.040,-159775853.755533,0.005,-51.182,49.6,120.014,06a41c20,2,0,37489801.541,0.045,-195219231.073824,0.005,-22.243,47.4,121.014,0c1c1c44,2,0,37489772.177,0.051,-158631494.816866,0.006,-18.042,46.7,120.014,06a41c40,3,0,36763517.801,0.071,-191437283.287440,0.007,-41.428,44.1,120.014,0c1c1c64,3,0,36763493.440,0.040,-155558369.971258,0.005,-33.666,49.9,120.014,06a41c60,7,0,37217125.579,0.048,-193799317.145017,0.006,1367.335,46.9,120.014,081c1c84,7,0,37217106.067,0.056,-157477741.035990,0.006,1111.071,46.0,119.014,02a41c80,10,0,38171199.311,0.064,-198767457.587324,0.007,1431.992,45.0,120.014,081c1ca4,10,0,38171184.683,0.086,-153699541.818184,0.008,1107.276,42.2,119.014,023c1cab,10,0,38171183.477,0.061,-161514769.595812,0.006,1163.613,45.4,120.014,02a41ca0,11,0,24591778.924,0.047,-128055836.274167,0.005,-3032.143,47.1,120.014,081c1cc4,11,0,24591763.799,0.062,-104055793.624706,0.006,-2463.866,45.3,119.014,02a41cc0,4,0,38899602.892,0.250,-202560440.068353,0.023,-78.003,35.8,52.000,0c1c1ce4,4,0,38899581.675,0.096,-164596859.830700,0.009,-63.431,41.0,73.000,06a41ce0,7,0,24341757.746,0.128,-127916815.450523,0.011,1222.590,37.3,117.014,083b1c24,7,0,24341759.414,0.139,-95522293.017335,0.012,913.012,36.4,117.014,01931c2b,7,0,24341757.955,0.132,-98014165.701047,0.011,936.784,37.0,117.014,02331c20*336e3841
#BESTPOSA,COM1,0,98.0,FINE,2427,456933.000,125730,60211,18;SOL_COMPUTED,SINGLE,34.36880283933,109.22180628798,491.6336,-33.6692,WGS84,8.8151,3.1138,4.9896,"",0.000,0.000,14,11,0,7,0,06,03,59*aabcdd38
#RANGEA,COM1,0,98.0,FINE,2427,456934.000,126730,2,18;31,18,0,20556291.658,0.040,-108024045.712663,0.005,-1633.039,50.8,117.014,08181c24,18,0,20556289.135,0.070,-84174563.159183,0.007,-1272.498,45.9,113.014,01301c2b,18,0,20556293.124,0.040,-80667311.159037,0.005,-1219.478,51.3,117.014,01d01c20,32,0,24124267.159,0.320,-126773897.832814,0.032,2366.224,31.3,121.014,08181c44,32,0,24124271.132,0.217,-94668816.672498,0.022,1767.065,31.5,53.000,01d01c40,5,0,24474232.090,0.126,-128612953.127014,0.011,-2851.097,37.5,15.000,08181d24,5,0,24474231.763,1.113,-100217883.033249,0.121,-2221.054,30.7,11.000,01301d2b,57,9,22417284.202,0.126,-119875303.507133,0.011,-4413.955,37.5,95.000,08191c24,57,9,22417276.316,0.114,-93236298.824267,0.010,-3432.997,38.8,67.000,00b91c2b,58,11,20142893.390,0.040,-107788695.629193,0.005,-2470.769,52.5,95.000,08191c44,58,11,20142878.920,0.040,-83835586.054269,0.005,-1921.706,48.5,95.000,00b91c4b,53,6,21857737.748,0.084,-116760100.236618,0.008,2565.697,42.6,75.000,08191d24,53,6,21857729.605,0.107,-90813360.893386,0.009,1995.541,39.7,74.000,00b91d2b,1,0,37760250.802,0.040,-196627530.954774,0.005,-63.340,49.7,122.014,0c1c1c24,1,0,37760233.943,0.040,-159775904.889478,0.005,-51.488,49.5,121.014,06a41c20,2,0,37489805.842,0.046,-195219253.248548,0.005,-22.623,47.2,122.014,0c1c1c44,2,0,37489776.460,0.051,-158631512.841776,0.006,-18.415,46.6,121.014,06a41c40,3,0,36763525.800,0.072,-191437324.654010,0.007,-41.718,44.0,121.014,0c1c1c64,3,0,36763501.348,0.040,-155558403.581803,0.005,-33.949,49.9,121.014,06a41c60,7,0,37216863.039,0.050,-193797949.823425,0.006,1366.836,46.8,121.014,081c1c84,7,0,37216843.482,0.057,-157476629.968121,0.006,1110.706,45.9,120.014,02a41c80,10,0,38170924.248,0.066,-198766025.584665,0.007,1431.597,44.8,121.014,081c1ca4,10,0,38170909.749,0.086,-153698434.508277,0.008,1106.926,42.3,120.014,023c1cab,10,0,38170908.511,0.061,-161513605.983916,0.006,1163.218,45.3,121.014,02a41ca0,11,0,24592361.220,0.048,-128058868.440689,0.006,-3032.605,47.0,121.014,081c1cc4,11,0,24592346.030,0.062,-104058257.506303,0.006,-2464.239,45.2,120.014,02a41cc0,4,0,38899617.898,0.229,-202560518.067140,0.021,-78.450,35.3,53.000,0c1c1ce4,4,0,38899596.599,0.097,-164596923.225470,0.009,-63.751,40.8,74.000,06a41ce0,7,0,24341524.716,0.130,-127915592.935890,0.011,1221.919,37.2,118.014,083b1c24,7,0,24341526.892,0.139,-95521380.111314,0.012,912.528,36.4,118.014,01931c2b,7,0,24341525.414,0.132,-98013229.000241,0.011,936.241,37.0,118.014,02331c20*6d05709a
#BESTPOSA,COM1,0,98.0,FINE,2427,456934.000,126730,61211,18;SOL_COMPUTED,SINGLE,34.36879952357,109.22180847824,492.0924,-33.6692,WGS84,10.0598,3.6350,5.8066,"",0.000,0.000,14,11,0,9,0,06,03,5d*7500a523
#RANGEA,COM1,0,98.0,FINE,2427,456935.000,127730,2,18;31,18,0,20556602.552,0.040,-108025679.201430,0.005,-1634.402,50.9,118.014,08181c24,18,0,20556599.991,0.069,-84175836.009547,0.007,-1273.482,46.0,114.014,01301c2b,18,0,20556603.967,0.040,-80668530.968815,0.005,-1220.492,51.3,118.014,01d01c20,32,0,24123817.194,0.298,-126771531.620483,0.030,2365.174,31.4,122.014,08181c44,32,0,24123821.009,0.198,-94667049.673626,0.020,1766.484,31.5,54.000,01d01c40,5,0,24474774.733,0.124,-128615804.429384,0.011,-2851.976,37.7,16.000,08181d24,5,0,24474774.089,1.008,-100220104.731682,0.109,-2222.343,30.4,12.000,01301d2b,57,9,22418109.458,0.126,-119879717.554508,0.011,-4414.745,37.5,96.000,08191c24,57,9,22418101.692,0.113,-93239731.948094,0.010,-3433.622,38.9,68.000,00b91c2b,58,11,20143355.228,0.040,-107791166.870827,0.005,-2472.207,52.5,96.000,08191c44,58,11,20143340.657,0.040,-83837508.133072,0.005,-1922.823,48.6,96.000,00b91c4b,53,6,21857257.613,0.084,-116757534.903296,0.008,2564.400,42.5,76.000,08191d24,53,6,21857249.424,0.106,-90811365.620683,0.009,1994.610,39.7,75.000,00b91d2b,1,0,37760262.997,0.040,-196627594.423901,0.005,-64.048,49.7,123.014,0c1c1c24,1,0,37760246.139,0.040,-159775956.465511,0.005,-52.091,49.5,122.014,06a41c20,2,0,37489810.215,0.046,-195219275.961375,0.005,-23.308,47.3,123.014,0c1c1c44,2,0,37489780.855,0.051,-158631531.291832,0.006,-18.876,46.6,122.014,06a41c40,3,0,36763533.887,0.072,-191437366.574068,0.007,-42.553,44.0,122.014,0c1c1c64,3,0,36763509.383,0.040,-155558437.635687,0.005,-34.515,49.9,122.014,06a41c60,7,0,37216600.576,0.050,-193796583.161306,0.006,1365.994,46.8,122.014,081c1c84,7,0,37216581.054,0.056,-157475519.441362,0.006,1109.976,46.0,121.014,02a41c80,10,0,38170649.339,0.066,-198764594.212845,0.007,1430.814,44.8,122.014,081c1ca4,10,0,38170634.779,0.085,-153697327.684929,0.008,1106.300,42.4,121.014,023c1cab,10,0,38170633.644,0.061,-161512442.880875,0.006,1162.562,45.3,122.014,02a41ca0,11,0,24592943.647,0.048,-128061901.257553,0.005,-3033.454,47.0,122.014,081c1cc4,11,0,24592928.454,0.062,-104060721.917878,0.006,-2464.917,45.3,121.014,02a41cc0,4,0,38899633.189,0.241,-202560596.599404,0.022,-79.165,35.4,54.000,0c1c1ce4,4,0,38899611.607,0.097,-164596987.014287,0.009,-64.213,40.8,75.000,06a41ce0,7,0,24341291.960,0.129,-127914371.229667,0.011,1221.025,37.3,119.014,083b1c24,7,0,24341294.559,0.138,-95520467.783354,0.012,911.880,36.5,119.014,01931c2b,7,0,24341293.023,0.131,-98012292.861850,0.011,935.659,37.1,119.014,02331c20*e0cad918
#BESTPOSA,COM1,0,98.0,FINE,2427,456935.000,127730,62211,18;SOL_COMPUTED,SINGLE,34.36879645709,109.22181043487,492.5212,-33.6692,WGS84,10.0103,3.6213,5.7716,"",0.000,0.000,14,11,0,9,0,06,03,5d*c8e8270d
#RANGEA,COM1,0,98.0,FINE,2427,456936.000,128730,2,18;31,18,0,20556913.601,0.040,-108027313.709719,0.005,-1635.356,50.7,119.014,08181c24,18,0,20556911.062,0.067,-84177109.649822,0.007,-1274.085,46.1,115.014,01301c2b,18,0,20556915.009,0.040,-80669751.543977,0.005,-1221.229,51.2,119.014,01d01c20,32,0,24123366.957,0.201,-126769165.875087,0.020,2365.360,31.2,123.014,08181c44,32,0,24123370.860,0.199,-94665283.119468,0.020,1766.193,31.4,55.000,01d01c40,5,0,24475317.630,0.127,-128618656.275662,0.011,-2852.475,37.4,17.000,08181d24,5,0,24475317.644,0.978,-100222326.900619,0.106,-2221.635,30.4,13.000,01301d2b,57,9,22418935.065,0.127,-119884132.149352,0.011,-4415.400,37.4,97.000,08191c24,57,9,22418927.196,0.112,-93243165.509010,0.010,-3434.077,39.0,69.000,00b91c2b,58,11,20143817.303,0.040,-107793639.279111,0.005,-2473.347,52.4,97.000,08191c44,58,11,20143802.634,0.040,-83839431.114569,0.005,-1923.688,48.6,97.000,00b91c4b,53,6,21856777.585,0.087,-116754970.481680,0.008,2563.640,42.2,77.000,08191d24,53,6,21856769.168,0.107,-90809371.090012,0.009,1993.850,39.7,76.000,00b91d2b,1,0,37760275.253,0.040,-196627658.291783,0.005,-64.428,49.7,124.014,0c1c1c24,1,0,37760258.389,0.040,-159776008.360564,0.005,-52.382,49.5,123.014,06a41c20,2,0,37489814.669,0.046,-195219299.073143,0.005,-23.681,47.3,124.014,0c1c1c44,2,0,37489785.248,0.052,-158631550.073538,0.006,-19.219,46.6,123.014,06a41c40,3,0,36763542.023,0.071,-191437408.888769,0.007,-42.888,44.1,123.014,0c1c1c64,3,0,36763517.492,0.040,-155558472.012644,0.005,-34.836,49.8,123.014,06a41c60,7,0,37216338.147,0.049,-193795217.000768,0.006,1365.570,46.8,123.014,081c1c84,7,0,37216318.688,0.056,-157474409.330908,0.006,1109.641,45.9,122.014,02a41c80,10,0,38170374.465,0.066,-198763163.323786,0.007,1430.323,44.8,123.014,081c1ca4,10,0,38170360.035,0.085,-153696221.230925,0.008,1105.942,42.3,122.014,023c1cab,10,0,38170358.886,0.062,-161511280.149004,0.006,1162.286,45.3,123.014,02a41ca0,11,0,24593526.124,0.048,-128064934.595511,0.005,-3033.953,47.0,123.014,081c1cc4,11,0,24593510.972,0.062,-104063186.745475,0.006,-2465.334,45.2,122.014,02a41cc0,4,0,38899648.333,0.224,-202560675.510380,0.021,-79.329,35.5,55.000,0c1c1ce4,4,0,38899626.819,0.098,-164597051.166483,0.009,-64.541,40.8,76.000,06a41ce0,7,0,24341059.369,0.131,-127913150.195289,0.011,1220.340,37.1,120.014,083b1c24,7,0,24341062.172,0.138,-95519555.980243,0.012,911.291,36.5,120.014,01931c2b,7,0,24341060.723,0.129,-98011357.270081,0.011,935.056,37.3,120.014,02331c20*5b0365b8
#BESTPOSA,COM1,0,98.0,FINE,2427,456936.000,128730,63211,18;SOL_COMPUTED,SINGLE,34.36879404809,109.22181216808,492.8700,-33.6692,WGS84,10.0017,3.6194,5.7676,"",0.000,0.000,14,11,0,9,0,06,03,5d*9eb184a5
#RANGEA,COM1,0,98.0,FINE,2427,456937.000,129730,2,18;31,18,0,20557224.902,0.040,-108028949.422045,0.005,-1636.585,50.8,120.014,08181c24,18,0,20557222.249,0.065,-84178384.226300,0.007,-1275.292,46.3,116.014,01301c2b,18,0,20557226.310,0.040,-80670973.015324,0.005,-1222.146,51.2,120.014,01d01c20,32,0,24122916.415,0.633,-126766801.037810,0.063,2364.652,31.5,124.014,08181c44,32,0,24122920.619,0.199,-94663517.147833,0.020,1765.470,31.4,56.000,01d01c40,5,0,24475860.613,0.123,-128621508.868383,0.010,-2853.191,37.7,18.000,08181d24,5,0,24475860.950,0.843,-100224549.795333,0.092,-2222.991,30.0,14.000,01301d2b,57,9,22419760.881,0.128,-119888547.477519,0.011,-4415.952,37.3,98.000,08191c24,57,9,22419752.708,0.112,-93246599.674502,0.010,-3434.680,39.0,70.000,00b91c2b,58,11,20144279.693,0.040,-107796113.056420,0.005,-2474.777,52.3,98.000,08191c44,58,11,20144264.908,0.040,-83841355.170029,0.005,-1924.805,48.5,98.000,00b91c4b,53,6,21856297.819,0.088,-116752407.209077,0.008,2562.493,41.9,78.000,08191d24,53,6,21856289.235,0.108,-90807377.433899,0.009,1992.986,39.6,77.000,00b91d2b,1,0,37760287.631,0.040,-196627722.728219,0.005,-65.046,49.7,125.014,0c1c1c24,1,0,37760270.720,0.040,-159776060.715153,0.005,-52.777,49.5,124.014,06a41c20,2,0,37489819.175,0.046,-195219322.761880,0.005,-24.291,47.3,125.014,0c1c1c44,2,0,37489789.838,0.052,-158631569.322285,0.006,-19.718,46.5,124.014,06a41c40,3,0,36763550.241,0.071,-191437451.765408,0.007,-43.521,44.1,124.014,0c1c1c64,3,0,36763525.740,0.040,-155558506.855545,0.005,-35.312,49.8,124.014,06a41c60,7,0,37216075.880,0.049,-193793851.543211,0.006,1364.869,46.8,124.014,081c1c84,7,0,37216056.504,0.056,-157473299.782399,0.006,1109.037,46.0,123.014,02a41c80,10,0,38170099.671,0.066,-198761733.093173,0.007,1429.578,44.7,124.014,081c1ca4,10,0,38170085.388,0.085,-153695115.274323,0.008,1105.443,42.3,123.014,023c1cab,10,0,38170084.214,0.062,-161510117.967526,0.006,1161.698,45.3,124.014,02a41ca0,11,0,24594108.761,0.048,-128067968.610690,0.006,-3034.661,47.0,124.014,081c1cc4,11,0,24594093.638,0.062,-104065652.126371,0.006,-2465.915,45.2,123.014,02a41cc0,4,0,38899663.914,0.255,-202560755.032722,0.023,-80.081,35.5,56.000,0c1c1ce4,4,0,38899642.254,0.098,-164597115.778946,0.009,-65.137,40.8,77.000,06a41ce0,7,0,24340826.914,0.132,-127911929.956946,0.011,1219.505,37.0,121.014,083b1c24,7,0,24340830.077,0.138,-95518644.782949,0.012,910.687,36.5,121.014,01931c2b,7,0,24340828.587,0.130,-98010422.312476,0.011,934.370,37.2,121.014,02331c20*98610077
#BESTPOSA,COM1,0,98.0,FINE,2427,456937.000,129730,64211,18;SOL_COMPUTED,SINGLE,34.36879207458,109.22181363578,493.1679,-33.6691,WGS84,10.0065,3.6181,5.7780,"",0.000,0.000,14,11,0,9,0,06,03,5d*54842385
#RANGEA,COM1,0,98.0,FINE,2427,456938.000,130730,2,18;31,18,0,20557536.345,0.040,-108030586.004032,0.005,-1636.958,50.9,121.014,08181c24,18,0,20557533.717,0.065,-84179659.487926,0.007,-1275.568,46.4,117.014,01301c2b,18,0,20557537.747,0.040,-80672195.137024,0.005,-1222.376,51.3,121.014,01d01c20,32,0,24122466.629,0.334,-126764436.562135,0.033,2364.354,31.6,125.014,08181c44,32,0,24122470.562,0.198,-94661751.460453,0.020,1765.485,31.5,57.000,01d01c40,5,0,24476403.745,0.119,-128624361.881556,0.010,-2853.161,38.2,19.000,08181d24,5,0,24476404.433,1.001,-100226772.849160,0.109,-2223.311,30.0,15.000,01301d2b,57,9,22420586.700,0.129,-119892963.250077,0.011,-4415.885,37.3,99.000,08191c24,57,9,22420578.364,0.111,-93250034.142339,0.009,-3434.636,39.1,71.000,00b91c2b,58,11,20144742.238,0.040,-107798587.862244,0.005,-2475.217,52.3,99.000,08191c44,58,11,20144727.475,0.040,-83843280.011918,0.005,-1925.178,48.6,99.000,00b91c4b,53,6,21855818.167,0.089,-116749844.766468,0.008,2562.150,41.9,79.000,08191d24,53,6,21855809.449,0.107,-90805384.410816,0.009,1992.747,39.6,78.000,00b91d2b,1,0,37760299.977,0.040,-196627787.409942,0.005,-64.681,49.8,126.014,0c1c1c24,1,0,37760283.126,0.040,-159776113.278209,0.005,-52.598,49.6,125.014,06a41c20,2,0,37489823.739,0.045,-195219346.697578,0.005,-23.979,47.3,126.014,0c1c1c44,2,0,37489794.359,0.051,-158631588.780213,0.006,-19.495,46.6,125.014,06a41c40,3,0,36763558.643,0.070,-191437494.859767,0.007,-43.082,44.2,125.014,0c1c1c64,3,0,36763534.016,0.040,-155558541.902889,0.005,-35.096,49.9,125.014,06a41c60,7,0,37215813.691,0.049,-193792486.456264,0.006,1364.981,46.9,125.014,081c1c84,7,0,37215794.320,0.055,-157472190.540280,0.006,1109.179,46.1,124.014,02a41c80,10,0,38169824.994,0.066,-198760303.189583,0.007,1429.831,44.7,125.014,081c1ca4,10,0,38169810.638,0.085,-153694009.584767,0.008,1105.607,42.3,124.014,023c1cab,10,0,38169809.637,0.061,-161508956.056877,0.006,1161.839,45.3,125.014,02a41ca0,11,0,24594691.381,0.048,-128071002.989662,0.005,-3034.482,47.0,125.014,081c1cc4,11,0,24594676.386,0.062,-104068117.801844,0.006,-2465.796,45.3,124.014,02a41cc0,4,0,38899679.243,0.269,-202560834.795762,0.025,-79.791,35.5,57.000,0c1c1ce4,4,0,38899657.491,0.097,-164597180.562012,0.009,-64.757,40.9,78.000,06a41ce0,7,0,24340594.745,0.130,-127910710.224878,0.011,1219.625,37.2,122.014,083b1c24,7,0,24340598.190,0.138,-95517733.961850,0.012,910.620,36.5,122.014,01931c2b,7,0,24340596.585,0.130,-98009487.719529,0.011,934.438,37.2,122.014,02331c20*5181446e
#BESTPOSA,COM1,0,98.0,FINE,2427,456938.000,130730,65211,18;SOL_COMPUTED,SINGLE,34.36879008981,109.22181494927,493.4472,-33.6691,WGS84,9.9849,3.6158,5.7598,"",0.000,0.000,14,11,0,9,0,06,03,5d*75e005d5
#RANGEA,COM1,0,98.0,FINE,2427,456939.000,131730,2,18;31,18,0,20557847.979,0.040,-108032223.357631,0.005,-1638.061,50.9,122.014,08181c24,18,0,20557845.290,0.066,-84180935.350374,0.007,-1276.238,46.2,118.014,01301c2b,18,0,20557849.311,0.040,-80673417.827458,0.005,-1223.203,51.3,122.014,01d01c20,32,0,24122016.793,0.276,-126762072.390663,0.028,2363.736,31.5,126.014,08181c44,32,0,24122020.486,0.199,-94659986.024545,0.020,1765.075,31.4,58.000,01d01c40,5,0,24476946.871,0.121,-128627215.192126,0.010,-2853.824,37.9,20.000,08181d24,5,0,24476946.612,1.160,-100228996.203321,0.126,-2223.788,30.4,16.000,01301d2b,57,9,22421412.605,0.126,-119897379.304936,0.011,-4416.637,37.5,100.000,08191c24,57,9,22421403.948,0.111,-93253468.839208,0.009,-3435.090,39.1,72.000,00b91c2b,58,11,20145204.938,0.040,-107801063.582348,0.005,-2476.484,52.3,100.000,08191c44,58,11,20145190.168,0.040,-83845205.568838,0.005,-1926.139,48.6,100.000,00b91c4b,53,6,21855338.711,0.087,-116747282.990665,0.008,2561.145,42.1,80.000,08191d24,53,6,21855329.621,0.108,-90803391.932460,0.009,1991.898,39.5,79.000,00b91d2b,1,0,37760312.425,0.040,-196627852.230366,0.005,-65.210,49.8,127.014,0c1c1c24,1,0,37760295.605,0.040,-159776165.955080,0.005,-53.045,49.6,126.014,06a41c20,2,0,37489828.403,0.045,-195219370.781796,0.005,-24.508,47.4,127.014,0c1c1c44,2,0,37489799.004,0.050,-158631608.348299,0.006,-19.920,46.8,126.014,06a41c40,3,0,36763566.991,0.070,-191437538.163614,0.007,-43.708,44.2,126.014,0c1c1c64,3,0,36763542.365,0.040,-155558577.059333,0.005,-35.491,50.0,126.014,06a41c60,7,0,37215551.564,0.049,-193791121.631601,0.006,1364.355,46.9,126.014,081c1c84,7,0,37215532.217,0.054,-157471081.509035,0.006,1108.635,46.2,125.014,02a41c80,10,0,38169550.398,0.066,-198758873.514504,0.007,1429.294,44.7,126.014,081c1ca4,10,0,38169536.113,0.085,-153692904.065793,0.008,1105.190,42.3,125.014,023c1cab,10,0,38169535.133,0.061,-161507794.334522,0.006,1161.363,45.4,126.014,02a41ca0,11,0,24595274.036,0.048,-128074037.635346,0.006,-3035.108,47.0,126.014,081c1cc4,11,0,24595259.153,0.061,-104070583.682954,0.006,-2466.213,45.4,125.014,02a41cc0,4,0,38899694.631,0.237,-202560914.691512,0.022,-80.320,35.7,58.000,0c1c1ce4,4,0,38899672.869,0.096,-164597245.491602,0.009,-65.212,41.0,79.000,06a41ce0,7,0,24340362.788,0.132,-127909490.927569,0.011,1218.760,37.0,123.014,083b1c24,7,0,24340366.146,0.139,-95516823.420129,0.012,910.196,36.5,123.014,01931c2b,7,0,24340364.667,0.129,-98008553.434235,0.011,933.819,37.3,123.014,02331c20*5bcea092
#BESTPOSA,COM1,0,98.0,FINE,2427,456939.000,131730,675,18;SOL_COMPUTED,SINGLE,34.36878828507,109.22181617786,493.6942,-33.6691,WGS84,9.9902,3.6147,5.7705,"",0.000,0.000,14,11,0,9,0,06,03,5d*c6429e53
#RANGEA,COM1,0,98.0,FINE,2427,456940.000,132730,2,18;31,18,0,20558159.813,0.040,-108033861.881120,0.005,-1639.178,50.8,123.014,08181c24,18,0,20558157.120,0.068,-84182212.115854,0.007,-1277.371,46.0,119.014,01301c2b,18,0,20558161.123,0.040,-80674641.405225,0.005,-1224.053,51.1,123.014,01d01c20,32,0,24121567.503,0.197,-126759708.944130,0.020,2363.103,31.6,127.014,08181c44,32,0,24121570.578,0.200,-94658221.096919,0.020,1764.785,31.3,59.000,01d01c40,5,0,24477490.028,0.121,-128630069.190281,0.010,-2854.360,37.9,21.000,08181d24,5,0,24477489.881,1.239,-100231220.209900,0.135,-2223.907,30.1,0.000,0130112b,57,9,22422238.737,0.123,-119901796.072258,0.010,-4417.181,37.8,101.000,08191c24,57,9,22422229.754,0.112,-93256904.084327,0.009,-3435.560,39.1,73.000,00b91c2b,58,11,20145667.861,0.040,-107803540.587398,0.005,-2477.720,52.3,101.000,08191c44,58,11,20145653.028,0.040,-83847132.128886,0.005,-1927.115,48.5,101.000,00b91c4b,53,6,21854859.498,0.087,-116744722.325460,0.008,2560.012,42.1,81.000,08191d24,53,6,21854850.258,0.109,-90801400.286126,0.009,1991.183,39.4,80.000,00b91d2b,1,0,37760325.003,0.040,-196627917.592730,0.005,-65.665,49.9,128.014,0c1c1c24,1,0,37760308.174,0.040,-159776219.061344,0.005,-53.373,49.6,127.014,06a41c20,2,0,37489833.137,0.045,-195219395.404262,0.005,-24.969,47.4,128.014,0c1c1c44,2,0,37489803.750,0.050,-158631628.357761,0.006,-20.285,46.7,127.014,06a41c40,3,0,36763575.289,0.069,-191437581.986499,0.007,-44.185,44.4,127.014,0c1c1c64,3,0,36763550.784,0.040,-155558612.672907,0.005,-35.909,50.0,127.014,06a41c60,7,0,37215289.524,0.049,-193789757.467353,0.006,1363.804,46.9,127.014,081c1c84,7,0,37215270.229,0.054,-157469973.008651,0.006,1108.203,46.2,126.014,02a41c80,10,0,38169275.884,0.067,-198757444.471624,0.007,1428.639,44.7,127.014,081c1ca4,10,0,38169261.613,0.086,-153691799.045858,0.008,1104.713,42.3,126.014,023c1cab,10,0,38169260.688,0.061,-161506633.116702,0.006,1160.863,45.4,127.014,02a41ca0,11,0,24595856.895,0.048,-128077072.935601,0.005,-3035.734,47.0,127.014,081c1cc4,11,0,24595842.035,0.061,-104073050.110340,0.006,-2466.705,45.4,126.014,02a41cc0,4,0,38899709.955,0.232,-202560995.140810,0.021,-80.812,35.9,59.000,0c1c1ce4,4,0,38899688.271,0.096,-164597310.864561,0.009,-65.636,41.0,80.000,06a41ce0,7,0,24340130.937,0.131,-127908272.404149,0.011,1218.097,37.1,124.014,083b1c24,7,0,24340134.482,0.136,-95515913.488853,0.012,909.585,36.6,124.014,01931c2b,7,0,24340132.778,0.129,-98007619.766672,0.011,933.305,37.3,124.014,02331c20*b9bfb8da
#BD2EPHEMA,COM1,0,98.0,FINE,2427,456940.000,132730,3,18;1,456900.0,0,1,1,2427,2427,453600.0,4.216465955e+07,8.507854386e-09,-1.156369886e-02,4.9317895900e-04,-7.5279517317e-01,2.513639629e-05,-1.796474680e-05,5.56546875e+02,7.75312500e+02,-5.867332220e-08,-1.490116119e-07,8.1505679107e-02,2.946551307e-10,-1.412710144e+00,-7.61067416e-09,1,453600.0,4.500000000e-09,4.500000000e-09,-8.96631e-07,-6.92779e-14,0.00000e+00,TRUE,7.292839549e-05,4.00000000e+00*3dbf0fbe
#BD2EPHEMA,COM1,0,98.0,FINE,2427,456940.000,132730,4,18;2,456900.0,0,1,1,2427,2427,453600.0,4.216459326e+07,6.854214077e-09,-4.037993003e-02,1.9970780704e-04,-1.2413934650e+00,2.421997488e-05,1.732818782e-05,-5.38093750e+02,7.40234375e+02,6.379559636e-08,2.747401595e-08,4.4621495693e-02,2.757257708e-10,-1.944550236e+00,-6.09025368e-09,1,453600.0,4.730000000e-08,4.730000000e-08,1.11060e-07,-4.26326e-14,0.00000e+00,TRUE,7.292691381e-05,4.00000000e+00*2fa679b0
#BD2EPHEMA,COM1,0,98.0,FINE,2427,456940.000,132730,4,18;3,456900.0,0,1,1,2427,2427,453600.0,4.216339629e+07,6.320263264e-09,2.047928039e+00,2.2393709514e-04,-2.7599568006e+00,2.708006650e-05,1.901201904e-05,-5.90968750e+02,8.39281250e+02,2.654269338e-08,2.793967724e-09,6.2168232528e-02,3.439428980e-10,-1.982703065e+00,-5.32879339e-09,1,453600.0,3.530000000e-08,3.530000000e-08,-1.95461e-07,-1.33227e-14,0.00000e+00,TRUE,7.292948506e-05,4.00000000e+00*53fa5d6a
#BD2EPHEMA,COM1,0,98.0,FINE,2427,456940.000,132730,4,18;4,456900.0,0,1,1,2427,2427,453600.0,4.216467255e+07,4.160530446e-09,1.573949198e+00,8.0926390365e-04,-1.3185829638e+00,2.537062392e-05,1.915823668e-05,-5.86890625e+02,7.86546875e+02,1.764856279e-07,1.229345798e-07,8.5887077793e-02,3.596578383e-10,-2.087371634e+00,-3.39514142e-09,1,453600.0,4.170000000e-08,4.170000000e-08,-6.47036e-07,-5.06262e-14,0.00000e+00,TRUE,7.292401444e-05,4.00000000e+00*1b74060c
#BD2EPHEMA,COM1,0,98.0,FINE,2427,456940.000,132730,4,18;7,456900.0,0,1,1,2427,2427,453600.0,4.216887861e+07,7.982475359e-10,2.281110354e+00,3.8399707992e-03,-2.5432700199e+00,-6.249174476e-06,3.750389442e-05,-9.28937500e+02,-2.13125000e+02,9.313225746e-09,2.011656761e-07,9.6434225604e-01,7.778895451e-10,-2.291719827e+00,-1.60970991e-09,1,453600.0,6.400000000e-09,6.400000000e-09,-2.80482e-05,-7.16760e-13,0.00000e+00,TRUE,7.290974254e-05,4.00000000e+00*f1c6d503
#BD2EPHEMA,COM1,0,98.0,FINE,2427,456940.000,132730,4,18;10,456900.0,0,10,10,2427,2427,453600.0,4.215849673e+07,7.861041730e-10,1.663844468e+00,1.0681069456e-02,-2.1459743252e+00,-4.283618182e-06,3.490503877e-05,-8.46843750e+02,-1.59093750e+02,-1.457519829e-07,3.161840141e-07,9.6357705626e-01,8.693219250e-10,-2.218133880e+00,-1.71864302e-09,10,453600.0,-2.900000000e-09,4.800000000e-09,-7.65760e-04,4.36007e-12,0.00000e+00,TRUE,7.293666370e-05,4.00000000e+00*128e66b3
#BD2EPHEMA,COM1,0,98.0,FINE,2427,456940.000,132730,5,18;11,456900.0,0,1,1,2427,2427,453600.0,2.790629074e+07,3.965522323e-09,-2.626509504e+00,1.5103747137e-04,-6.2880772233e-01,-8.707866073e-07,1.163454726e-05,1.18171875e+02,-1.35625000e+01,-2.840533853e-08,-5.494803190e-08,9.5058736190e-01,-7.046722096e-10,1.973053545e-01,-6.81599820e-09,1,453600.0,2.900000000e-09,2.900000000e-09,-7.81452e-04,-2.16449e-11,0.00000e+00,TRUE,1.354342267e-04,4.00000000e+00*4af29b1c
#GLOEPHEMERISA,COM1,0,98.0,FINE,2427,456940.000,132730,5,18;53,6,1,0,2427,456318000,10782,929,0,0,39,0,-2.354724267578125e+07,9.587799804687500e+06,2.340094238281250e+06,3.614969253540039e+02,2.589893341064453e+01,3.553067207336426e+03,0.000000000000000,4.656612873077393e-06,9.313225746154785e-07,-5.223508924245834e-05,3.725290298e-09,9.094947017729282e-13,35640,2,3,0,12*da4206f5
#GLOEPHEMERISA,COM1,0,98.0,FINE,2427,456940.000,132730,5,18;57,9,1,0,2427,456318000,10782,929,0,0,39,2,-6.735207519531250e+06,2.341917431640625e+07,-7.578500488281250e+06,2.948331832885742e+02,-1.009615898132324e+03,-3.371124267578125e+03,-0.000001862645149,3.725290298461914e-06,2.793967723846436e-06,-2.353526651859283e-04,1.862645149e-09,9.094947017729282e-13,35610,2,5,0,12*2668a991
#GLOEPHEMERISA,COM1,0,98.0,FINE,2427,456940.000,132730,5,18;58,11,1,0,2427,456318000,10782,929,0,0,39,0,7.411220703125000e+05,2.438321630859375e+07,7.383026855468750e+06,7.849693298339844e+01,1.027948379516602e+03,-3.404915809631348e+03,-0.000002793967724,4.656612873077393e-06,9.313225746154785e-07,3.265971317887306e-04,9.313225746e-10,-3.637978807091713e-12,35610,2,3,0,12*4ed6e110
#GALEPHEMERISA,COM1,0,98.0,FINE,2427,456940.000,132730,5,18;3,TRUE,TRUE,0,0,0,0,0,0,107,0,106,444600,5.44062508e+03,3.0698e-09,-1.37512800e-01,5.381962983e-04,6.116954414e-01,-8.9407e-06,6.1784e-06,2.134e+02,-1.913e+02,4.2841e-08,8.9407e-08,9.693739774e-01,-3.2787e-10,2.974739399e+00,-5.79059834e-09,444600,-2.906436566e-05,-2.231104e-12,0.0e+00,444600,-2.906395821e-05,-2.231104e-12,0.0e+00,6.985e-10,1.164e-09*83aa6ace
#GALEPHEMERISA,COM1,0,98.0,FINE,2427,456940.000,132730,6,18;7,TRUE,TRUE,0,0,0,0,0,0,107,0,125,456000,5.44062412e+03,2.9937e-09,1.83903796e-01,4.421799676e-04,1.327725255e-01,-8.6054e-06,5.8170e-06,2.182e+02,-1.879e+02,4.2841e-08,1.2666e-07,9.694107932e-01,-3.4573e-10,2.974760806e+00,-5.76595446e-09,456000,-7.764395559e-05,-2.614797e-12,0.0e+00,456000,-7.764331531e-05,-2.614797e-12,0.0e+00,2.328e-09,3.027e-09*4807dfe7
#GPSEPHEM,98,GPS,FINE,2427,456940000,0,0,18,6;11,444600.0,0,12,12,2427,2427,451776.0,2.656014111e+07,4.180888436e-09,-8.129319172e-02,2.4743376998e-03,-2.3562128981e+00,4.094094038e-06,1.173838973e-05,1.54125000e+02,8.00625000e+01,2.980232239e-08,2.980232239e-08,9.6283573130e-01,-2.085801168e-10,7.226579782e-01,-7.92497296e-09,780,451776.0,-8.847564459e-09,-2.7231080e-04,1.2278178e-11,0.0000000e+00,TRUE,1.458598630e-04,4.00000000e+00*9705072f
#GPSEPHEM,98,GPS,FINE,2427,456940000,0,0,18,6;18,456900.0,0,224,224,2427,2427,460800.0,2.655985925e+07,4.070526697e-09,-1.944115577e-02,6.2770525692e-03,-2.8615127449e+00,2.905726433e-06,1.190975308e-05,1.52687500e+02,6.00000000e+01,3.725290298e-08,2.421438694e-08,9.7091984733e-01,-2.935836575e-10,6.998460821e-01,-7.87782814e-09,224,460800.0,-8.381903172e-09,-3.0233199e-04,9.0949470e-12,0.0000000e+00,TRUE,1.458620744e-04,4.00000000e+00*f7245563
#GPSEPHEM,98,GPS,FINE,2427,456940000,0,0,18,6;32,456900.0,0,9,9,2427,2427,460800.0,2.655931634e+07,4.320179953e-09,2.586632939e+00,9.4512887299e-03,-1.9712419518e+00,-5.267560482e-06,4.198402166e-06,3.00812500e+02,-1.02625000e+02,8.568167686e-08,-4.842877388e-08,9.6969421310e-01,-2.546534645e-10,2.765527363e+00,-8.09462289e-09,9,460800.0,9.313225746e-10,1.6815169e-04,2.0349944e-11,0.0000000e+00,TRUE,1.458667964e-04,4.00000000e+00*2f8537c1
#BESTPOSA,COM1,0,98.0,FINE,2427,456940.000,132730,1678,18;SOL_COMPUTED,SINGLE,34.36878653318,109.22181726671,493.9316,-33.6691,WGS84,9.9690,3.6124,5.7524,"",0.000,0.000,14,11,0,9,0,06,03,5d*216dae1f
$command,GPSIONA ONCHANGED,response: OK*70
#RANGEA,COM1,0,98.0,FINE,2427,456941.000,133725,2,18;31,18,0,20558471.785,0.040,-108035501.061557,0.005,-1639.834,50.8,124.014,08181c24,18,0,20558468.985,0.070,-84183489.393324,0.007,-1277.661,45.9,120.014,01301c2b,18,0,20558473.043,0.040,-80675865.465708,0.005,-1224.545,51.2,124.014,01d01c20,32,0,24121118.211,0.295,-126757345.771174,0.029,2362.730,31.6,128.014,08181c44,32,0,24121121.079,0.460,-94656456.395486,0.046,1764.829,31.3,60.000,01d01c40,5,0,24478033.311,0.123,-128632923.430519,0.010,-2854.666,37.8,22.000,08181d24,5,0,24478032.790,1.100,-100233444.323841,0.120,-2224.474,29.9,1.000,01301d2b,57,9,22423064.909,0.122,-119906213.026999,0.010,-4417.353,37.8,102.000,08191c24,57,9,22423055.643,0.110,-93260339.486690,0.009,-3435.708,39.2,74.000,00b91c2b,58,11,20146130.941,0.040,-107806018.364588,0.005,-2478.503,52.2,102.000,08191c44,58,11,20146116.106,0.040,-83849059.291742,0.005,-1927.763,48.5,102.000,00b91c4b,53,6,21854380.256,0.090,-116742162.178845,0.008,2559.580,41.7,82.000,08191d24,53,6,21854370.916,0.108,-90799409.055928,0.009,1990.840,39.5,81.000,00b91d2b,1,0,37760337.658,0.040,-196627982.992824,0.005,-65.739,49.9,129.014,0c1c1c24,1,0,37760320.715,0.040,-159776272.204607,0.005,-53.455,49.6,128.014,06a41c20,2,0,37489837.915,0.045,-195219420.075630,0.005,-25.022,47.4,129.014,0c1c1c44,2,0,37489808.526,0.050,-158631648.400400,0.006,-20.314,46.7,128.014,06a41c40,3,0,36763583.706,0.069,-191437625.813064,0.007,-44.185,44.3,128.014,0c1c1c64,3,0,36763559.177,0.040,-155558648.299922,0.005,-35.938,50.0,128.014,06a41c60,7,0,37215027.523,0.049,-193788393.462923,0.006,1363.588,46.9,128.014,081c1c84,7,0,37215008.256,0.054,-157468864.650845,0.006,1108.009,46.2,127.014,02a41c80,10,0,38169001.416,0.067,-198756015.540466,0.007,1428.549,44.6,128.014,081c1ca4,10,0,38168987.137,0.085,-153690694.114511,0.008,1104.572,42.3,127.014,023c1cab,10,0,38168986.279,0.061,-161505471.993654,0.006,1160.819,45.4,128.014,02a41ca0,11,0,24596439.800,0.048,-128080108.368569,0.005,-3035.801,47.0,128.014,081c1cc4,11,0,24596424.941,0.061,-104075516.653023,0.006,-2466.824,45.4,127.014,02a41cc0,4,0,38899725.470,0.220,-202561075.634051,0.020,-81.005,35.8,60.000,0c1c1ce4,4,0,38899703.704,0.097,-164597376.266323,0.009,-65.711,40.9,81.000,06a41ce0,7,0,24339899.209,0.129,-127907054.164875,0.011,1217.859,37.3,125.014,083b1c24,7,0,24339902.704,0.135,-95515003.780193,0.012,909.361,36.8,125.014,01931c2b,7,0,24339901.027,0.128,-98006686.334592,0.011,933.037,37.4,125.014,02331c20*c61041b6
#GPSION,98,GPS,FINE,2427,456941000,0,0,18,3;7.450580596923828e-09,2.235174179077148e-08,-5.960464477539063e-08,-1.192092895507813e-07,9.011200000000000e+04,1.146880000000000e+05,-6.553600000000000e+04,-5.242880000000000e+05,0*17078a68
#BESTPOSA,COM1,0,98.0,FINE,2427,456941.000,133725,2670,18;SOL_COMPUTED,SINGLE,34.36878475940,109.22181828428,494.1504,-33.6690,WGS84,9.9613,3.6108,5.7489,"",0.000,0.000,14,11,0,9,0,06,03,5d*4d88b5de
#RANGEA,COM1,0,98.0,FINE,2427,456942.000,134730,2,18;31,18,0,20558783.955,0.040,-108037141.175239,0.005,-1640.929,50.8,125.014,08181c24,18,0,20558781.096,0.070,-84184767.407403,0.007,-1278.824,45.9,121.014,01301c2b,18,0,20558785.137,0.040,-80677090.226069,0.005,-1225.364,51.1,125.014,01d01c20,32,0,24120668.735,0.196,-126754983.028850,0.019,2362.231,31.7,129.014,08181c44,32,0,24120671.300,0.221,-94654692.065088,0.022,1763.816,31.2,61.000,01d01c40,5,0,24478576.587,0.121,-128635778.128805,0.010,-2855.277,37.9,23.000,08181d24,5,0,24478575.752,1.195,-100235668.637413,0.130,-2224.742,29.9,0.000,0130112b,57,9,22423891.103,0.122,-119910630.496910,0.010,-4418.098,37.9,103.000,08191c24,57,9,22423881.782,0.109,-93263775.270412,0.009,-3436.223,39.3,75.000,00b91c2b,58,11,20146594.188,0.040,-107808497.223193,0.005,-2479.754,52.0,103.000,08191c44,58,11,20146579.333,0.040,-83850987.287424,0.005,-1928.680,48.6,103.000,00b91c4b,53,6,21853901.079,0.092,-116739602.895611,0.008,2558.500,41.5,83.000,08191d24,53,6,21853891.736,0.108,-90797418.512891,0.009,1989.923,39.5,82.000,00b91d2b,1,0,37760350.283,0.040,-196628048.699941,0.005,-66.253,49.9,130.014,0c1c1c24,1,0,37760333.326,0.040,-159776325.583919,0.005,-53.797,49.6,129.014,06a41c20,2,0,37489842.766,0.044,-195219445.051493,0.005,-25.454,47.5,130.014,0c1c1c44,2,0,37489813.280,0.050,-158631668.696631,0.006,-20.761,46.7,129.014,06a41c40,3,0,36763592.272,0.069,-191437669.979174,0.007,-44.639,44.3,129.014,0c1c1c64,3,0,36763567.636,0.040,-155558684.190211,0.005,-36.318,49.9,129.014,06a41c60,7,0,37214765.579,0.049,-193787029.888299,0.006,1362.992,46.8,129.014,081c1c84,7,0,37214746.359,0.055,-157467756.629195,0.006,1107.584,46.2,128.014,02a41c80,10,0,38168727.018,0.068,-198754587.011528,0.007,1428.005,44.6,129.014,081c1ca4,10,0,38168712.848,0.086,-153689589.484317,0.008,1104.177,42.3,128.014,023c1cab,10,0,38168711.989,0.061,-161504311.204913,0.006,1160.357,45.3,129.014,02a41ca0,11,0,24597022.774,0.048,-128083144.246430,0.005,-3036.457,47.0,129.014,081c1cc4,11,0,24597007.957,0.061,-104077983.540631,0.006,-2467.309,45.4,128.014,02a41cc0,4,0,38899741.040,0.290,-202561156.374026,0.026,-81.184,35.9,61.000,0c1c1ce4,4,0,38899719.096,0.097,-164597441.908352,0.009,-66.016,40.8,82.000,06a41ce0,7,0,24339667.679,0.129,-127905836.520839,0.011,1217.002,37.2,126.014,083b1c24,7,0,24339671.097,0.134,-95514094.488282,0.012,908.892,36.8,126.014,01931c2b,7,0,24339669.401,0.128,-98005753.291902,0.011,932.649,37.4,126.014,02331c20*0130acf3
#BESTPOSA,COM1,0,98.0,FINE,2427,456942.000,134730,3675,18;SOL_COMPUTED,SINGLE,34.36878307442,109.22181925806,494.3552,-33.6690,WGS84,9.9537,3.6092,5.7455,"",0.000,0.000,14,11,0,9,0,06,03,5d*aae33612
#RANGEA,COM1,0,98.0,FINE,2427,456943.000,135730,2,18;31,18,0,20559096.317,0.040,-108038782.319686,0.005,-1641.771,50.7,126.014,08181c24,18,0,20559093.329,0.068,-84186046.220012,0.007,-1279.226,46.1,122.014,01301c2b,18,0,20559097.436,0.040,-80678315.751747,0.005,-1226.020,51.1,126.014,01d01c20,32,0,24120219.776,0.473,-126752620.897560,0.047,2362.544,31.6,130.014,08181c44,32,0,24120221.532,0.223,-94652928.098229,0.022,1763.481,31.1,62.000,01d01c40,5,0,24479119.995,0.123,-128638633.386092,0.010,-2855.687,37.7,24.000,08181d24,5,0,24479119.134,0.994,-100237893.571127,0.108,-2225.129,30.1,1.000,01301d2b,57,9,22424717.390,0.120,-119915048.502518,0.010,-4418.366,38.0,104.000,08191c24,57,9,22424707.882,0.110,-93267211.509177,0.009,-3436.573,39.2,76.000,00b91c2b,58,11,20147057.671,0.040,-107810977.256848,0.005,-2480.723,52.0,104.000,08191c44,58,11,20147042.814,0.040,-83852916.202135,0.005,-1929.477,48.5,104.000,00b91c4b,53,6,21853422.217,0.092,-116737044.538923,0.008,2557.702,41.5,84.000,08191d24,53,6,21853412.812,0.108,-90795428.678567,0.009,1989.357,39.5,83.000,00b91d2b,1,0,37760362.932,0.040,-196628114.784326,0.005,-66.447,49.9,131.014,0c1c1c24,1,0,37760346.050,0.040,-159776379.292785,0.005,-53.961,49.6,130.014,06a41c20,2,0,37489847.631,0.044,-195219470.429243,0.005,-25.700,47.5,131.014,0c1c1c44,2,0,37489818.148,0.050,-158631689.317126,0.006,-20.918,46.7,130.014,06a41c40,3,0,36763600.771,0.070,-191437714.557667,0.007,-44.930,44.3,130.014,0c1c1c64,3,0,36763576.186,0.040,-155558720.401798,0.005,-36.482,50.0,130.014,06a41c60,7,0,37214503.766,0.049,-193785666.833819,0.006,1362.634,46.8,130.014,081c1c84,7,0,37214484.606,0.054,-157466649.034958,0.006,1107.286,46.2,129.014,02a41c80,10,0,38168452.645,0.068,-198753158.970397,0.007,1427.618,44.5,130.014,081c1ca4,10,0,38168438.571,0.086,-153688485.221846,0.008,1103.923,42.3,129.014,023c1cab,10,0,38168437.719,0.061,-161503150.796357,0.006,1160.103,45.4,130.014,02a41ca0,11,0,24597605.768,0.048,-128086180.622158,0.006,-3036.800,47.0,130.014,081c1cc4,11,0,24597591.032,0.061,-104080450.841858,0.006,-2467.592,45.4,129.014,02a41cc0,4,0,38899756.834,0.234,-202561237.613875,0.021,-81.564,35.8,62.000,0c1c1ce4,4,0,38899734.649,0.097,-164597507.896789,0.009,-66.240,40.9,83.000,06a41ce0,7,0,24339436.156,0.129,-127904619.513865,0.011,1216.525,37.2,127.014,083b1c24,7,0,24339439.507,0.134,-95513185.693804,0.012,908.482,36.8,127.014,01931c2b,7,0,24339437.874,0.129,-98004820.805550,0.011,932.158,37.2,127.014,02331c20*d514229a
#BESTPOSA,COM1,0,98.0,FINE,2427,456943.000,135730,4675,18;SOL_COMPUTED,SINGLE,34.36878154472,109.22182011498,494.5427,-33.6690,WGS84,9.9598,3.6083,5.7567,"",0.000,0.000,14,11,0,9,0,06,03,5d*4b9f3c00
#RANGEA,COM1,0,98.0,FINE,2427,456944.000,136730,2,18;31,18,0,20559408.787,0.040,-108040424.159630,0.005,-1642.680,50.8,127.014,08181c24,18,0,20559405.756,0.071,-84187325.570949,0.007,-1279.837,45.8,123.014,01301c2b,18,0,20559409.865,0.040,-80679541.800775,0.005,-1226.668,51.0,127.014,01d01c20,32,0,24119770.877,0.238,-126750258.970349,0.024,2361.329,31.5,131.014,08181c44,32,0,24119772.011,0.205,-94651164.340393,0.021,1763.354,30.9,63.000,01d01c40,5,0,24479663.435,0.121,-128641488.898473,0.010,-2856.186,37.9,25.000,08181d24,5,0,24479662.838,1.034,-100240118.607017,0.113,-2225.859,29.9,2.000,01301d2b,57,9,22425543.754,0.119,-119919466.744868,0.010,-4418.761,38.1,105.000,08191c24,57,9,22425534.021,0.109,-93270647.912340,0.009,-3436.901,39.3,77.000,00b91c2b,58,11,20147521.304,0.040,-107813458.105075,0.005,-2481.759,52.0,105.000,08191c44,58,11,20147506.478,0.040,-83854845.745749,0.005,-1930.244,48.6,105.000,00b91c4b,53,6,21852943.453,0.092,-116734486.769908,0.008,2556.995,41.5,85.000,08191d24,53,6,21852933.953,0.107,-90793439.318682,0.009,1988.724,39.7,84.000,00b91d2b,1,0,37760375.579,0.040,-196628180.955212,0.005,-66.663,49.9,132.014,0c1c1c24,1,0,37760358.758,0.040,-159776433.068319,0.005,-54.192,49.5,131.014,06a41c20,2,0,37489852.508,0.044,-195219495.896524,0.005,-26.042,47.5,132.014,0c1c1c44,2,0,37489823.011,0.051,-158631710.014653,0.006,-21.186,46.6,131.014,06a41c40,3,0,36763609.370,0.069,-191437759.216470,0.007,-45.250,44.3,131.014,0c1c1c64,3,0,36763584.797,0.040,-155558756.686305,0.005,-36.743,49.9,131.014,06a41c60,7,0,37214242.006,0.049,-193784303.972603,0.006,1362.232,46.8,131.014,081c1c84,7,0,37214222.913,0.055,-157465541.599855,0.006,1106.951,46.1,130.014,02a41c80,10,0,38168178.299,0.068,-198751731.088169,0.007,1427.298,44.5,131.014,081c1ca4,10,0,38168164.405,0.088,-153687381.105648,0.008,1103.603,42.0,130.014,023c1cab,10,0,38168163.529,0.062,-161501990.526418,0.006,1159.820,45.3,131.014,02a41ca0,11,0,24598188.767,0.048,-128089217.207954,0.006,-3037.172,47.0,131.014,081c1cc4,11,0,24598174.225,0.061,-104082918.320409,0.006,-2467.964,45.3,130.014,02a41cc0,4,0,38899772.529,0.215,-202561318.859730,0.019,-81.691,36.1,63.000,0c1c1ce4,4,0,38899750.400,0.098,-164597573.938035,0.009,-66.448,40.8,84.000,06a41ce0,7,0,24339204.890,0.129,-127903402.863346,0.011,1215.937,37.3,128.014,083b1c24,7,0,24339208.069,0.135,-95512277.121681,0.012,908.206,36.7,128.014,01931c2b,7,0,24339206.371,0.129,-98003888.551627,0.011,931.778,37.2,128.014,02331c20*cba85aff
#BESTPOSA,COM1,0,98.0,FINE,2427,456944.000,136730,5675,18;SOL_COMPUTED,SINGLE,34.36878003654,109.22182119447,494.7244,-33.6690,WGS84,9.9185,3.6066,5.7378,"",0.000,0.000,14,11,0,9,0,06,03,5d*6562d89b
#RANGEA,COM1,0,98.0,FINE,2427,456945.000,137730,2,18;31,18,0,20559721.459,0.040,-108042066.990918,0.005,-1643.648,50.8,128.014,08181c24,18,0,20559718.337,0.071,-84188605.701246,0.007,-1280.634,45.8,124.014,01301c2b,18,0,20559722.498,0.040,-80680768.590413,0.005,-1227.413,51.1,128.014,01d01c20,32,0,24119321.868,0.319,-126747897.610447,0.032,2360.860,31.4,132.014,08181c44,32,0,24119322.863,0.204,-94649400.990242,0.020,1762.863,31.0,64.000,01d01c40,5,0,24480206.834,0.120,-128644344.915452,0.010,-2856.529,38.0,26.000,08181d24,5,0,24480206.310,0.975,-100242344.066057,0.107,-2225.949,29.2,3.000,01301d2b,57,9,22426370.040,0.117,-119923885.549477,0.010,-4419.416,38.3,106.000,08191c24,57,9,22426360.159,0.108,-93274084.730947,0.009,-3437.251,39.5,78.000,00b91c2b,58,11,20147985.168,0.040,-107815940.074297,0.005,-2482.861,52.1,106.000,08191c44,58,11,20147970.359,0.040,-83856776.167750,0.005,-1931.123,48.7,106.000,00b91c4b,53,6,21852464.676,0.090,-116731929.943383,0.008,2556.048,41.7,86.000,08191d24,53,6,21852455.249,0.106,-90791450.659687,0.009,1988.068,39.8,85.000,00b91d2b,1,0,37760388.324,0.040,-196628247.498568,0.005,-67.043,49.9,133.014,0c1c1c24,1,0,37760371.579,0.040,-159776487.131624,0.005,-54.453,49.5,132.014,06a41c20,2,0,37489857.421,0.044,-195219521.715181,0.005,-26.296,47.5,133.014,0c1c1c44,2,0,37489827.983,0.051,-158631730.991688,0.006,-21.410,46.6,132.014,06a41c40,3,0,36763618.086,0.069,-191437804.213513,0.007,-45.473,44.4,132.014,0c1c1c64,3,0,36763593.447,0.040,-155558793.261376,0.005,-36.981,49.9,132.014,06a41c60,7,0,37213980.319,0.050,-193782941.590410,0.006,1361.859,46.8,132.014,081c1c84,7,0,37213961.258,0.055,-157464434.562672,0.006,1106.586,46.1,131.014,02a41c80,10,0,38167904.148,0.069,-198750303.654764,0.007,1426.925,44.4,132.014,081c1ca4,10,0,38167890.258,0.088,-153686277.330221,0.008,1103.350,41.9,131.014,023c1cab,10,0,38167889.457,0.062,-161500830.631132,0.006,1159.418,45.3,132.014,02a41ca0,11,0,24598771.958,0.048,-128092254.257959,0.006,-3037.582,47.0,132.014,081c1cc4,11,0,24598757.461,0.062,-104085386.160127,0.006,-2468.292,45.3,131.014,02a41cc0,4,0,38899788.359,0.242,-202561400.504548,0.022,-82.063,36.1,64.000,0c1c1ce4,4,0,38899766.032,0.098,-164597640.275859,0.009,-66.761,40.7,85.000,06a41ce0,7,0,24338973.760,0.127,-127902186.822623,0.011,1215.385,37.4,129.014,083b1c24,7,0,24338976.750,0.137,-95511369.037390,0.012,907.767,36.6,129.014,01931c2b,7,0,24338974.953,0.130,-98002956.771564,0.011,931.390,37.2,129.014,02331c20*51fe9d6d
#BESTPOSA,COM1,0,98.0,FINE,2427,456945.000,137730,6675,18;SOL_COMPUTED,SINGLE,34.36877828350,109.22182220426,494.9176,-33.6690,WGS84,9.9151,3.6055,5.7366,"",0.000,0.000,14,11,0,9,0,06,03,5d*a4381335
#RANGEA,COM1,0,98.0,FINE,2427,456946.000,138730,2,18;31,18,0,20560034.325,0.040,-108043710.804289,0.005,-1644.662,50.8,129.014,08181c24,18,0,20560031.135,0.075,-84189886.592202,0.007,-1281.342,45.5,125.014,01301c2b,18,0,20560035.322,0.040,-80681996.116035,0.005,-1228.158,51.1,129.014,01d01c20,32,0,24118872.880,0.361,-126745536.739494,0.036,2360.435,31.3,133.014,08181c44,32,0,24118873.551,0.204,-94647638.022190,0.020,1762.445,31.0,65.000,01d01c40,5,0,24480750.342,0.121,-128647201.470616,0.010,-2857.192,37.9,27.000,08181d24,5,0,24480749.958,0.923,-100244570.123467,0.101,-2226.023,29.0,0.000,0130112b,57,9,22427196.566,0.117,-119928304.870298,0.010,-4419.908,38.4,107.000,08191c24,57,9,22427186.497,0.107,-93277521.987872,0.009,-3437.750,39.6,79.000,00b91c2b,58,11,20148449.212,0.040,-107818423.150229,0.005,-2483.979,52.0,107.000,08191c44,58,11,20148434.458,0.040,-83858707.446213,0.005,-1931.965,48.8,107.000,00b91c4b,53,6,21851986.132,0.092,-116729373.997309,0.008,2555.169,41.5,87.000,08191d24,53,6,21851976.801,0.104,-90789462.726841,0.009,1987.249,40.0,86.000,00b91d2b,1,0,37760401.098,0.040,-196628314.380001,0.005,-67.393,49.8,134.014,0c1c1c24,1,0,37760384.417,0.040,-159776541.476979,0.005,-54.758,49.7,133.014,06a41c20,2,0,37489862.420,0.045,-195219547.897996,0.005,-26.720,47.4,134.014,0c1c1c44,2,0,37489833.032,0.050,-158631752.269604,0.006,-21.685,46.8,133.014,06a41c40,3,0,36763626.784,0.070,-191437849.575010,0.007,-45.816,44.3,133.014,0c1c1c64,3,0,36763602.172,0.040,-155558830.127721,0.005,-37.309,50.1,133.014,06a41c60,7,0,37213718.628,0.051,-193781579.694879,0.006,1361.315,46.6,133.014,081c1c84,7,0,37213699.771,0.054,-157463327.909142,0.006,1106.161,46.3,132.014,02a41c80,10,0,38167630.007,0.070,-198748876.669605,0.007,1426.389,44.2,133.014,081c1ca4,10,0,38167616.222,0.088,-153685173.882136,0.008,1102.992,42.0,132.014,023c1cab,10,0,38167615.435,0.060,-161499671.073320,0.006,1159.105,45.5,133.014,02a41ca0,11,0,24599355.279,0.049,-128095291.780331,0.006,-3038.089,46.9,133.014,081c1cc4,11,0,24599340.832,0.060,-104087854.395192,0.006,-2468.694,45.5,132.014,02a41cc0,4,0,38899804.021,0.236,-202561482.473899,0.022,-82.317,35.7,65.000,0c1c1ce4,4,0,38899781.753,0.096,-164597706.903108,0.009,-67.074,41.0,86.000,06a41ce0,7,0,24338742.788,0.126,-127900971.375446,0.011,1214.819,37.5,130.014,083b1c24,7,0,24338745.601,0.135,-95510461.431283,0.012,907.201,36.7,130.014,01931c2b,7,0,24338743.540,0.130,-98002025.490046,0.011,930.727,37.2,130.014,02331c20*7988ceeb
#BESTPOSA,COM1,0,98.0,FINE,2427,456946.000,138730,7675,18;SOL_COMPUTED,SINGLE,34.36877648789,109.22182318867,495.1161,-33.6690,WGS84,9.9493,3.6050,5.7530,"",0.000,0.000,14,11,0,9,0,06,03,5d*3d4f71b3
#RANGEA,COM1,0,98.0,FINE,2427,456947.000,139730,2,18;31,18,0,20560347.355,0.040,-108045355.740449,0.005,-1645.742,50.8,130.014,08181c24,18,0,20560344.123,0.076,-84191168.359317,0.007,-1282.378,45.4,126.014,01301c2b,18,0,20560348.333,0.040,-80683224.468492,0.005,-1228.963,51.2,130.014,01d01c20,32,0,24118423.639,0.221,-126743176.599800,0.022,2359.653,31.3,134.014,08181c44,32,0,24118424.345,0.203,-94645875.591753,0.020,1761.901,31.1,66.000,01d01c40,5,0,24481293.924,0.120,-128650058.688181,0.010,-2857.899,38.0,28.000,08181d24,5,0,24481293.221,3.526,-100246796.320739,0.150,-2227.916,29.2,0.000,0130112b,57,9,22428023.201,0.115,-119932724.868415,0.010,-4420.586,38.6,108.000,08191c24,57,9,22428012.925,0.107,-93280959.731990,0.009,-3438.190,39.6,80.000,00b91c2b,58,11,20148913.516,0.040,-107820907.510492,0.005,-2485.283,52.1,108.000,08191c44,58,11,20148898.724,0.040,-83860639.724843,0.005,-1932.979,48.8,108.000,00b91c4b,53,6,21851507.654,0.089,-116726819.120810,0.008,2554.089,41.8,88.000,08191d24,53,6,21851498.495,0.104,-90787475.565138,0.009,1986.667,40.0,87.000,00b91d2b,1,0,37760413.997,0.040,-196628381.761443,0.005,-67.915,49.8,135.014,0c1c1c24,1,0,37760397.403,0.040,-159776596.226020,0.005,-55.116,49.7,134.014,06a41c20,2,0,37489867.535,0.045,-195219574.580913,0.005,-27.234,47.3,135.014,0c1c1c44,2,0,37489838.147,0.049,-158631773.949310,0.006,-22.185,46.9,134.014,06a41c40,3,0,36763635.500,0.070,-191437895.445344,0.007,-46.368,44.3,134.014,0c1c1c64,3,0,36763610.976,0.040,-155558867.390771,0.005,-37.697,50.2,134.014,06a41c60,7,0,37213457.052,0.051,-193780218.408146,0.006,1360.719,46.6,134.014,081c1c84,7,0,37213438.319,0.053,-157462221.760511,0.006,1105.662,46.4,133.014,02a41c80,10,0,38167356.018,0.071,-198747450.259127,0.007,1425.837,44.1,134.014,081c1ca4,10,0,38167342.333,0.088,-153684070.892391,0.008,1102.567,42.0,133.014,023c1cab,10,0,38167341.491,0.060,-161498512.001547,0.006,1158.628,45.5,134.014,02a41ca0,11,0,24599938.738,0.049,-128098329.908137,0.006,-3038.729,46.9,134.014,081c1cc4,11,0,24599924.361,0.059,-104090323.119871,0.006,-2469.208,45.6,133.014,02a41cc0,4,0,38899819.637,0.252,-202561565.010447,0.023,-82.868,35.6,66.000,0c1c1ce4,4,0,38899797.575,0.096,-164597773.936831,0.008,-67.462,41.1,87.000,06a41ce0,7,0,24338511.909,0.125,-127899756.678745,0.011,1214.074,37.6,131.014,083b1c24,7,0,24338514.452,0.134,-95509554.363742,0.012,906.627,36.8,131.014,01931c2b,7,0,24338512.552,0.129,-98001094.746907,0.011,930.265,37.3,131.014,02331c20*bf8e9ea6
#BESTPOSA,COM1,0,98.0,FINE,2427,456947.000,139730,8675,18;SOL_COMPUTED,SINGLE,34.36877459852,109.22182416919,495.3243,-33.6690,WGS84,9.9459,3.6039,5.7519,"",0.000,0.000,14,11,0,9,0,06,03,5d*b87cdf13
#RANGEA,COM1,0,98.0,FINE,2427,456948.000,140730,2,18;31,18,0,20560660.606,0.040,-108047001.519984,0.005,-1646.405,50.8,131.014,08181c24,18,0,20560657.319,0.077,-84192450.790242,0.007,-1282.899,45.3,127.014,01301c2b,18,0,20560661.516,0.040,-80684453.464635,0.005,-1229.455,51.3,131.014,01d01c20,32,0,24117974.713,0.202,-126740816.883999,0.020,2359.250,31.2,135.014,08181c44,32,0,24117975.362,0.224,-94644113.445257,0.022,1761.715,31.1,67.000,01d01c40,5,0,24481837.848,0.120,-128652916.283505,0.010,-2857.989,38.0,29.000,08181d24,5,0,24481836.452,2.082,-100249023.063543,0.150,-2227.551,29.1,1.000,01301d2b,57,9,22428850.054,0.114,-119937145.209594,0.010,-4420.712,38.7,109.000,08191c24,57,9,22428839.432,0.107,-93284397.776926,0.009,-3438.279,39.6,81.000,00b91c2b,58,11,20149377.971,0.040,-107823392.864587,0.005,-2486.035,52.0,109.000,08191c44,58,11,20149363.184,0.040,-83862572.780046,0.005,-1933.619,48.8,109.000,00b91c4b,53,6,21851029.509,0.091,-116724264.989570,0.008,2553.538,41.6,89.000,08191d24,53,6,21851020.283,0.104,-90785489.049370,0.009,1986.064,40.0,88.000,00b91d2b,1,0,37760427.017,0.040,-196628449.359800,0.005,-67.915,49.8,136.014,0c1c1c24,1,0,37760410.355,0.040,-159776651.159270,0.005,-55.183,49.9,135.014,06a41c20,2,0,37489872.670,0.045,-195219601.488834,0.005,-27.197,47.4,136.014,0c1c1c44,2,0,37489843.280,0.048,-158631795.812939,0.005,-22.125,47.0,135.014,06a41c40,3,0,36763644.352,0.070,-191437941.532855,0.007,-46.405,44.3,135.014,0c1c1c64,3,0,36763619.849,0.040,-155558904.842798,0.005,-37.697,50.3,135.014,06a41c60,7,0,37213195.575,0.051,-193778857.473888,0.006,1360.585,46.6,135.014,081c1c84,7,0,37213176.943,0.051,-157461115.883134,0.006,1105.580,46.6,134.014,02a41c80,10,0,38167082.060,0.071,-198746024.153155,0.007,1425.800,44.1,135.014,081c1ca4,10,0,38167068.355,0.089,-153682968.132721,0.008,1102.485,41.9,134.014,023c1cab,10,0,38167067.677,0.059,-161497353.179741,0.006,1158.539,45.7,135.014,02a41ca0,11,0,24600522.245,0.048,-128101368.375858,0.006,-3038.878,47.0,135.014,081c1cc4,11,0,24600507.869,0.057,-104092792.118117,0.006,-2469.350,45.8,134.014,02a41cc0,4,0,38899835.458,0.231,-202561647.738550,0.021,-83.069,36.0,67.000,0c1c1ce4,4,0,38899813.425,0.094,-164597841.143035,0.008,-67.417,41.3,88.000,06a41ce0,7,0,24338281.213,0.124,-127898542.485475,0.011,1213.694,37.7,132.014,083b1c24,7,0,24338283.334,0.136,-95508647.665072,0.012,906.381,36.7,132.014,01931c2b,7,0,24338281.628,0.127,-98000164.415669,0.011,929.855,37.4,132.014,02331c20*d0431139
#BESTPOSA,COM1,0,98.0,FINE,2427,456948.000,140730,9675,18;SOL_COMPUTED,SINGLE,34.36877253107,109.22182514084,495.5396,-33.6690,WGS84,9.9425,3.6029,5.7507,"",0.000,0.000,14,11,0,9,0,06,03,5d*dd76e580
#RANGEA,COM1,0,98.0,FINE,2427,456949.000,141730,2,18;31,18,0,20560973.960,0.040,-108048647.893412,0.005,-1646.971,50.7,132.014,08181c24,18,0,20560970.530,0.078,-84193733.669721,0.007,-1283.272,45.2,128.014,01301c2b,18,0,20560974.807,0.040,-80685682.894975,0.005,-1229.879,51.3,132.014,01d01c20,32,0,24117525.368,0.225,-126738457.245934,0.023,2359.355,31.0,136.014,08181c44,32,0,24117526.148,0.244,-94642351.350220,0.025,1762.073,31.0,68.000,01d01c40,5,0,24482381.676,0.122,-128655774.021181,0.010,-2858.212,37.8,30.000,08181d24,5,0,24482379.829,1.792,-100251249.849412,0.150,-2228.363,29.1,2.000,01301d2b,57,9,22429676.954,0.112,-119941565.701461,0.009,-4420.787,39.0,110.000,08191c24,57,9,22429666.044,0.107,-93287835.929671,0.009,-3438.421,39.6,82.000,00b91c2b,58,11,20149842.530,0.040,-107825878.924737,0.005,-2486.698,52.0,110.000,08191c44,58,11,20149827.788,0.040,-83864506.376255,0.005,-1934.111,48.7,110.000,00b91c4b,53,6,21850551.547,0.090,-116721711.334877,0.008,2553.157,41.7,90.000,08191d24,53,6,21850542.229,0.103,-90783502.866010,0.009,1985.818,40.1,89.000,00b91d2b,1,0,37760440.043,0.040,-196628516.921635,0.005,-67.848,49.8,137.014,0c1c1c24,1,0,37760423.286,0.040,-159776706.058710,0.005,-55.124,49.8,136.014,06a41c20,2,0,37489877.806,0.045,-195219628.362143,0.005,-27.138,47.3,137.014,0c1c1c44,2,0,37489848.451,0.049,-158631817.655284,0.006,-22.073,46.9,136.014,06a41c40,3,0,36763653.352,0.071,-191437987.590481,0.007,-46.308,44.2,136.014,0c1c1c64,3,0,36763628.666,0.040,-155558942.266350,0.005,-37.645,50.2,136.014,06a41c60,7,0,37212934.156,0.052,-193777496.618070,0.006,1360.533,46.5,136.014,081c1c84,7,0,37212915.612,0.052,-157460010.079294,0.006,1105.528,46.5,135.014,02a41c80,10,0,38166808.172,0.072,-198744598.110345,0.007,1425.673,44.0,136.014,081c1ca4,10,0,38166794.459,0.088,-153681865.423249,0.008,1102.426,42.0,135.014,023c1cab,10,0,38166793.811,0.059,-161496194.386302,0.006,1158.561,45.6,136.014,02a41ca0,11,0,24601105.796,0.048,-128104406.919015,0.006,-3038.833,47.0,136.014,081c1cc4,11,0,24601091.412,0.058,-104095261.170864,0.006,-2469.283,45.8,135.014,02a41cc0,4,0,38899851.317,0.236,-202561730.409060,0.022,-83.047,35.7,68.000,0c1c1ce4,4,0,38899829.365,0.095,-164597908.346810,0.008,-67.462,41.1,89.000,06a41ce0,7,0,24338050.584,0.125,-127897328.507449,0.011,1213.590,37.6,133.014,083b1c24,7,0,24338052.334,0.136,-95507741.121087,0.012,906.195,36.7,133.014,01931c2b,7,0,24338050.543,0.127,-97999234.179576,0.011,929.967,37.4,133.014,02331c20*48ce350a
#BESTPOSA,COM1,0,98.0,FINE,2427,456949.000,141730,10676,18;SOL_COMPUTED,SINGLE,34.36876531629,109.22182966846,496.1028,-33.6689,WGS84,7.9630,2.1422,3.7767,"",0.000,0.000,14,12,0,7,0,06,03,59*413cc1e1
#RANGEA,COM1,0,98.0,FINE,2427,456950.000,142730,2,18;31,18,0,20561287.428,0.040,-108050295.032477,0.005,-1647.731,50.7,133.014,08181c24,18,0,20561283.943,0.076,-84195017.153450,0.007,-1284.032,45.4,129.014,01301c2b,18,0,20561288.241,0.040,-80686912.899040,0.005,-1230.446,51.3,133.014,01d01c20,32,0,24117076.847,0.350,-126736097.975581,0.035,2358.818,30.8,137.014,08181c44,32,0,24117077.133,0.202,-94640589.577036,0.020,1761.581,31.2,69.000,01d01c40,5,0,24482925.624,0.124,-128658632.047581,0.010,-2858.488,37.7,31.000,08181d24,5,0,24482923.711,2.832,-100253476.927894,0.150,-2227.573,29.0,3.000,01301d2b,57,9,22430503.825,0.110,-119945986.476971,0.009,-4421.152,39.2,111.000,08191c24,57,9,22430492.776,0.108,-93291274.326609,0.009,-3438.756,39.5,83.000,00b91c2b,58,11,20150307.297,0.040,-107828365.879795,0.005,-2487.585,52.0,111.000,08191c44,58,11,20150292.645,0.040,-83866440.669223,0.005,-1934.774,48.7,111.000,00b91c4b,53,6,21850073.634,0.092,-116719158.375808,0.008,2552.405,41.5,91.000,08191d24,53,6,21850064.341,0.104,-90781517.226766,0.009,1985.259,40.0,90.000,00b91d2b,1,0,37760453.078,0.040,-196628584.627580,0.005,-67.952,49.7,138.014,0c1c1c24,1,0,37760436.329,0.040,-159776761.079742,0.005,-55.243,49.8,137.014,06a41c20,2,0,37489883.016,0.046,-195219655.383380,0.005,-27.316,47.3,138.014,0c1c1c44,2,0,37489853.622,0.048,-158631839.610640,0.006,-22.170,47.0,137.014,06a41c40,3,0,36763662.172,0.071,-191438033.809651,0.007,-46.464,44.1,137.014,0c1c1c64,3,0,36763637.474,0.040,-155558979.811025,0.005,-37.779,50.3,137.014,06a41c60,7,0,37212672.770,0.053,-193776136.031669,0.006,1360.265,46.4,137.014,081c1c84,7,0,37212654.324,0.052,-157458904.496725,0.006,1105.289,46.5,136.014,02a41c80,10,0,38166534.298,0.073,-198743172.286731,0.007,1425.435,43.9,137.014,081c1ca4,10,0,38166520.648,0.089,-153680762.884916,0.008,1102.247,41.8,136.014,023c1cab,10,0,38166519.988,0.059,-161495035.800177,0.006,1158.330,45.6,137.014,02a41ca0,11,0,24601689.349,0.049,-128107445.725029,0.006,-3039.132,46.9,137.014,081c1cc4,11,0,24601675.015,0.058,-104097730.443868,0.006,-2469.499,45.8,136.014,02a41cc0,4,0,38899867.569,0.267,-202561813.257445,0.024,-83.278,35.6,69.000,0c1c1ce4,4,0,38899845.333,0.095,-164597975.637682,0.008,-67.514,41.2,90.000,06a41ce0,7,0,24337820.058,0.123,-127896114.922720,0.010,1213.195,37.7,134.014,083b1c24,7,0,24337821.516,0.136,-95506834.885493,0.012,905.882,36.6,134.014,01931c2b,7,0,24337819.541,0.127,-97998304.311619,0.011,929.528,37.4,134.014,02331c20*ee822207
#BD2EPHEMA,COM1,0,98.0,FINE,2427,456950.000,142730,3,18;1,456900.0,0,1,1,2427,2427,453600.0,4.216465955e+07,8.507854386e-09,-1.156369886e-02,4.9317895900e-04,-7.5279517317e-01,2.513639629e-05,-1.796474680e-05,5.56546875e+02,7.75312500e+02,-5.867332220e-08,-1.490116119e-07,8.1505679107e-02,2.946551307e-10,-1.412710144e+00,-7.61067416e-09,1,453600.0,4.500000000e-09,4.500000000e-09,-8.96631e-07,-6.92779e-14,0.00000e+00,TRUE,7.292839549e-05,4.00000000e+00*746e5adf
#BD2EPHEMA,COM1,0,98.0,FINE,2427,456950.000,142730,3,18;2,456900.0,0,1,1,2427,2427,453600.0,4.216459326e+07,6.854214077e-09,-4.037993003e-02,1.9970780704e-04,-1.2413934650e+00,2.421997488e-05,1.732818782e-05,-5.38093750e+02,7.40234375e+02,6.379559636e-08,2.747401595e-08,4.4621495693e-02,2.757257708e-10,-1.944550236e+00,-6.09025368e-09,1,453600.0,4.730000000e-08,4.730000000e-08,1.11060e-07,-4.26326e-14,0.00000e+00,TRUE,7.292691381e-05,4.00000000e+00*bee7a9d6
#BD2EPHEMA,COM1,0,98.0,FINE,2427,456950.000,142730,4,18;3,456900.0,0,1,1,2427,2427,453600.0,4.216339629e+07,6.320263264e-09,2.047928039e+00,2.2393709514e-04,-2.7599568006e+00,2.708006650e-05,1.901201904e-05,-5.90968750e+02,8.39281250e+02,2.654269338e-08,2.793967724e-09,6.2168232528e-02,3.439428980e-10,-1.982703065e+00,-5.32879339e-09,1,453600.0,3.530000000e-08,3.530000000e-08,-1.95461e-07,-1.33227e-14,0.00000e+00,TRUE,7.292948506e-05,4.00000000e+00*d00826c3
#BD2EPHEMA,COM1,0,98.0,FINE,2427,456950.000,142730,4,18;4,456900.0,0,1,1,2427,2427,453600.0,4.216467255e+07,4.160530446e-09,1.573949198e+00,8.0926390365e-04,-1.3185829638e+00,2.537062392e-05,1.915823668e-05,-5.86890625e+02,7.86546875e+02,1.764856279e-07,1.229345798e-07,8.5887077793e-02,3.596578383e-10,-2.087371634e+00,-3.39514142e-09,1,453600.0,4.170000000e-08,4.170000000e-08,-6.47036e-07,-5.06262e-14,0.00000e+00,TRUE,7.292401444e-05,4.00000000e+00*98867da5
