#RANGEA,COM1,0,98.0,FINE,2427,458506.000,1698730,2,18;28,18,0,21171502.816,0.068,-111256992.249435,0.007,-2482.286,44.5,1689.014,08181c24,18,0,21171500.438,0.116,-86693739.345711,0.010,-1934.095,41.8,1685.014,01301c2b,18,0,21171505.770,0.040,-83081521.049798,0.005,-1853.620,48.1,1689.014,01d01c20,32,0,23445695.092,0.197,-123207953.146355,0.020,2138.229,31.6,842.000,08181c44,32,0,23445696.499,1.526,-96006258.626811,0.150,1666.465,27.5,1.000,01301c4b,32,0,23445699.741,0.173,-92005960.348137,0.017,1596.744,33.6,842.000,01d01c40,13,0,23950303.662,0.083,-125859707.041156,0.008,2640.584,42.6,765.000,08181da4,13,0,23950305.103,0.210,-98072510.336728,0.021,2057.226,36.1,734.000,01301dab,13,0,23950309.607,0.122,-93986181.132234,0.010,1971.851,37.9,759.000,01d01da0,58,11,21013939.398,0.040,-112449813.231444,0.005,-3430.553,52.3,1667.000,08191c44,58,11,21013925.031,0.083,-87460894.853014,0.008,-2668.232,42.6,1667.000,00b91c4b,46,5,22541717.345,0.051,-120371539.269110,0.006,3927.112,46.6,831.000,08191d04,46,5,22541712.131,0.093,-93622275.598013,0.008,3054.388,41.3,827.000,00b91d0b,1,0,37766981.825,0.042,-196662578.139450,0.005,-14.077,47.7,1694.014,0c1c1c24,1,0,37766965.110,0.042,-159804382.799132,0.005,-11.418,47.8,1693.014,06a41c20,2,0,37485426.720,0.056,-195196444.339724,0.006,18.706,46.0,1694.014,0c1c1c44,2,0,37485396.795,0.065,-158612978.149750,0.007,15.240,44.9,1693.014,06a41c40,3,0,36764775.388,0.080,-191443822.807853,0.007,0.661,43.0,1693.014,0c1c1c64,3,0,36764749.821,0.040,-155563683.339027,0.005,0.525,48.3,1693.014,06a41c60,7,0,36822495.850,0.053,-191744387.016744,0.006,1208.467,46.3,1693.014,081c1c84,7,0,36822476.074,0.060,-155807942.759208,0.006,981.960,45.5,1692.014,02a41c80,10,0,37749149.850,0.075,-196569745.614581,0.007,1323.675,43.6,1693.014,081c1ca4,10,0,37749134.690,0.107,-152000132.695266,0.009,1023.614,39.6,1692.014,023c1cab,10,0,37749133.962,0.109,-159728949.524428,0.009,1075.644,39.4,1693.014,02a41ca0,11,0,25512217.879,0.094,-132848825.037775,0.008,-3057.624,41.3,73.000,081c1cc4,11,0,25512203.967,0.368,-107950464.676401,0.038,-2484.668,28.8,385.000,02a41cc0,4,0,38911878.395,0.618,-202624362.962523,0.150,-34.290,31.9,0.000,0c1c10e4,4,0,38911861.877,0.111,-164648815.243729,0.009,-28.823,39.1,1646.000,06a41ce0*5c255c2d
#BESTPOSA,COM1,0,98.0,FINE,2427,458506.000,1698730,60346,18;SOL_COMPUTED,SINGLE,34.36857318739,109.22192468421,499.7877,-33.6674,WGS84,21.6852,6.2277,14.4098,"",0.000,0.000,12,7,0,5,0,06,00,5b*6f7515cb
#RANGEA,COM1,0,98.0,FINE,2427,458507.000,1699730,2,18;28,18,0,21171975.202,0.068,-111259474.867670,0.007,-2482.718,44.5,1690.014,08181c24,18,0,21171973.009,0.116,-86695673.850116,0.010,-1934.631,41.8,1686.014,01301c2b,18,0,21171978.226,0.040,-83083374.950283,0.005,-1853.925,48.1,1690.014,01d01c20,32,0,23445288.676,0.195,-123205815.133104,0.019,2137.968,31.7,843.000,08181c44,32,0,23445289.431,1.533,-96004592.605672,0.150,1666.197,27.4,2.000,01301c4b,32,0,23445292.911,0.172,-92004363.779162,0.017,1596.588,33.7,843.000,01d01c40,13,0,23949801.183,0.083,-125857066.578713,0.008,2640.562,42.7,766.000,08181da4,13,0,23949802.419,0.209,-98070452.840418,0.021,2057.517,36.2,735.000,01301dab,13,0,23949807.047,0.121,-93984209.335035,0.010,1971.881,37.9,760.000,01d01da0,58,11,21014580.471,0.040,-112453244.148517,0.005,-3431.007,52.3,1668.000,08191c44,58,11,21014566.265,0.083,-87463563.336863,0.008,-2668.582,42.6,1668.000,00b91c4b,46,5,22540981.939,0.050,-120367612.323703,0.006,3927.052,46.8,832.000,08191d04,46,5,22540976.788,0.092,-93619221.316902,0.008,3054.351,41.5,828.000,00b91d0b,1,0,37766984.469,0.042,-196662592.281695,0.005,-13.950,47.8,1695.014,0c1c1c24,1,0,37766967.821,0.042,-159804394.298418,0.005,-11.396,47.8,1694.014,06a41c20,2,0,37485423.105,0.055,-195196425.728330,0.006,18.795,46.1,1695.014,0c1c1c44,2,0,37485393.293,0.065,-158612963.031717,0.007,15.240,44.9,1694.014,06a41c40,3,0,36764775.292,0.079,-191443822.252919,0.007,0.661,43.1,1694.014,0c1c1c64,3,0,36764749.699,0.040,-155563682.881017,0.005,0.614,48.3,1694.014,06a41c60,7,0,36822263.727,0.053,-191743178.701953,0.006,1208.392,46.4,1694.014,081c1c84,7,0,36822244.022,0.060,-155806960.906558,0.006,981.893,45.5,1693.014,02a41c80,10,0,37748895.678,0.074,-196568422.048159,0.007,1323.668,43.7,1694.014,081c1ca4,10,0,37748880.587,0.107,-151999109.258243,0.009,1023.532,39.7,1693.014,023c1cab,10,0,37748879.797,0.109,-159727874.019857,0.009,1075.666,39.4,1694.014,02a41ca0,11,0,25512805.221,0.093,-132851882.813955,0.008,-3057.639,41.4,74.000,081c1cc4,11,0,25512791.017,0.460,-107952949.316723,0.047,-2484.289,28.9,386.000,02a41cc0,4,0,38911885.069,0.657,-202624396.652741,0.150,-36.227,31.9,0.000,0c1c10e4,4,0,38911868.689,0.111,-164648844.269254,0.009,-28.890,39.2,1647.000,06a41ce0*851f0812
#BESTPOSA,COM1,0,98.0,FINE,2427,458507.000,1699730,61346,18;SOL_COMPUTED,SINGLE,34.36857299232,109.22192481486,499.7238,-33.6674,WGS84,21.6628,6.2219,14.3760,"",0.000,0.000,12,7,0,5,0,06,00,5b*f7c46949
#RANGEA,COM1,0,98.0,FINE,2427,458508.000,1700730,2,18;28,18,0,21172447.761,0.067,-111261958.009331,0.007,-2483.418,44.6,1691.014,08181c24,18,0,21172445.595,0.117,-86697608.772915,0.010,-1935.376,41.7,1687.014,01301c2b,18,0,21172450.743,0.040,-83085229.239457,0.005,-1854.469,48.2,1691.014,01d01c20,32,0,23444882.083,0.192,-123203677.242508,0.019,2137.760,32.0,844.000,08181c44,32,0,23444882.314,1.488,-96002926.652196,0.150,1666.652,27.5,3.000,01301c4b,32,0,23444886.069,0.170,-92002767.322690,0.016,1596.320,33.8,844.000,01d01c40,13,0,23949298.876,0.081,-125854426.208881,0.008,2640.279,42.8,767.000,08181da4,13,0,23949299.540,0.206,-98068395.406098,0.021,2057.338,36.3,736.000,01301dab,13,0,23949304.610,0.119,-93982237.640283,0.010,1971.695,38.1,761.000,01d01da0,58,11,21015221.699,0.040,-112456675.612757,0.005,-3431.730,52.3,1669.000,08191c44,58,11,21015207.474,0.083,-87466232.248779,0.008,-2669.148,42.6,1669.000,00b91c4b,46,5,22540246.538,0.051,-120363685.489452,0.006,3926.747,46.6,833.000,08191d04,46,5,22540241.684,0.091,-93616167.119877,0.008,3054.112,41.7,829.000,00b91d0b,1,0,37766987.115,0.041,-196662606.436338,0.005,-14.174,47.9,1696.014,0c1c1c24,1,0,37766970.555,0.042,-159804405.807390,0.005,-11.560,47.8,1695.014,06a41c20,2,0,37485419.554,0.054,-195196407.145926,0.006,18.549,46.3,1696.014,0c1c1c44,2,0,37485389.677,0.065,-158612947.924733,0.007,15.053,44.9,1695.014,06a41c40,3,0,36764775.252,0.078,-191443821.720947,0.007,0.407,43.2,1695.014,0c1c1c64,3,0,36764749.607,0.040,-155563682.443504,0.005,0.368,48.3,1695.014,06a41c60,7,0,36822031.671,0.052,-191741970.540018,0.006,1208.072,46.5,1695.014,081c1c84,7,0,36822011.946,0.060,-155805979.167923,0.006,981.669,45.5,1694.014,02a41c80,10,0,37748641.612,0.073,-196567098.621987,0.007,1323.355,43.9,1695.014,081c1ca4,10,0,37748626.501,0.107,-151998085.876444,0.009,1023.323,39.7,1694.014,023c1cab,10,0,37748625.590,0.109,-159726798.628847,0.009,1075.353,39.4,1695.014,02a41ca0,11,0,25513392.445,0.092,-132854940.574022,0.008,-3057.781,41.5,75.000,081c1cc4,11,0,25513378.224,0.436,-107955434.020871,0.045,-2484.706,28.9,387.000,02a41cc0,4,0,38911892.120,0.500,-202624433.400686,0.049,-32.755,32.6,1.000,0c1c1ce4,4,0,38911875.503,0.111,-164648873.284944,0.009,-29.024,39.2,1648.000,06a41ce0*0e9f7b26
#BESTPOSA,COM1,0,98.0,FINE,2427,458508.000,1700730,62346,18;SOL_COMPUTED,SINGLE,34.36857635354,109.22192302139,499.4792,-33.6674,WGS84,21.6414,6.2164,14.3436,"",0.000,0.000,12,7,0,5,0,06,00,5b*37f7e821
#RANGEA,COM1,0,98.0,FINE,2427,458509.000,1701730,2,18;28,18,0,21172920.369,0.067,-111264441.733530,0.007,-2483.172,44.7,1692.014,08181c24,18,0,21172918.059,0.117,-86699544.140544,0.010,-1935.309,41.7,1688.014,01301c2b,18,0,21172923.420,0.040,-83087083.971985,0.005,-1854.312,48.3,1692.014,01d01c20,32,0,23444475.350,0.191,-123201539.616195,0.019,2138.371,32.1,845.000,08181c44,32,0,23444475.447,1.005,-96001260.908398,0.112,1661.995,27.2,4.000,01301c4b,32,0,23444479.295,0.169,-92001171.082672,0.016,1596.677,33.9,845.000,01d01c40,13,0,23948796.517,0.080,-125851786.004451,0.007,2640.964,43.1,768.000,08181da4,13,0,23948797.729,0.206,-98066338.109017,0.021,2057.509,36.3,737.000,01301dab,13,0,23948802.129,0.118,-93980266.076810,0.010,1972.075,38.3,762.000,01d01da0,58,11,21015863.008,0.040,-112460107.679369,0.005,-3431.477,52.1,1670.000,08191c44,58,11,21015848.862,0.083,-87468901.622321,0.008,-2668.880,42.6,1670.000,00b91c4b,46,5,22539511.191,0.054,-120359758.798624,0.006,3927.469,46.2,834.000,08191d04,46,5,22539506.437,0.090,-93613113.033132,0.008,3054.678,41.8,830.000,00b91d0b,1,0,37766989.946,0.041,-196662620.683711,0.005,-13.324,47.9,1697.014,0c1c1c24,1,0,37766973.297,0.043,-159804417.382075,0.005,-10.875,47.6,1696.014,06a41c20,2,0,37485416.048,0.054,-195196388.632560,0.006,19.391,46.2,1697.014,0c1c1c44,2,0,37485386.139,0.067,-158612932.889656,0.007,15.694,44.6,1696.014,06a41c40,3,0,36764775.056,0.078,-191443821.245101,0.007,1.279,43.2,1696.014,0c1c1c64,3,0,36764749.559,0.040,-155563682.057117,0.005,1.136,48.1,1696.014,06a41c60,7,0,36821799.621,0.052,-191740762.594678,0.006,1208.713,46.5,1696.014,081c1c84,7,0,36821779.919,0.062,-155804997.616604,0.006,982.169,45.3,1695.014,02a41c80,10,0,37748387.566,0.072,-196565775.368624,0.007,1323.995,44.0,1696.014,081c1ca4,10,0,37748372.478,0.107,-151997062.656903,0.009,1023.859,39.7,1695.014,023c1cab,10,0,37748371.553,0.110,-159725723.372231,0.009,1075.942,39.2,1696.014,02a41ca0,11,0,25513979.752,0.092,-132857998.410964,0.008,-3057.065,41.5,76.000,081c1cc4,11,0,25513965.682,0.230,-107957918.720024,0.024,-2483.953,28.8,388.000,02a41cc0,4,0,38911899.151,0.643,-202624469.189013,0.063,-35.870,32.7,2.000,0c1c1ce4,4,0,38911882.253,0.112,-164648902.376093,0.010,-28.413,39.0,1649.000,06a41ce0*295ba73b
#BESTPOSA,COM1,0,98.0,FINE,2427,458509.000,1701730,63346,18;SOL_COMPUTED,SINGLE,34.36857771569,109.22192226190,499.3321,-33.6674,WGS84,21.6210,6.2111,14.3125,"",0.000,0.000,12,7,0,5,0,06,00,5b*09d14922
#RANGEA,COM1,0,98.0,FINE,2427,458510.000,1702730,1,18;28,18,0,21173392.872,0.066,-111266924.859820,0.007,-2483.284,44.8,1693.014,08181c24,18,0,21173390.641,0.117,-86701479.055364,0.010,-1935.019,41.7,1689.014,01301c2b,18,0,21173395.937,0.040,-83088938.253597,0.005,-1854.432,48.3,1693.014,01d01c20,32,0,23444068.626,0.189,-123199401.137510,0.019,2138.400,32.2,846.000,08181c44,32,0,23444068.418,1.835,-95999594.726011,0.150,1666.682,27.6,0.000,0130104b,32,0,23444072.404,0.168,-91999574.109458,0.016,1596.901,34.0,846.000,01d01c40,13,0,23948293.934,0.077,-125849144.778025,0.007,2641.277,43.4,769.000,08181da4,13,0,23948295.181,0.208,-98064280.015022,0.021,2057.882,36.2,738.000,01301dab,13,0,23948299.613,0.117,-93978293.732962,0.010,1972.313,38.4,763.000,01d01da0,58,11,21016504.213,0.040,-112463539.116910,0.005,-3431.633,52.0,1671.000,08191c44,58,11,21016489.961,0.082,-87471570.513531,0.008,-2669.029,42.7,1671.000,00b91c4b,46,5,22538775.679,0.054,-120355831.106773,0.006,3927.685,46.3,835.000,08191d04,46,5,22538771.061,0.090,-93610058.170748,0.008,3054.865,41.8,831.000,00b91d0b,1,0,37766992.423,0.040,-196662633.822348,0.005,-13.101,48.0,1698.014,0c1c1c24,1,0,37766975.839,0.043,-159804428.052379,0.005,-10.614,47.7,1697.014,06a41c20,2,0,37485412.279,0.054,-195196369.031330,0.006,19.682,46.3,1698.014,0c1c1c44,2,0,37485382.314,0.067,-158612916.953478,0.007,15.970,44.7,1697.014,06a41c40,3,0,36764774.712,0.078,-191443819.658306,0.007,1.733,43.2,1697.014,0c1c1c64,3,0,36764749.271,0.040,-155563680.796292,0.005,1.277,48.2,1697.014,06a41c60,7,0,36821567.439,0.052,-191739553.683326,0.006,1208.944,46.5,1697.014,081c1c84,7,0,36821547.711,0.061,-155804015.284993,0.006,982.325,45.4,1696.014,02a41c80,10,0,37748133.354,0.072,-196564451.149904,0.007,1324.204,44.0,1697.014,081c1ca4,10,0,37748118.233,0.106,-151996038.683557,0.009,1024.008,39.8,1696.014,023c1cab,10,0,37748117.349,0.109,-159724647.352616,0.009,1076.009,39.3,1697.014,02a41ca0,11,0,25514566.759,0.092,-132861055.108255,0.008,-3056.603,41.5,77.000,081c1cc4,11,0,25514552.739,0.348,-107960402.537426,0.036,-2483.625,28.7,389.000,02a41cc0,4,0,38911906.310,0.474,-202624503.885801,0.046,-35.177,32.8,3.000,0c1c1ce4,4,0,38911889.046,0.112,-164648930.581637,0.009,-28.138,39.0,1650.000,06a41ce0*797ad239
#BD2EPHEMA,COM1,0,98.0,FINE,2427,458510.000,1702730,3,18;1,458460.0,0,1,1,2427,2427,457200.0,4.216484424e+07,8.587143403e-09,2.467598034e-01,4.9869460054e-04,-1.0259545066e+00,1.001125202e-05,-2.897717059e-05,8.96718750e+02,3.03515625e+02,-1.639127731e-07,-1.420266926e-07,8.3237810686e-02,1.325055194e-10,-1.135299470e+00,-7.79282460e-09,1,457200.0,4.500000000e-09,4.500000000e-09,-8.97096e-07,-9.68114e-14,0.00000e+00,TRUE,7.292799568e-05,4.00000000e+00*200e9911
#BD2EPHEMA,COM1,0,98.0,FINE,2427,458510.000,1702730,3,18;2,458460.0,0,1,1,2427,2427,457200.0,4.216440783e+07,1.100903000e-08,2.327984374e-01,1.9412219990e-04,-1.7878021422e+00,2.733990550e-05,-1.480896026e-05,4.54687500e+02,8.44875000e+02,2.468004823e-08,-5.494803190e-08,3.7019452134e-02,1.014327965e-10,-1.408240027e+00,-1.01357793e-08,1,457200.0,4.730000000e-08,4.730000000e-08,1.10711e-07,-6.66134e-14,0.00000e+00,TRUE,7.293154966e-05,4.00000000e+00*c45ccf3b
#BD2EPHEMA,COM1,0,98.0,FINE,2427,458510.000,1702730,3,18;3,458460.0,0,1,1,2427,2427,457200.0,4.216343134e+07,8.780722895e-09,2.307503859e+00,2.2303336300e-04,-3.1184752154e+00,3.249663860e-05,-3.780238330e-06,1.16218750e+02,1.00879688e+03,-1.862645149e-08,-9.406358004e-08,5.2028919945e-02,2.246522148e-10,-1.620817503e+00,-7.80318218e-09,1,457200.0,3.530000000e-08,3.530000000e-08,-1.95461e-07,-1.06581e-14,0.00000e+00,TRUE,7.293185459e-05,4.00000000e+00*06a102af
#BD2EPHEMA,COM1,0,98.0,FINE,2427,458510.000,1702730,4,18;4,458460.0,0,1,1,2427,2427,457200.0,4.216463941e+07,6.153827760e-09,1.837648564e+00,8.0972572323e-04,-1.5548770249e+00,3.098370507e-05,5.797948688e-06,-1.73375000e+02,9.57359375e+02,2.216547728e-07,-8.754432201e-08,7.2531381817e-02,2.960837616e-10,-1.852000680e+00,-5.37415243e-09,1,457200.0,4.170000000e-08,4.170000000e-08,-6.47851e-07,-1.35891e-13,0.00000e+00,TRUE,7.292609371e-05,4.00000000e+00*2ddb9d9b
#BD2EPHEMA,COM1,0,98.0,FINE,2427,458510.000,1702730,4,18;7,458460.0,0,1,1,2427,2427,457200.0,4.216887319e+07,7.807468070e-10,2.543634722e+00,3.8400654448e-03,-2.5433191344e+00,-6.224960089e-06,3.769667819e-05,-9.31312500e+02,-2.10890625e+02,2.281740308e-08,1.941807568e-07,9.6434510873e-01,7.789610183e-10,-2.291725621e+00,-1.60399538e-09,1,457200.0,6.400000000e-09,6.400000000e-09,-2.80505e-05,-6.91891e-13,0.00000e+00,TRUE,7.290973911e-05,4.00000000e+00*19a21b91
#BD2EPHEMA,COM1,0,98.0,FINE,2427,458510.000,1702730,4,18;10,458460.0,0,1,1,2427,2427,457200.0,4.215825776e+07,8.900370736e-10,1.927052763e+00,1.0684675421e-02,-2.1466118079e+00,-3.853812814e-06,3.739073873e-05,-9.30328125e+02,-1.45062500e+02,-5.355104804e-08,1.736916602e-07,9.6358071502e-01,8.889656004e-10,-2.218140242e+00,-1.65864052e-09,1,457200.0,-2.900000000e-09,4.800000000e-09,-7.65745e-04,4.29523e-12,0.00000e+00,TRUE,7.293738778e-05,4.00000000e+00*826e0e52
#BD2EPHEMA,COM1,0,98.0,FINE,2427,458510.000,1702730,4,18;11,458460.0,0,1,1,2427,2427,457200.0,2.790631027e+07,3.974451266e-09,-2.133534951e+00,1.5055504628e-04,-6.3421900364e-01,-5.415640771e-07,1.129833981e-05,1.22875000e+02,-8.56250000e+00,-2.095475793e-08,-6.519258022e-08,9.5058480034e-01,-7.003863168e-10,1.972808052e-01,-6.81992693e-09,1,457200.0,2.900000000e-09,2.900000000e-09,-7.81530e-04,-2.15978e-11,0.00000e+00,TRUE,1.354340934e-04,4.00000000e+00*3bbbee01
#GLOEPHEMERISA,COM1,0,98.0,FINE,2427,458510.000,1702730,4,18;46,5,1,0,2427,458118000,10782,929,0,0,41,0,-1.664370556640625e+07,1.703099316406250e+07,-9.239939453125000e+06,-9.863138198852539e+02,7.996044158935547e+02,3.232329368591309e+03,0.000000000000000,3.725290298461914e-06,1.862645149230957e-06,-3.386838361620903e-04,-3.725290298e-09,2.728484105318785e-12,36480,2,4,0,12*41887245
#GLOEPHEMERISA,COM1,0,98.0,FINE,2427,458510.000,1702730,5,18;53,6,1,0,2427,458118000,10782,929,0,0,41,0,-2.222642480468750e+07,9.201479003906250e+06,8.562996582031250e+06,1.076228141784668e+03,-4.843273162841797e+02,3.316510200500488e+03,0.000000931322575,3.725290298461914e-06,-0.000000000000000e+00,-5.223695188760757e-05,3.725290298e-09,9.094947017729282e-13,36000,2,3,0,13*5c1ba2a0
#GLOEPHEMERISA,COM1,0,98.0,FINE,2427,458510.000,1702730,5,18;57,9,1,0,2427,458118000,10782,929,0,0,41,2,-6.310500976562500e+06,2.085372460937500e+07,-1.327550878906250e+07,1.391515731811523e+02,-1.819747924804688e+03,-2.917770385742188e+03,-0.000000931322575,2.793967723846436e-06,2.793967723846436e-06,-2.353535965085030e-04,1.862645149e-09,9.094947017729282e-13,36000,2,5,0,13*ae40ebfb
#GLOEPHEMERISA,COM1,0,98.0,FINE,2427,458510.000,1702730,5,18;58,11,1,0,2427,458118000,10782,929,0,0,41,0,1.031904296875000e+06,2.544447802734375e+07,1.047403320312500e+06,2.039680480957031e+02,1.397247314453125e+02,-3.588834762573242e+03,-0.000001862645149,4.656612873077393e-06,1.862645149230957e-06,3.266036510467529e-04,9.313225746e-10,-3.637978807091713e-12,36000,2,3,0,13*87da067d
#GALEPHEMERISA,COM1,0,98.0,FINE,2427,458510.000,1702730,5,18;3,TRUE,TRUE,0,0,0,0,0,0,107,0,106,444600,5.44062508e+03,3.0698e-09,-1.37512800e-01,5.381962983e-04,6.116954414e-01,-8.9407e-06,6.1784e-06,2.134e+02,-1.913e+02,4.2841e-08,8.9407e-08,9.693739774e-01,-3.2787e-10,2.974739399e+00,-5.79059834e-09,444600,-2.906436566e-05,-2.231104e-12,0.0e+00,444600,-2.906395821e-05,-2.231104e-12,0.0e+00,6.985e-10,1.164e-09*e0bbf3cc
#GALEPHEMERISA,COM1,0,98.0,FINE,2427,458510.000,1702730,5,18;7,TRUE,TRUE,0,0,0,0,0,0,107,0,126,456600,5.44062460e+03,2.9858e-09,2.57858937e-01,4.423354985e-04,1.332024230e-01,-8.5216e-06,5.8562e-06,2.173e+02,-1.862e+02,3.5390e-08,1.3225e-07,9.694106074e-01,-3.4859e-10,2.974757353e+00,-5.76274004e-09,456600,-7.764564361e-05,-2.629008e-12,0.0e+00,456600,-7.764500333e-05,-2.629008e-12,0.0e+00,2.328e-09,3.027e-09*d81a0ab8
#GPSEPHEM,98,GPS,FINE,2427,458510000,0,0,18,6;5,458490.0,0,58,58,2427,2427,460800.0,2.656135139e+07,4.214104106e-09,2.226328716e+00,5.6083553936e-03,1.4792356767e+00,4.317611456e-06,3.721565008e-06,3.17750000e+02,8.58125000e+01,1.695007086e-07,-1.862645149e-08,9.8106000694e-01,2.403671551e-10,1.683166030e+00,-8.11748098e-09,58,460800.0,-1.071020961e-08,-2.3516361e-04,-3.4106051e-13,0.0000000e+00,TRUE,1.458499273e-04,4.00000000e+00*74ab5b01
#GPSEPHEM,98,GPS,FINE,2427,458510000,0,0,18,6;11,444600.0,0,12,12,2427,2427,451776.0,2.656014111e+07,4.180888436e-09,-8.129319172e-02,2.4743376998e-03,-2.3562128981e+00,4.094094038e-06,1.173838973e-05,1.54125000e+02,8.00625000e+01,2.980232239e-08,2.980232239e-08,9.6283573130e-01,-2.085801168e-10,7.226579782e-01,-7.92497296e-09,780,451776.0,-8.847564459e-09,-2.7231080e-04,1.2278178e-11,0.0000000e+00,TRUE,1.458598630e-04,4.00000000e+00*8345604d
#GPSEPHEM,98,GPS,FINE,2427,458510000,0,0,18,6;13,458490.0,63,230,230,2427,2427,460800.0,2.655943862e+07,5.011280169e-09,-1.718977935e+00,2.2722226568e-03,1.8219148185e+00,2.501532435e-06,6.977468729e-06,2.47531250e+02,4.52812500e+01,1.862645149e-08,7.078051567e-08,9.5873745407e-01,5.475228065e-10,-1.452631793e+00,-8.26320134e-09,998,460800.0,-8.381903172e-09,4.1671516e-04,5.1159077e-12,0.0000000e+00,TRUE,1.458664802e-04,4.00000000e+00*5238cf71
#GPSEPHEM,98,GPS,FINE,2427,458510000,0,0,18,6;18,458460.0,0,224,224,2427,2427,460800.0,2.655985925e+07,4.070526697e-09,-1.944115577e-02,6.2770525692e-03,-2.8615127449e+00,2.905726433e-06,1.190975308e-05,1.52687500e+02,6.00000000e+01,3.725290298e-08,2.421438694e-08,9.7091984733e-01,-2.935836575e-10,6.998460821e-01,-7.87782814e-09,224,460800.0,-8.381903172e-09,-3.0233199e-04,9.0949470e-12,0.0000000e+00,TRUE,1.458620744e-04,4.00000000e+00*74b1db18
#GPSEPHEM,98,GPS,FINE,2427,458510000,0,0,18,6;32,458490.0,0,9,9,2427,2427,460800.0,2.655931634e+07,4.320179953e-09,2.586632939e+00,9.4512887299e-03,-1.9712419518e+00,-5.267560482e-06,4.198402166e-06,3.00812500e+02,-1.02625000e+02,8.568167686e-08,-4.842877388e-08,9.6969421310e-01,-2.546534645e-10,2.765527363e+00,-8.09462289e-09,9,460800.0,9.313225746e-10,1.6815169e-04,2.0349944e-11,0.0000000e+00,TRUE,1.458667964e-04,4.00000000e+00*853149f1
#BESTPOSA,COM1,0,98.0,FINE,2427,458510.000,1702730,64349,18;SOL_COMPUTED,SINGLE,34.36857872209,109.22192185037,499.1733,-33.6674,WGS84,21.4832,6.1967,14.2136,"",0.000,0.000,12,7,0,5,0,06,00,5b*efbf3a1a
#RANGEA,COM1,0,98.0,FINE,2427,458511.000,1703730,2,18;28,18,0,21173865.561,0.065,-111269408.552921,0.007,-2483.791,44.8,1694.014,08181c24,18,0,21173863.363,0.118,-86703414.385420,0.010,-1935.421,41.6,1690.014,01301c2b,18,0,21173868.540,0.040,-83090792.947233,0.005,-1854.737,48.2,1694.014,01d01c20,32,0,23443661.869,0.188,-123197262.775933,0.018,2138.490,32.4,847.000,08181c44,32,0,23443660.950,1.127,-95997928.425826,0.124,1666.771,28.3,1.000,01301c4b,32,0,23443665.350,0.167,-91997977.328275,0.016,1596.797,34.1,847.000,01d01c40,13,0,23947791.485,0.077,-125846503.708807,0.007,2641.240,43.3,770.000,08181da4,13,0,23947792.195,0.207,-98062222.040684,0.021,2058.195,36.3,739.000,01301dab,13,0,23947797.005,0.118,-93976321.494392,0.010,1972.403,38.2,764.000,01d01da0,58,11,21017145.574,0.040,-112466971.110976,0.005,-3432.080,52.0,1672.000,08191c44,58,11,21017131.327,0.084,-87474239.844985,0.008,-2669.401,42.5,1672.000,00b91c4b,46,5,22538040.194,0.055,-120351903.591508,0.006,3927.596,46.2,836.000,08191d04,46,5,22538035.609,0.090,-93607003.435736,0.008,3054.783,41.8,832.000,00b91d0b,1,0,37766994.922,0.042,-196662647.020664,0.005,-13.056,47.8,1699.014,0c1c1c24,1,0,37766978.385,0.042,-159804438.779413,0.005,-10.621,47.7,1698.014,06a41c20,2,0,37485408.514,0.055,-195196349.501503,0.006,19.660,46.1,1699.014,0c1c1c44,2,0,37485378.575,0.066,-158612901.079826,0.007,16.037,44.7,1698.014,06a41c40,3,0,36764774.380,0.079,-191443818.172079,0.007,1.733,43.1,1698.014,0c1c1c64,3,0,36764748.978,0.040,-155563679.581975,0.005,1.344,48.2,1698.014,06a41c60,7,0,36821335.281,0.053,-191738344.977052,0.006,1208.832,46.4,1698.014,081c1c84,7,0,36821315.514,0.061,-155803033.113166,0.006,982.251,45.4,1697.014,02a41c80,10,0,37747879.190,0.072,-196563127.076321,0.007,1324.241,44.0,1698.014,081c1ca4,10,0,37747864.000,0.106,-151995014.847213,0.009,1023.941,39.7,1697.014,023c1cab,10,0,37747863.186,0.109,-159723571.438248,0.009,1075.934,39.4,1698.014,02a41ca0,11,0,25515153.744,0.094,-132864111.841278,0.008,-3056.618,41.3,78.000,081c1cc4,11,0,25515140.065,0.533,-107962886.385826,0.055,-2483.298,28.7,390.000,02a41cc0,4,0,38911912.986,0.658,-202624542.636695,0.150,-34.707,32.3,0.000,0c1c10e4,4,0,38911895.607,0.111,-164648958.827429,0.009,-28.018,39.1,1651.000,06a41ce0*a8337ac3
#BESTPOSA,COM1,0,98.0,FINE,2427,458511.000,1703730,65346,18;SOL_COMPUTED,SINGLE,34.36857947697,109.22192159304,498.9982,-33.6674,WGS84,21.4642,6.1918,14.1845,"",0.000,0.000,12,7,0,5,0,06,00,5b*640ece5b
#RANGEA,COM1,0,98.0,FINE,2427,458512.000,1704730,2,18;28,18,0,21174338.266,0.064,-111271892.527489,0.007,-2484.119,45.0,1695.014,08181c24,18,0,21174335.984,0.118,-86705349.950660,0.010,-1936.039,41.6,1691.014,01301c2b,18,0,21174341.192,0.040,-83092647.857309,0.005,-1854.990,48.1,1695.014,01d01c20,32,0,23443254.968,0.187,-123195124.436015,0.018,2138.423,32.4,848.000,08181c44,32,0,23443254.015,1.011,-95996262.215342,0.112,1666.287,27.8,2.000,01301c4b,32,0,23443258.520,0.168,-91996380.489205,0.016,1596.729,34.0,848.000,01d01c40,13,0,23947288.941,0.074,-125843862.485212,0.007,2641.285,43.7,771.000,08181da4,13,0,23947289.509,0.207,-98060163.941772,0.021,2058.254,36.3,740.000,01301dab,13,0,23947294.428,0.118,-93974349.169544,0.010,1972.365,38.3,765.000,01d01da0,58,11,21017786.892,0.040,-112470403.394593,0.005,-3432.378,52.0,1673.000,08191c44,58,11,21017772.745,0.082,-87476909.381683,0.008,-2669.617,42.7,1673.000,00b91c4b,46,5,22537304.679,0.055,-120347975.968698,0.006,3927.656,46.1,837.000,08191d04,46,5,22537300.179,0.089,-93603948.626620,0.008,3054.842,41.9,833.000,00b91d0b,1,0,37766997.348,0.041,-196662659.989249,0.005,-12.847,47.8,1700.014,0c1c1c24,1,0,37766980.869,0.042,-159804449.313699,0.005,-10.420,47.8,1699.014,06a41c20,2,0,37485404.720,0.055,-195196329.741185,0.006,19.838,46.1,1700.014,0c1c1c44,2,0,37485374.947,0.065,-158612885.024965,0.007,16.149,44.8,1699.014,06a41c40,3,0,36764774.091,0.079,-191443816.461501,0.007,1.838,43.1,1699.014,0c1c1c64,3,0,36764748.642,0.040,-155563678.185214,0.005,1.478,48.3,1699.014,06a41c60,7,0,36821103.062,0.053,-191737136.183493,0.006,1208.862,46.3,1699.014,081c1c84,7,0,36821083.325,0.060,-155802050.870560,0.006,982.273,45.5,1698.014,02a41c80,10,0,37747624.999,0.072,-196561802.906759,0.007,1324.241,44.0,1699.014,081c1ca4,10,0,37747609.697,0.107,-151993990.918347,0.009,1023.912,39.6,1698.014,023c1cab,10,0,37747608.948,0.107,-159722495.454515,0.009,1075.994,39.6,1699.014,02a41ca0,11,0,25515740.674,0.094,-132867168.336173,0.008,-3056.357,41.2,79.000,081c1cc4,11,0,25515727.222,0.298,-107965369.957650,0.031,-2483.342,28.9,391.000,02a41cc0,4,0,38911919.901,0.417,-202624578.172148,0.150,-34.707,32.9,0.000,0c1c10e4,4,0,38911902.304,0.110,-164648986.915268,0.009,-28.003,39.2,1652.000,06a41ce0*0a606e0f
#BESTPOSA,COM1,0,98.0,FINE,2427,458512.000,1704730,810,18;SOL_COMPUTED,SINGLE,34.36858002633,109.22192151691,498.8352,-33.6675,WGS84,21.4460,6.1871,14.1565,"",0.000,0.000,12,7,0,5,0,06,00,5b*b9b38a66
#RANGEA,COM1,0,98.0,FINE,2427,458513.000,1705730,2,18;28,18,0,21174811.193,0.062,-111274377.176306,0.006,-2485.512,45.2,1696.014,08181c24,18,0,21174808.794,0.118,-86707286.023323,0.010,-1936.747,41.6,1692.014,01301c2b,18,0,21174813.946,0.040,-83094503.274143,0.005,-1856.026,48.2,1696.014,01d01c20,32,0,23442847.998,0.187,-123192986.390637,0.018,2137.409,32.4,849.000,08181c44,32,0,23442847.445,1.086,-95994596.147693,0.120,1663.977,27.7,3.000,01301c4b,32,0,23442851.624,0.166,-91994783.932456,0.016,1595.977,34.1,849.000,01d01c40,13,0,23946786.401,0.073,-125841221.522760,0.007,2640.271,43.8,772.000,08181da4,13,0,23946787.283,0.209,-98058106.052519,0.021,2057.025,36.1,741.000,01301dab,13,0,23946791.920,0.117,-93972377.018220,0.010,1971.769,38.4,766.000,01d01da0,58,11,21018428.398,0.040,-112473836.368574,0.005,-3433.831,51.9,1674.000,08191c44,58,11,21018414.299,0.082,-87479579.483881,0.008,-2670.802,42.8,1674.000,00b91c4b,46,5,22536569.214,0.056,-120344048.653456,0.006,3926.635,46.0,838.000,08191d04,46,5,22536564.769,0.088,-93600894.044244,0.008,3054.112,42.0,834.000,00b91d0b,1,0,37766999.971,0.041,-196662673.124965,0.005,-13.674,47.9,1701.014,0c1c1c24,1,0,37766983.446,0.041,-159804460.001974,0.005,-11.202,47.8,1700.014,06a41c20,2,0,37485400.878,0.055,-195196310.154831,0.006,18.989,46.1,1701.014,0c1c1c44,2,0,37485371.109,0.065,-158612869.112268,0.007,15.419,44.8,1700.014,06a41c40,3,0,36764773.768,0.079,-191443814.916436,0.007,0.951,43.1,1700.014,0c1c1c64,3,0,36764748.384,0.040,-155563676.925433,0.005,0.786,48.3,1700.014,06a41c60,7,0,36820870.908,0.053,-191735927.704514,0.006,1207.833,46.3,1700.014,081c1c84,7,0,36820851.196,0.060,-155801068.880103,0.006,981.453,45.5,1699.014,02a41c80,10,0,37747370.812,0.071,-196560479.012616,0.007,1323.228,44.1,1700.014,081c1ca4,10,0,37747355.572,0.107,-151992967.178026,0.009,1023.315,39.6,1699.014,023c1cab,10,0,37747354.649,0.107,-159721419.662769,0.009,1075.264,39.6,1700.014,02a41ca0,11,0,25516327.675,0.094,-132870224.955333,0.008,-3057.222,41.2,80.000,081c1cc4,11,0,25516313.974,0.322,-107967853.735203,0.033,-2483.998,28.8,392.000,02a41cc0,4,0,38911927.083,0.419,-202624615.931326,0.150,-34.707,32.8,0.000,0c1c10e4,4,0,38911909.025,0.110,-164649015.119382,0.009,-28.726,39.3,1653.000,06a41ce0*dc8b6cdf
#BESTPOSA,COM1,0,98.0,FINE,2427,458513.000,1705730,1810,18;SOL_COMPUTED,SINGLE,34.36858072288,109.22192140792,498.6377,-33.6675,WGS84,21.4287,6.1826,14.1296,"",0.000,0.000,12,7,0,5,0,06,00,5b*2d363997
#RANGEA,COM1,0,98.0,FINE,2427,458514.000,1706730,2,18;28,18,0,21175284.274,0.062,-111276862.692407,0.006,-2486.086,45.2,1697.014,08181c24,18,0,21175281.751,0.117,-86709222.786296,0.010,-1937.068,41.7,1693.014,01301c2b,18,0,21175286.945,0.040,-83096359.345414,0.005,-1856.510,48.2,1697.014,01d01c20,32,0,23442441.279,0.189,-123190848.943134,0.019,2137.082,32.3,850.000,08181c44,32,0,23442440.567,1.340,-95992930.619783,0.148,1664.819,27.6,4.000,01301c4b,32,0,23442444.954,0.165,-91993187.774327,0.016,1595.873,34.2,850.000,01d01c40,13,0,23946283.944,0.076,-125838581.018072,0.007,2640.197,43.5,773.000,08181da4,13,0,23946285.195,0.211,-98056048.531473,0.021,2057.196,36.0,742.000,01301dab,13,0,23946289.348,0.117,-93970405.222288,0.010,1971.568,38.3,767.000,01d01da0,58,11,21019070.015,0.040,-112477270.253273,0.005,-3434.494,51.9,1675.000,08191c44,58,11,21019056.045,0.081,-87482250.255316,0.008,-2671.197,42.9,1675.000,00b91c4b,46,5,22535833.760,0.055,-120340121.832384,0.006,3926.441,46.2,839.000,08191d04,46,5,22535829.364,0.087,-93597839.868364,0.008,3053.881,42.1,835.000,00b91d0b,1,0,37767002.539,0.040,-196662686.646577,0.005,-13.823,48.0,1702.014,0c1c1c24,1,0,37766985.993,0.041,-159804470.976381,0.005,-11.240,47.9,1701.014,06a41c20,2,0,37485397.174,0.054,-195196290.944582,0.006,18.914,46.2,1702.014,0c1c1c44,2,0,37485367.379,0.065,-158612853.503418,0.007,15.337,44.9,1701.014,06a41c40,3,0,36764773.563,0.078,-191443813.746055,0.007,0.899,43.2,1701.014,0c1c1c64,3,0,36764748.078,0.040,-155563675.969195,0.005,0.711,48.4,1701.014,06a41c60,7,0,36820638.850,0.052,-191734719.730147,0.006,1207.588,46.5,1701.014,081c1c84,7,0,36820619.209,0.060,-155800087.289221,0.006,981.297,45.5,1700.014,02a41c80,10,0,37747116.683,0.070,-196559155.587577,0.007,1323.064,44.2,1701.014,081c1ca4,10,0,37747101.260,0.107,-151991943.839455,0.009,1023.062,39.6,1700.014,023c1cab,10,0,37747100.573,0.107,-159720344.269390,0.009,1075.100,39.6,1701.014,02a41ca0,11,0,25516914.847,0.094,-132873281.939132,0.008,-3057.311,41.3,81.000,081c1cc4,11,0,25516900.965,0.415,-107970337.869832,0.043,-2484.773,28.8,393.000,02a41cc0,4,0,38911933.374,0.428,-202624648.031458,0.041,-34.707,33.2,1.000,0c1c1ce4,4,0,38911915.856,0.110,-164649043.627195,0.009,-28.771,39.3,1654.000,06a41ce0*1c807874
#BESTPOSA,COM1,0,98.0,FINE,2427,458514.000,1706730,2810,18;SOL_COMPUTED,SINGLE,34.36858143219,109.22192114085,498.4156,-33.6675,WGS84,21.4121,6.1782,14.1037,"",0.000,0.000,12,7,0,5,0,06,00,5b*c463d286
#RANGEA,COM1,0,98.0,FINE,2427,458515.000,1707730,2,18;28,18,0,21175757.538,0.062,-111279349.196581,0.006,-2486.905,45.2,1698.014,08181c24,18,0,21175754.713,0.117,-86711160.325688,0.010,-1937.738,41.7,1694.014,01301c2b,18,0,21175760.135,0.040,-83098216.153883,0.005,-1857.136,48.1,1698.014,01d01c20,32,0,23442034.209,0.192,-123188712.085669,0.019,2136.746,32.0,851.000,08181c44,32,0,23442033.908,1.904,-95991265.639249,0.150,1667.002,27.2,5.000,01301c4b,32,0,23442038.356,0.167,-91991592.087039,0.016,1595.277,34.1,851.000,01d01c40,13,0,23945781.692,0.077,-125835941.082981,0.007,2639.728,43.3,774.000,08181da4,13,0,23945783.153,0.211,-98053991.435558,0.021,2057.122,36.0,743.000,01301dab,13,0,23945786.862,0.119,-93968433.830104,0.010,1971.307,38.1,768.000,01d01da0,58,11,21019711.827,0.040,-112480705.154276,0.005,-3435.321,51.9,1676.000,08191c44,58,11,21019698.001,0.080,-87484921.848483,0.008,-2671.920,43.0,1676.000,00b91c4b,46,5,22535098.443,0.055,-120336195.633704,0.006,3925.972,46.1,840.000,08191d04,46,5,22535094.243,0.087,-93594786.164080,0.008,3053.501,42.2,836.000,00b91d0b,1,0,37767005.234,0.041,-196662700.621437,0.005,-14.129,47.9,1703.014,0c1c1c24,1,0,37766988.725,0.041,-159804482.336505,0.005,-11.493,47.9,1702.014,06a41c20,2,0,37485393.594,0.054,-195196272.206628,0.006,18.587,46.2,1703.014,0c1c1c44,2,0,37485363.734,0.064,-158612838.277784,0.007,15.024,45.0,1702.014,06a41c40,3,0,36764773.392,0.078,-191443813.062657,0.007,0.497,43.3,1702.014,0c1c1c64,3,0,36764747.952,0.040,-155563675.415714,0.005,0.391,48.4,1702.014,06a41c60,7,0,36820406.947,0.052,-191733512.358495,0.006,1207.163,46.4,1702.014,081c1c84,7,0,36820387.329,0.060,-155799106.213115,0.006,980.872,45.5,1701.014,02a41c80,10,0,37746862.691,0.070,-196557832.751073,0.007,1322.587,44.3,1702.014,081c1ca4,10,0,37746847.171,0.107,-151990920.923748,0.009,1022.786,39.7,1701.014,023c1cab,10,0,37746846.497,0.106,-159719269.355233,0.009,1074.772,39.7,1702.014,02a41ca0,11,0,25517502.062,0.094,-132876339.352505,0.008,-3057.475,41.2,82.000,081c1cc4,11,0,25517487.963,0.507,-107972822.168490,0.052,-2484.959,28.8,394.000,02a41cc0,4,0,38911940.359,0.567,-202624683.545679,0.055,-36.905,32.8,2.000,0c1c1ce4,4,0,38911922.590,0.110,-164649072.505556,0.009,-28.965,39.3,1655.000,06a41ce0*8da6604c
#BESTPOSA,COM1,0,98.0,FINE,2427,458515.000,1707730,3810,18;SOL_COMPUTED,SINGLE,34.36857414029,109.22192402025,498.7830,-33.6674,WGS84,6.4379,3.5536,6.5931,"",0.000,0.000,12,8,0,6,0,06,00,5b*4271b6bb
#RANGEA,COM1,0,98.0,FINE,2427,458516.000,1708730,2,18;28,18,0,21176230.825,0.061,-111281835.919900,0.006,-2486.317,45.3,1699.014,08181c24,18,0,21176227.975,0.117,-86713098.025043,0.010,-1937.328,41.7,1695.014,01301c2b,18,0,21176233.343,0.040,-83100073.113762,0.005,-1856.697,48.2,1699.014,01d01c20,32,0,23441627.688,0.193,-123186575.166573,0.019,2137.499,31.9,852.000,08181c44,32,0,23441627.151,1.290,-95989600.572619,0.142,1663.426,28.4,6.000,01301c4b,32,0,23441631.522,0.166,-91989996.322022,0.016,1596.178,34.1,852.000,01d01c40,13,0,23945279.364,0.077,-125833300.945234,0.007,2640.719,43.4,775.000,08181da4,13,0,23945280.580,0.212,-98051934.178562,0.022,2057.934,36.0,744.000,01301dab,13,0,23945284.359,0.118,-93966462.304330,0.010,1972.015,38.3,769.000,01d01da0,58,11,21020353.697,0.040,-112484140.277463,0.005,-3434.740,51.8,1677.000,08191c44,58,11,21020339.909,0.080,-87487593.612711,0.007,-2671.480,43.0,1677.000,00b91c4b,46,5,22534363.033,0.057,-120332269.230256,0.006,3927.022,45.9,841.000,08191d04,46,5,22534358.982,0.087,-93591732.298726,0.008,3054.351,42.2,837.000,00b91d0b,1,0,37767007.812,0.042,-196662714.317020,0.005,-13.078,47.8,1704.014,0c1c1c24,1,0,37766991.350,0.041,-159804493.457704,0.005,-10.577,47.9,1703.014,06a41c20,2,0,37485389.920,0.056,-195196253.193257,0.006,19.607,46.0,1704.014,0c1c1c44,2,0,37485360.085,0.065,-158612822.817538,0.007,15.962,44.9,1703.014,06a41c40,3,0,36764773.148,0.080,-191443812.069890,0.007,1.629,43.0,1703.014,0c1c1c64,3,0,36764747.694,0.040,-155563674.610068,0.005,1.300,48.3,1703.014,06a41c60,7,0,36820175.003,0.054,-191732304.850326,0.006,1208.049,46.2,1703.014,081c1c84,7,0,36820155.350,0.060,-155798125.011287,0.006,981.640,45.5,1702.014,02a41c80,10,0,37746608.631,0.072,-196556509.730749,0.007,1323.623,44.0,1703.014,081c1ca4,10,0,37746593.080,0.106,-151989897.909590,0.009,1023.427,39.7,1702.014,023c1cab,10,0,37746592.484,0.106,-159718194.307695,0.009,1075.472,39.7,1703.014,02a41ca0,11,0,25518089.211,0.096,-132879396.474926,0.009,-3056.439,41.0,83.000,081c1cc4,11,0,25518075.450,0.766,-107975306.338014,0.079,-2484.162,28.6,395.000,02a41cc0,4,0,38911947.057,0.395,-202624718.836531,0.039,-35.259,32.3,3.000,0c1c1ce4,4,0,38911929.449,0.110,-164649101.202123,0.009,-28.242,39.2,1656.000,06a41ce0*182558f2
#BESTPOSA,COM1,0,98.0,FINE,2427,458516.000,1708730,4810,18;SOL_COMPUTED,SINGLE,34.36857108801,109.22192492971,498.9083,-33.6674,WGS84,6.6138,3.5722,6.6780,"",0.000,0.000,12,8,0,6,0,06,00,5b*1ab3a421
#RANGEA,COM1,0,98.0,FINE,2427,458517.000,1709730,2,18;28,18,0,21176704.103,0.060,-111284322.405925,0.006,-2486.682,45.5,1700.014,08181c24,18,0,21176701.159,0.116,-86715035.551179,0.010,-1937.805,41.8,1696.014,01301c2b,18,0,21176706.482,0.040,-83101929.902681,0.005,-1856.950,48.2,1700.014,01d01c20,32,0,23441220.671,0.194,-123184437.645958,0.019,2137.521,31.9,853.000,08181c44,32,0,23441220.352,1.641,-95987934.851434,0.150,1667.531,27.8,0.000,0130104b,32,0,23441224.640,0.166,-91988400.126629,0.016,1596.096,34.2,853.000,01d01c40,13,0,23944776.778,0.074,-125830660.136041,0.007,2640.845,43.7,776.000,08181da4,13,0,23944777.754,0.213,-98049876.435638,0.022,2057.606,35.9,745.000,01301dab,13,0,23944781.852,0.118,-93964490.285850,0.010,1972.060,38.3,770.000,01d01da0,58,11,21020995.514,0.040,-112487575.143507,0.005,-3435.023,51.7,1678.000,08191c44,58,11,21020981.747,0.079,-87490265.163298,0.007,-2671.719,43.2,1678.000,00b91c4b,46,5,22533627.539,0.059,-120328342.180388,0.006,3927.037,45.6,842.000,08191d04,46,5,22533623.569,0.085,-93588677.935423,0.008,3054.395,42.3,838.000,00b91d0b,1,0,37767010.330,0.042,-196662727.257963,0.005,-12.870,47.8,1705.014,0c1c1c24,1,0,37766993.839,0.040,-159804503.978698,0.005,-10.472,48.0,1704.014,06a41c20,2,0,37485386.091,0.055,-195196233.426524,0.006,19.846,46.1,1705.014,0c1c1c44,2,0,37485356.257,0.064,-158612806.763497,0.007,16.126,45.0,1704.014,06a41c40,3,0,36764772.788,0.080,-191443810.364661,0.007,1.756,43.0,1704.014,0c1c1c64,3,0,36764747.415,0.040,-155563673.214932,0.005,1.419,48.4,1704.014,06a41c60,7,0,36819942.933,0.054,-191731096.726083,0.006,1208.117,46.3,1704.014,081c1c84,7,0,36819923.274,0.060,-155797143.315591,0.006,981.707,45.6,1703.014,02a41c80,10,0,37746354.437,0.072,-196555186.088838,0.007,1323.638,44.0,1704.014,081c1ca4,10,0,37746338.838,0.107,-151988874.369868,0.009,1023.546,39.6,1703.014,023c1cab,10,0,37746338.317,0.106,-159717118.735815,0.009,1075.472,39.8,1704.014,02a41ca0,11,0,25518676.225,0.096,-132882452.834340,0.008,-3056.275,41.0,84.000,081c1cc4,11,0,25518662.350,0.583,-107977789.897302,0.060,-2483.409,28.6,396.000,02a41cc0,4,0,38911953.730,0.454,-202624753.403619,0.045,-35.259,32.2,4.000,0c1c1ce4,4,0,38911936.141,0.110,-164649129.247062,0.009,-27.996,39.3,1657.000,06a41ce0*f1b5ff8a
#BESTPOSA,COM1,0,98.0,FINE,2427,458517.000,1709730,5810,18;SOL_COMPUTED,SINGLE,34.36857089498,109.22192474048,498.8311,-33.6674,WGS84,21.3664,6.1662,14.0314,"",0.000,0.000,12,7,0,5,0,06,00,5b*8aac09d6
#RANGEA,COM1,0,98.0,FINE,2427,458518.000,1710730,2,18;28,18,0,21177177.519,0.059,-111286809.676154,0.006,-2487.643,45.6,1701.014,08181c24,18,0,21177174.442,0.116,-86716973.682847,0.010,-1938.513,41.8,1697.014,01301c2b,18,0,21177179.793,0.040,-83103787.274786,0.005,-1857.635,48.3,1701.014,01d01c20,32,0,23440813.860,0.194,-123182300.574975,0.019,2136.880,31.8,854.000,08181c44,32,0,23440813.795,1.735,-95986269.549965,0.150,1664.789,27.9,1.000,01301c4b,32,0,23440817.944,0.163,-91986804.243006,0.015,1595.716,34.5,854.000,01d01c40,13,0,23944274.325,0.075,-125828019.705412,0.007,2640.279,43.6,777.000,08181da4,13,0,23944275.247,0.213,-98047818.939925,0.022,2057.070,35.9,746.000,01301dab,13,0,23944279.436,0.118,-93962518.539539,0.010,1971.658,38.3,771.000,01d01da0,58,11,21021637.467,0.040,-112491010.822384,0.005,-3436.044,51.7,1679.000,08191c44,58,11,21021623.825,0.079,-87492937.350392,0.007,-2672.508,43.1,1679.000,00b91c4b,46,5,22532892.129,0.057,-120324415.551087,0.006,3926.448,45.9,843.000,08191d04,46,5,22532888.319,0.084,-93585623.893903,0.008,3053.933,42.5,839.000,00b91d0b,1,0,37767012.863,0.042,-196662740.496929,0.005,-13.317,47.8,1706.014,0c1c1c24,1,0,37766996.328,0.041,-159804514.737545,0.005,-10.897,47.9,1705.014,06a41c20,2,0,37485382.340,0.055,-195196213.962724,0.006,19.339,46.1,1706.014,0c1c1c44,2,0,37485352.551,0.065,-158612790.939000,0.007,15.746,44.9,1705.014,06a41c40,3,0,36764772.457,0.080,-191443808.921871,0.007,1.286,43.1,1705.014,0c1c1c64,3,0,36764747.113,0.040,-155563672.045846,0.005,1.084,48.4,1705.014,06a41c60,7,0,36819710.936,0.054,-191729889.032685,0.006,1207.521,46.3,1705.014,081c1c84,7,0,36819691.312,0.060,-155796161.964610,0.006,981.208,45.5,1704.014,02a41c80,10,0,37746100.393,0.072,-196553862.828456,0.007,1323.057,44.0,1705.014,081c1ca4,10,0,37746084.807,0.107,-151987851.141164,0.009,1023.137,39.6,1704.014,023c1cab,10,0,37746084.221,0.107,-159716043.481509,0.009,1075.137,39.7,1705.014,02a41ca0,11,0,25519263.246,0.096,-132885509.457165,0.009,-3056.752,41.0,85.000,081c1cc4,11,0,25519249.435,0.425,-107980273.528045,0.044,-2483.476,28.3,397.000,02a41cc0,4,0,38911960.126,0.540,-202624788.223252,0.053,-34.670,31.9,5.000,0c1c1ce4,4,0,38911942.868,0.110,-164649157.554068,0.009,-28.406,39.2,1658.000,06a41ce0*4f178517
#BESTPOSA,COM1,0,98.0,FINE,2427,458518.000,1710730,6810,18;INSUFFICIENT_OBS,NONE,0.00000000000,0.00000000000,0.0000,0.0000,ERROR,0.0000,0.0000,0.0000,"",0.000,0.000,0,0,0,0,0,00,00,00*a0647501
#RANGEA,COM1,0,98.0,FINE,2427,458519.000,1711730,2,18;28,18,0,21177651.076,0.058,-111289297.961666,0.006,-2488.760,45.7,1702.014,08181c24,18,0,21177647.919,0.116,-86718912.586805,0.010,-1939.042,41.8,1698.014,01301c2b,18,0,21177653.292,0.040,-83105645.409488,0.005,-1858.485,48.5,1702.014,01d01c20,32,0,23440407.262,0.214,-123180164.175307,0.021,2136.247,31.8,855.000,08181c44,32,0,23440407.131,1.869,-95984604.837071,0.150,1665.094,27.6,2.000,01301c4b,32,0,23440411.140,0.161,-91985208.945137,0.015,1595.075,34.5,855.000,01d01c40,13,0,23943771.994,0.075,-125825379.865912,0.007,2639.556,43.6,778.000,08181da4,13,0,23943773.165,0.213,-98045761.943252,0.022,2056.399,35.9,747.000,01301dab,13,0,23943777.091,0.117,-93960547.232962,0.010,1971.106,38.4,772.000,01d01da0,58,11,21022279.655,0.040,-112494447.533897,0.005,-3437.214,51.8,1680.000,08191c44,58,11,21022266.052,0.078,-87495610.331982,0.007,-2673.358,43.2,1680.000,00b91c4b,46,5,22532156.864,0.054,-120320489.528006,0.006,3925.703,46.2,844.000,08191d04,46,5,22532153.140,0.084,-93582570.356087,0.008,3053.263,42.5,840.000,00b91d0b,1,0,37767015.460,0.042,-196662754.226144,0.005,-13.935,47.7,1707.014,0c1c1c24,1,0,37766999.001,0.040,-159804525.894194,0.005,-11.366,48.0,1706.014,06a41c20,2,0,37485378.707,0.056,-195196195.003180,0.006,18.698,46.1,1707.014,0c1c1c44,2,0,37485348.867,0.064,-158612775.535163,0.007,15.225,45.0,1706.014,06a41c40,3,0,36764772.242,0.080,-191443808.020067,0.007,0.571,43.0,1706.014,0c1c1c64,3,0,36764746.939,0.040,-155563671.302263,0.005,0.510,48.4,1706.014,06a41c60,7,0,36819479.115,0.054,-191728681.984194,0.006,1206.738,46.2,1706.014,081c1c84,7,0,36819459.458,0.060,-155795181.133397,0.006,980.597,45.5,1705.014,02a41c80,10,0,37745846.369,0.072,-196552540.188305,0.007,1322.349,44.0,1706.014,081c1ca4,10,0,37745830.866,0.106,-151986828.400427,0.009,1022.518,39.7,1705.014,023c1cab,10,0,37745830.242,0.106,-159714968.733097,0.009,1074.541,39.8,1706.014,02a41ca0,11,0,25519850.282,0.097,-132888566.523867,0.009,-3057.214,40.9,86.000,081c1cc4,11,0,25519836.715,0.586,-107982757.691624,0.061,-2483.685,28.5,398.000,02a41cc0,4,0,38911967.228,0.473,-202624823.538602,0.047,-34.670,32.2,6.000,0c1c1ce4,4,0,38911949.667,0.110,-164649186.277681,0.009,-28.927,39.2,1659.000,06a41ce0*f26443d2
#BESTPOSA,COM1,0,98.0,FINE,2427,458519.000,1711730,7810,18;INSUFFICIENT_OBS,NONE,0.00000000000,0.00000000000,0.0000,0.0000,ERROR,0.0000,0.0000,0.0000,"",0.000,0.000,0,0,0,0,0,00,00,00*0eb0f439
#RANGEA,COM1,0,98.0,FINE,2427,458520.000,1712730,2,18;28,18,0,21178124.744,0.058,-111291786.847895,0.006,-2488.827,45.7,1703.014,08181c24,18,0,21178121.383,0.117,-86720852.012243,0.010,-1939.780,41.7,1699.014,01301c2b,18,0,21178126.865,0.040,-83107503.985502,0.005,-1858.522,48.5,1703.014,01d01c20,32,0,23440000.673,0.196,-123178028.104191,0.020,2136.150,31.6,856.000,08181c44,32,0,23440000.577,1.731,-95982940.408900,0.150,1664.797,27.1,3.000,01301c4b,32,0,23440004.677,0.162,-91983613.771156,0.015,1595.277,34.5,856.000,01d01c40,13,0,23943269.657,0.076,-125822740.208280,0.007,2639.944,43.5,779.000,08181da4,13,0,23943270.621,0.214,-98043705.075622,0.022,2057.226,35.8,748.000,01301dab,13,0,23943274.740,0.116,-93958576.065413,0.010,1971.352,38.5,773.000,01d01da0,58,11,21022921.943,0.040,-112497884.848977,0.005,-3437.266,51.8,1681.000,08191c44,58,11,21022908.524,0.078,-87498283.799685,0.007,-2673.432,43.3,1681.000,00b91c4b,46,5,22531421.685,0.054,-120316563.721879,0.006,3926.069,46.3,845.000,08191d04,46,5,22531417.913,0.084,-93579516.946284,0.008,3053.583,42.5,841.000,00b91d0b,1,0,37767018.167,0.042,-196662768.048864,0.005,-13.548,47.8,1708.014,0c1c1c24,1,0,37767001.674,0.040,-159804537.111743,0.005,-10.942,48.0,1707.014,06a41c20,2,0,37485375.091,0.055,-195196176.135843,0.006,19.131,46.1,1708.014,0c1c1c44,2,0,37485345.212,0.064,-158612760.204889,0.007,15.582,45.0,1707.014,06a41c40,3,0,36764771.931,0.079,-191443807.145011,0.007,1.175,43.1,1707.014,0c1c1c64,3,0,36764746.777,0.040,-155563670.622353,0.005,0.912,48.4,1707.014,06a41c60,7,0,36819247.290,0.054,-191727475.161128,0.006,1207.059,46.3,1707.014,081c1c84,7,0,36819227.678,0.059,-155794200.491674,0.006,980.850,45.6,1706.014,02a41c80,10,0,37745592.436,0.071,-196551217.755102,0.007,1322.677,44.1,1707.014,081c1ca4,10,0,37745576.878,0.106,-151985805.798182,0.009,1022.824,39.8,1706.014,023c1cab,10,0,37745576.466,0.106,-159713894.130940,0.009,1074.817,39.8,1707.014,02a41ca0,11,0,25520437.438,0.096,-132891623.712009,0.009,-3056.886,41.0,87.000,081c1cc4,11,0,25520423.778,0.423,-107985241.924556,0.044,-2484.125,28.4,399.000,02a41cc0,4,0,38911973.992,0.488,-202624858.953282,0.048,-35.341,32.4,7.000,0c1c1ce4,4,0,38911956.436,0.110,-164649215.050124,0.009,-28.510,39.3,1660.000,06a41ce0*b71e8985
#BD2EPHEMA,COM1,0,98.0,FINE,2427,458520.000,1712730,3,18;1,458490.0,0,1,1,2427,2427,457200.0,4.216484424e+07,8.587143403e-09,2.467598034e-01,4.9869460054e-04,-1.0259545066e+00,1.001125202e-05,-2.897717059e-05,8.96718750e+02,3.03515625e+02,-1.639127731e-07,-1.420266926e-07,8.3237810686e-02,1.325055194e-10,-1.135299470e+00,-7.79282460e-09,1,457200.0,4.500000000e-09,4.500000000e-09,-8.97096e-07,-9.68114e-14,0.00000e+00,TRUE,7.292799568e-05,4.00000000e+00*a5b0ac83
#BD2EPHEMA,COM1,0,98.0,FINE,2427,458520.000,1712730,3,18;2,458460.0,0,1,1,2427,2427,457200.0,4.216440783e+07,1.100903000e-08,2.327984374e-01,1.9412219990e-04,-1.7878021422e+00,2.733990550e-05,-1.480896026e-05,4.54687500e+02,8.44875000e+02,2.468004823e-08,-5.494803190e-08,3.7019452134e-02,1.014327965e-10,-1.408240027e+00,-1.01357793e-08,1,457200.0,4.730000000e-08,4.730000000e-08,1.10711e-07,-6.66134e-14,0.00000e+00,TRUE,7.293154966e-05,4.00000000e+00*b43838c1
#BD2EPHEMA,COM1,0,98.0,FINE,2427,458520.000,1712730,4,18;3,458460.0,0,1,1,2427,2427,457200.0,4.216343134e+07,8.780722895e-09,2.307503859e+00,2.2303336300e-04,-3.1184752154e+00,3.249663860e-05,-3.780238330e-06,1.16218750e+02,1.00879688e+03,-1.862645149e-08,-9.406358004e-08,5.2028919945e-02,2.246522148e-10,-1.620817503e+00,-7.80318218e-09,1,457200.0,3.530000000e-08,3.530000000e-08,-1.95461e-07,-1.06581e-14,0.00000e+00,TRUE,7.293185459e-05,4.00000000e+00*c64dbf11
#BD2EPHEMA,COM1,0,98.0,FINE,2427,458520.000,1712730,4,18;4,458460.0,0,1,1,2427,2427,457200.0,4.216463941e+07,6.153827760e-09,1.837648564e+00,8.0972572323e-04,-1.5548770249e+00,3.098370507e-05,5.797948688e-06,-1.73375000e+02,9.57359375e+02,2.216547728e-07,-8.754432201e-08,7.2531381817e-02,2.960837616e-10,-1.852000680e+00,-5.37415243e-09,1,457200.0,4.170000000e-08,4.170000000e-08,-6.47851e-07,-1.35891e-13,0.00000e+00,TRUE,7.292609371e-05,4.00000000e+00*70c3e26e
#BD2EPHEMA,COM1,0,98.0,FINE,2427,458520.000,1712730,4,18;7,458460.0,0,1,1,2427,2427,457200.0,4.216887319e+07,7.807468070e-10,2.543634722e+00,3.8400654448e-03,-2.5433191344e+00,-6.224960089e-06,3.769667819e-05,-9.31312500e+02,-2.10890625e+02,2.281740308e-08,1.941807568e-07,9.6434510873e-01,7.789610183e-10,-2.291725621e+00,-1.60399538e-09,1,457200.0,6.400000000e-09,6.400000000e-09,-2.80505e-05,-6.91891e-13,0.00000e+00,TRUE,7.290973911e-05,4.00000000e+00*d428057d
#BD2EPHEMA,COM1,0,98.0,FINE,2427,458520.000,1712730,4,18;10,458460.0,0,1,1,2427,2427,457200.0,4.215825776e+07,8.900370736e-10,1.927052763e+00,1.0684675421e-02,-2.1466118079e+00,-3.853812814e-06,3.739073873e-05,-9.30328125e+02,-1.45062500e+02,-5.355104804e-08,1.736916602e-07,9.6358071502e-01,8.889656004e-10,-2.218140242e+00,-1.65864052e-09,1,457200.0,-2.900000000e-09,4.800000000e-09,-7.65745e-04,4.29523e-12,0.00000e+00,TRUE,7.293738778e-05,4.00000000e+00*8aaa425b
#BD2EPHEMA,COM1,0,98.0,FINE,2427,458520.000,1712730,4,18;11,458460.0,0,1,1,2427,2427,457200.0,2.790631027e+07,3.974451266e-09,-2.133534951e+00,1.5055504628e-04,-6.3421900364e-01,-5.415640771e-07,1.129833981e-05,1.22875000e+02,-8.56250000e+00,-2.095475793e-08,-6.519258022e-08,9.5058480034e-01,-7.003863168e-10,1.972808052e-01,-6.81992693e-09,1,457200.0,2.900000000e-09,2.900000000e-09,-7.81530e-04,-2.15978e-11,0.00000e+00,TRUE,1.354340934e-04,4.00000000e+00*426f92e9
#GLOEPHEMERISA,COM1,0,98.0,FINE,2427,458520.000,1712730,5,18;46,5,1,0,2427,458118000,10782,929,0,0,41,0,-1.664370556640625e+07,1.703099316406250e+07,-9.239939453125000e+06,-9.863138198852539e+02,7.996044158935547e+02,3.232329368591309e+03,0.000000000000000,3.725290298461914e-06,1.862645149230957e-06,-3.386838361620903e-04,-3.725290298e-09,2.728484105318785e-12,36480,2,4,0,12*467bf463
#GLOEPHEMERISA,COM1,0,98.0,FINE,2427,458520.000,1712730,5,18;53,6,1,0,2427,458118000,10782,929,0,0,41,0,-2.222642480468750e+07,9.201479003906250e+06,8.562996582031250e+06,1.076228141784668e+03,-4.843273162841797e+02,3.316510200500488e+03,0.000000931322575,3.725290298461914e-06,-0.000000000000000e+00,-5.223695188760757e-05,3.725290298e-09,9.094947017729282e-13,36000,2,3,0,13*ccc24868
#GLOEPHEMERISA,COM1,0,98.0,FINE,2427,458520.000,1712730,5,18;57,9,1,0,2427,458118000,10782,929,0,0,41,2,-6.310500976562500e+06,2.085372460937500e+07,-1.327550878906250e+07,1.391515731811523e+02,-1.819747924804688e+03,-2.917770385742188e+03,-0.000000931322575,2.793967723846436e-06,2.793967723846436e-06,-2.353535965085030e-04,1.862645149e-09,9.094947017729282e-13,36000,2,5,0,13*edbc2d02
#GLOEPHEMERISA,COM1,0,98.0,FINE,2427,458520.000,1712730,5,18;58,11,1,0,2427,458118000,10782,929,0,0,41,0,1.031904296875000e+06,2.544447802734375e+07,1.047403320312500e+06,2.039680480957031e+02,1.397247314453125e+02,-3.588834762573242e+03,-0.000001862645149,4.656612873077393e-06,1.862645149230957e-06,3.266036510467529e-04,9.313225746e-10,-3.637978807091713e-12,36000,2,3,0,13*1703ecb5
#GALEPHEMERISA,COM1,0,98.0,FINE,2427,458520.000,1712730,5,18;3,TRUE,TRUE,0,0,0,0,0,0,107,0,106,444600,5.44062508e+03,3.0698e-09,-1.37512800e-01,5.381962983e-04,6.116954414e-01,-8.9407e-06,6.1784e-06,2.134e+02,-1.913e+02,4.2841e-08,8.9407e-08,9.693739774e-01,-3.2787e-10,2.974739399e+00,-5.79059834e-09,444600,-2.906436566e-05,-2.231104e-12,0.0e+00,444600,-2.906395821e-05,-2.231104e-12,0.0e+00,6.985e-10,1.164e-09*6bf98e4d
#GALEPHEMERISA,COM1,0,98.0,FINE,2427,458520.000,1712730,6,18;7,TRUE,TRUE,0,0,0,0,0,0,107,0,126,456600,5.44062460e+03,2.9858e-09,2.57858937e-01,4.423354985e-04,1.332024230e-01,-8.5216e-06,5.8562e-06,2.173e+02,-1.862e+02,3.5390e-08,1.3225e-07,9.694106074e-01,-3.4859e-10,2.974757353e+00,-5.76274004e-09,456600,-7.764564361e-05,-2.629008e-12,0.0e+00,456600,-7.764500333e-05,-2.629008e-12,0.0e+00,2.328e-09,3.027e-09*ae365f8c
#GPSEPHEM,98,GPS,FINE,2427,458520000,0,0,18,6;5,458490.0,0,58,58,2427,2427,460800.0,2.656135139e+07,4.214104106e-09,2.226328716e+00,5.6083553936e-03,1.4792356767e+00,4.317611456e-06,3.721565008e-06,3.17750000e+02,8.58125000e+01,1.695007086e-07,-1.862645149e-08,9.8106000694e-01,2.403671551e-10,1.683166030e+00,-8.11748098e-09,58,460800.0,-1.071020961e-08,-2.3516361e-04,-3.4106051e-13,0.0000000e+00,TRUE,1.458499273e-04,4.00000000e+00*3658cd50
#GPSEPHEM,98,GPS,FINE,2427,458520000,0,0,18,6;11,444600.0,0,12,12,2427,2427,451776.0,2.656014111e+07,4.180888436e-09,-8.129319172e-02,2.4743376998e-03,-2.3562128981e+00,4.094094038e-06,1.173838973e-05,1.54125000e+02,8.00625000e+01,2.980232239e-08,2.980232239e-08,9.6283573130e-01,-2.085801168e-10,7.226579782e-01,-7.92497296e-09,780,451776.0,-8.847564459e-09,-2.7231080e-04,1.2278178e-11,0.0000000e+00,TRUE,1.458598630e-04,4.00000000e+00*ed94aab2
#GPSEPHEM,98,GPS,FINE,2427,458520000,0,0,18,6;13,458490.0,63,230,230,2427,2427,460800.0,2.655943862e+07,5.011280169e-09,-1.718977935e+00,2.2722226568e-03,1.8219148185e+00,2.501532435e-06,6.977468729e-06,2.47531250e+02,4.52812500e+01,1.862645149e-08,7.078051567e-08,9.5873745407e-01,5.475228065e-10,-1.452631793e+00,-8.26320134e-09,998,460800.0,-8.381903172e-09,4.1671516e-04,5.1159077e-12,0.0000000e+00,TRUE,1.458664802e-04,4.00000000e+00*7f54f136
#GPSEPHEM,98,GPS,FINE,2427,458520000,0,0,18,6;18,458490.0,0,224,224,2427,2427,460800.0,2.655985925e+07,4.070526697e-09,-1.944115577e-02,6.2770525692e-03,-2.8615127449e+00,2.905726433e-06,1.190975308e-05,1.52687500e+02,6.00000000e+01,3.725290298e-08,2.421438694e-08,9.7091984733e-01,-2.935836575e-10,6.998460821e-01,-7.87782814e-09,224,460800.0,-8.381903172e-09,-3.0233199e-04,9.0949470e-12,0.0000000e+00,TRUE,1.458620744e-04,4.00000000e+00*1bd6b516
#GPSEPHEM,98,GPS,FINE,2427,458520000,0,0,18,7;32,458490.0,0,9,9,2427,2427,460800.0,2.655931634e+07,4.320179953e-09,2.586632939e+00,9.4512887299e-03,-1.9712419518e+00,-5.267560482e-06,4.198402166e-06,3.00812500e+02,-1.02625000e+02,8.568167686e-08,-4.842877388e-08,9.6969421310e-01,-2.546534645e-10,2.765527363e+00,-8.09462289e-09,9,460800.0,9.313225746e-10,1.6815169e-04,2.0349944e-11,0.0000000e+00,TRUE,1.458667964e-04,4.00000000e+00*94361e37
#BESTPOSA,COM1,0,98.0,FINE,2427,458520.000,1712730,8814,18;INSUFFICIENT_OBS,NONE,0.00000000000,0.00000000000,0.0000,0.0000,ERROR,0.0000,0.0000,0.0000,"",0.000,0.000,0,0,0,0,0,00,00,00*09574da1
#RANGEA,COM1,0,98.0,FINE,2427,458521.000,1713724,3,18;28,18,0,21178598.391,0.058,-111294276.235445,0.006,-2489.416,45.7,1704.014,08181c24,18,0,21178595.180,0.118,-86722791.780178,0.010,-1939.325,41.6,1700.014,01301c2b,18,0,21178600.560,0.040,-83109362.943098,0.005,-1858.947,48.4,1704.014,01d01c20,32,0,23439594.293,0.196,-123175892.108937,0.019,2136.091,31.7,857.000,08181c44,32,0,23439594.109,1.645,-95981275.927454,0.150,1663.634,27.3,4.000,01301c4b,32,0,23439598.189,0.163,-91982018.734832,0.015,1595.128,34.4,857.000,01d01c40,13,0,23942767.268,0.076,-125820100.638565,0.007,2639.742,43.5,780.000,08181da4,13,0,23942768.332,0.213,-98041648.252398,0.022,2056.637,35.9,749.000,01301dab,13,0,23942772.312,0.116,-93956604.982427,0.010,1971.173,38.5,774.000,01d01da0,58,11,21023564.310,0.040,-112501322.650655,0.005,-3437.824,51.8,1682.000,08191c44,58,11,21023551.009,0.078,-87500957.632358,0.007,-2673.902,43.3,1682.000,00b91c4b,46,5,22530686.555,0.052,-120312638.025934,0.006,3925.867,46.5,846.000,08191d04,46,5,22530682.835,0.083,-93576463.633144,0.008,3053.419,42.6,842.000,00b91d0b,1,0,37767020.757,0.042,-196662781.865921,0.005,-13.607,47.7,1709.014,0c1c1c24,1,0,37767004.303,0.042,-159804548.349245,0.005,-11.083,47.8,1708.014,06a41c20,2,0,37485371.416,0.056,-195196157.275049,0.006,19.093,46.0,1709.014,0c1c1c44,2,0,37485341.619,0.065,-158612744.881161,0.007,15.486,44.8,1708.014,06a41c40,3,0,36764771.926,0.079,-191443806.321760,0.007,1.085,43.1,1708.014,0c1c1c64,3,0,36764746.576,0.040,-155563669.944008,0.005,0.882,48.3,1708.014,06a41c60,7,0,36819015.529,0.054,-191726268.473440,0.006,1206.835,46.3,1708.014,081c1c84,7,0,36818995.885,0.061,-155793219.967790,0.006,980.641,45.4,1707.014,02a41c80,10,0,37745338.505,0.071,-196549895.427280,0.007,1322.468,44.1,1708.014,081c1ca4,10,0,37745322.964,0.107,-151984783.302897,0.009,1022.578,39.7,1707.014,023c1cab,10,0,37745322.455,0.107,-159712819.636594,0.009,1074.600,39.7,1708.014,02a41ca0,11,0,25521024.467,0.096,-132894680.857977,0.009,-3056.976,41.0,88.000,081c1cc4,11,0,25521010.472,0.644,-107987726.032155,0.067,-2483.983,28.1,400.000,02a41cc0,4,0,38911980.920,0.584,-202624895.457385,0.150,-35.341,32.3,0.000,0c1c10e4,4,0,38911963.139,0.111,-164649243.832775,0.009,-28.637,39.1,1661.000,06a41ce0*8da02583
#BESTPOSA,COM1,0,98.0,FINE,2427,458521.000,1713724,9805,18;SOL_COMPUTED,SINGLE,34.36865022217,109.22194779943,491.3604,-33.6676,WGS84,21.3251,6.1772,14.0357,"",0.000,0.000,12,7,0,5,0,06,00,5b*8399a371
#RANGEA,COM1,0,98.0,FINE,2427,458522.000,1714730,1,18;28,18,0,21179072.171,0.058,-111296765.867180,0.006,-2489.841,45.8,1705.014,08181c24,18,0,21179068.939,0.117,-86724731.722202,0.010,-1940.212,41.7,1701.014,01301c2b,18,0,21179074.313,0.040,-83111222.077094,0.005,-1859.252,48.5,1705.014,01d01c20,32,0,23439188.416,0.194,-123173756.046528,0.019,2135.994,31.8,858.000,08181c44,32,0,23439187.259,1.713,-95979611.521840,0.150,1661.362,26.9,5.000,01301c4b,32,0,23439191.719,0.162,-91980423.660529,0.015,1595.008,34.5,858.000,01d01c40,13,0,23942264.918,0.075,-125817460.887355,0.007,2639.810,43.6,781.000,08181da4,13,0,23942266.193,0.211,-98039591.315032,0.021,2057.055,36.0,750.000,01301dab,13,0,23942269.896,0.116,-93954633.710868,0.010,1971.263,38.5,775.000,01d01da0,58,11,21024206.747,0.040,-112504760.685103,0.005,-3438.242,52.0,1683.000,08191c44,58,11,21024193.546,0.077,-87503631.653290,0.007,-2674.177,43.4,1683.000,00b91c4b,46,5,22529951.307,0.051,-120308712.201605,0.006,3925.853,46.6,847.000,08191d04,46,5,22529947.658,0.083,-93573410.207344,0.008,3053.471,42.7,843.000,00b91d0b,1,0,37767023.373,0.042,-196662795.410376,0.005,-13.496,47.7,1710.014,0c1c1c24,1,0,37767006.957,0.040,-159804559.359341,0.005,-10.971,47.9,1709.014,06a41c20,2,0,37485367.742,0.056,-195196138.148119,0.006,19.131,46.0,1710.014,0c1c1c44,2,0,37485337.940,0.064,-158612729.332581,0.007,15.612,45.0,1709.014,06a41c40,3,0,36764771.807,0.079,-191443805.220527,0.007,1.190,43.1,1709.014,0c1c1c64,3,0,36764746.358,0.040,-155563669.050586,0.005,0.942,48.4,1709.014,06a41c60,7,0,36818783.712,0.054,-191725061.661460,0.006,1206.820,46.3,1709.014,081c1c84,7,0,36818764.119,0.060,-155792239.330761,0.006,980.626,45.5,1708.014,02a41c80,10,0,37745084.506,0.071,-196548572.945290,0.007,1322.461,44.1,1709.014,081c1ca4,10,0,37745069.096,0.106,-151983760.660016,0.009,1022.593,39.7,1708.014,023c1cab,10,0,37745068.452,0.106,-159711745.016108,0.009,1074.563,39.8,1709.014,02a41ca0,11,0,25521611.570,0.097,-132897737.702554,0.009,-3056.864,40.9,89.000,081c1cc4,11,0,25521597.694,0.568,-107990209.999120,0.059,-2484.333,28.3,401.000,02a41cc0,4,0,38911987.703,0.744,-202624931.621965,0.150,-35.341,32.1,0.000,0c1c10e4,4,0,38911969.933,0.111,-164649272.436537,0.009,-28.637,39.2,1662.000,06a41ce0*1e53fb10
#BESTPOSA,COM1,0,98.0,FINE,2427,458522.000,1714730,10810,18;SOL_COMPUTED,SINGLE,34.36863010516,109.22195046717,492.7783,-33.6675,WGS84,6.5632,3.5506,6.6289,"",0.000,0.000,12,8,0,6,0,06,00,5b*351b4151
