#BESTPOSA,COM1,0,98.0,FINE,2428,94290.000,628140,38337,18;SOL_COMPUTED,SINGLE,34.36852226603,109.22189119290,501.0463,-33.6674,WGS84,6.2029,2.1869,5.4162,"",0.000,0.000,15,13,0,4,0,06,03,53*4ea9e6e3
#RANGEA,COM1,0,98.0,FINE,2428,94291.000,629133,2,18;32,12,0,24198846.230,0.090,-127165791.389750,0.008,-2850.769,41.8,623.013,08181c24,12,0,24198843.350,0.209,-99090201.939486,0.021,-2221.926,36.1,620.013,01301c2b,20,0,22195423.155,0.053,-116637729.818045,0.006,3071.697,46.4,624.013,08181c64,20,0,22195420.043,0.113,-90886540.235507,0.010,2393.530,42.0,534.000,01301c6b,20,0,22195424.592,0.048,-87099613.293808,0.006,2293.754,47.0,622.013,01d01c60,15,0,24289740.323,0.103,-127643456.867328,0.009,3919.454,40.2,228.000,08181ca4,15,0,24289740.665,0.318,-99462418.481256,0.033,3055.514,34.0,224.000,01301cab,13,0,24390265.704,0.295,-128171712.384326,0.030,-2695.559,29.1,7.000,08181dc4,13,0,24390266.892,0.158,-95712641.789169,0.015,-2012.727,34.8,446.000,01d01dc0,44,12,19382724.203,0.040,-103757240.471657,0.005,953.712,48.8,597.000,08191c44,44,12,19382712.570,0.070,-80700016.116375,0.007,741.825,44.3,597.000,00b91c4b,45,13,22258350.717,0.132,-119192477.648932,0.012,4061.766,37.0,596.000,08191c64,45,13,22258334.581,0.061,-92705200.400903,0.006,3159.121,45.4,597.000,00b91c6b,58,11,21206527.103,0.564,-113480427.283632,0.059,-1810.938,28.4,4.000,08191dc4,58,11,21206519.692,0.206,-88262475.688912,0.021,-1408.748,30.9,158.000,00b91dcb,1,0,37984465.064,0.040,-197795077.391047,0.005,-5.598,50.8,624.013,0c1c1c24,1,0,37984445.351,0.040,-160724617.956675,0.005,-4.556,49.0,623.013,06a41c20,2,0,37925273.094,0.057,-197486847.748625,0.006,74.883,45.9,624.013,0c1c1c44,2,0,37925240.746,0.060,-160474105.339715,0.006,60.875,45.5,623.013,06a41c40,3,0,37138638.269,0.049,-193390633.430998,0.006,58.648,46.9,624.013,0c1c1c64,3,0,37138609.757,0.040,-157145608.395478,0.005,47.724,49.0,623.013,06a41c60,8,0,36728249.925,0.040,-191253640.990993,0.005,-734.734,50.3,622.013,081c1c84,8,0,36728233.588,0.040,-155409174.498207,0.005,-597.019,52.2,622.013,02a41c80,14,0,21984058.977,0.040,-114476760.028234,0.005,1123.329,54.1,622.013,081c1ca4,14,0,21984031.213,0.040,-93021632.042829,0.005,912.789,50.3,622.013,02a41ca0,4,0,39188923.773,0.147,-204067003.743878,0.013,47.994,36.9,602.013,0c1c1cc4,4,0,39188895.813,0.170,-165821043.708454,0.015,39.067,36.2,594.000,06a41cc0,9,0,37089189.690,0.141,-193133147.495722,0.013,71.612,36.3,622.013,081c1ce4,9,0,37089171.622,0.191,-156936434.525097,0.019,58.148,32.1,622.013,02a41ce0,8,0,25656181.333,0.100,-134824166.072689,0.009,2697.805,40.6,619.013,083b1c24,8,0,25656184.388,0.084,-100680382.602943,0.008,2014.506,42.5,619.013,01931c2b,8,0,25656181.376,0.078,-103306806.950701,0.007,2067.052,43.3,619.013,02331c20*43bc908e
#BESTPOSA,COM1,0,98.0,FINE,2428,94291.000,629133,39327,18;SOL_COMPUTED,SINGLE,34.36852297723,109.22189140019,500.9917,-33.6674,WGS84,6.2024,2.1869,5.4159,"",0.000,0.000,15,13,0,4,0,06,03,53*144f843d
#RANGEA,COM1,0,98.0,FINE,2428,94292.000,630140,2,18;32,12,0,24199388.829,0.090,-127168642.128774,0.008,-2850.806,41.8,624.013,08181c24,12,0,24199385.664,0.213,-99092423.234895,0.022,-2221.441,35.9,621.013,01301c2b,20,0,22194838.522,0.055,-116634658.185659,0.006,3071.444,46.1,625.013,08181c64,20,0,22194835.514,0.115,-90884146.765152,0.010,2393.128,41.9,535.000,01301c6b,20,0,22194840.102,0.049,-87097319.539465,0.006,2293.582,46.9,623.013,01d01c60,15,0,24288994.488,0.106,-127639537.383477,0.009,3919.499,39.8,229.000,08181ca4,15,0,24288994.586,0.320,-99459364.349312,0.034,3054.017,33.9,225.000,01301cab,13,0,24390778.414,0.920,-128174405.753681,0.150,-2695.357,28.8,0.000,081811c4,13,0,24390779.511,0.161,-95714654.573714,0.015,-2012.809,34.6,447.000,01d01dc0,44,12,19382546.156,0.040,-103756287.094619,0.005,952.899,48.9,598.000,08191c44,44,12,19382534.486,0.070,-80699274.608219,0.007,741.117,44.2,598.000,00b91c4b,45,13,22257592.230,0.134,-119188415.922406,0.012,4061.595,36.8,597.000,08191c64,45,13,22257575.971,0.061,-92702041.296687,0.006,3158.949,45.4,598.000,00b91c6b,58,11,21206864.770,0.444,-113482238.589349,0.046,-1811.519,28.5,5.000,08191dc4,58,11,21206858.114,0.335,-88263884.464249,0.034,-1408.942,30.5,159.000,00b91dcb,1,0,37984466.082,0.040,-197795082.829933,0.005,-5.538,50.7,625.013,0c1c1c24,1,0,37984446.432,0.040,-160724622.365131,0.005,-4.415,48.8,624.013,06a41c20,2,0,37925258.700,0.057,-197486772.670615,0.006,75.032,45.8,625.013,0c1c1c44,2,0,37925226.292,0.061,-160474044.340843,0.006,60.919,45.4,624.013,06a41c40,3,0,37138626.974,0.049,-193390574.628573,0.006,58.723,46.9,625.013,0c1c1c64,3,0,37138598.447,0.040,-157145560.609540,0.005,47.814,48.9,624.013,06a41c60,8,0,36728391.002,0.040,-191254375.642082,0.005,-734.771,50.2,623.013,081c1c84,8,0,36728374.690,0.040,-155409771.467477,0.005,-597.086,52.1,623.013,02a41c80,14,0,21983843.272,0.040,-114475636.804564,0.005,1122.897,54.0,623.013,081c1ca4,14,0,21983815.501,0.040,-93020719.325855,0.005,912.483,50.2,623.013,02a41ca0,4,0,39188914.621,0.161,-204066955.599418,0.014,48.046,36.8,603.013,0c1c1cc4,4,0,39188886.577,0.158,-165821004.593047,0.014,39.029,36.0,595.000,06a41cc0,9,0,37089175.960,0.142,-193133075.876703,0.013,71.456,36.2,623.013,081c1ce4,9,0,37089157.955,0.231,-156936376.302624,0.023,58.192,32.0,623.013,02a41ce0,8,0,25655667.967,0.101,-134821468.315281,0.009,2697.596,40.4,620.013,083b1c24,8,0,25655671.057,0.084,-100678368.031158,0.008,2014.431,42.5,620.013,01931c2b,8,0,25655667.999,0.077,-103304739.814607,0.007,2067.052,43.4,620.013,02331c20*5d15467e
#BESTPOSA,COM1,0,98.0,FINE,2428,94292.000,630140,40334,18;SOL_COMPUTED,SINGLE,34.36852344990,109.22189157698,500.9435,-33.6674,WGS84,6.2056,2.1879,5.4259,"",0.000,0.000,15,13,0,4,0,06,03,53*b947ed53
#RANGEA,COM1,0,98.0,FINE,2428,94293.000,631140,2,18;32,12,0,24199931.515,0.092,-127171493.498543,0.008,-2851.321,41.5,625.013,08181c24,12,0,24199928.433,0.214,-99094645.122632,0.022,-2221.531,35.8,622.013,01301c2b,20,0,22194254.017,0.059,-116631587.413067,0.006,3070.662,45.6,626.013,08181c64,20,0,22194251.253,0.117,-90881753.959021,0.010,2392.338,41.7,536.000,01301c6b,20,0,22194255.747,0.048,-87095026.428268,0.005,2293.068,47.0,624.013,01d01c60,15,0,24288248.652,0.111,-127635618.476248,0.009,3918.962,39.2,230.000,08181ca4,15,0,24288248.417,0.392,-99456310.601934,0.041,3052.802,34.0,226.000,01301cab,13,0,24391291.452,1.014,-128177101.641563,0.150,-2695.357,27.9,0.000,081811c4,13,0,24391292.533,0.162,-95716667.794709,0.015,-2013.330,34.5,448.000,01d01dc0,44,12,19382368.325,0.040,-103755335.131477,0.005,951.633,48.8,599.000,08191c44,44,12,19382356.670,0.071,-80698534.186543,0.007,740.178,44.2,599.000,00b91c4b,45,13,22256833.756,0.137,-119184355.067364,0.012,4060.827,36.6,598.000,08191c64,45,13,22256817.558,0.060,-92698882.854364,0.006,3158.420,45.5,599.000,00b91c6b,58,11,21207202.686,0.403,-113484050.848919,0.042,-1812.339,28.3,6.000,08191dc4,58,11,21207196.639,0.293,-88265294.037312,0.030,-1409.732,30.5,160.000,00b91dcb,1,0,37984467.203,0.040,-197795088.791389,0.005,-5.829,50.7,626.013,0c1c1c24,1,0,37984447.597,0.040,-160724627.218104,0.005,-4.780,48.9,625.013,06a41c20,2,0,37925244.359,0.058,-197486698.112364,0.006,74.637,45.8,626.013,0c1c1c44,2,0,37925211.956,0.060,-160473983.747856,0.006,60.658,45.5,625.013,06a41c40,3,0,37138615.744,0.050,-193390516.346301,0.006,58.350,46.8,626.013,0c1c1c64,3,0,37138587.251,0.040,-157145513.257077,0.005,47.411,48.9,625.013,06a41c60,8,0,36728532.185,0.040,-191255110.962516,0.005,-735.293,50.2,624.013,081c1c84,8,0,36728515.896,0.040,-155410368.973411,0.005,-597.496,52.2,624.013,02a41c80,14,0,21983627.759,0.040,-114474514.585684,0.005,1122.070,53.9,624.013,081c1ca4,14,0,21983599.981,0.040,-93019807.433456,0.005,911.768,50.2,624.013,02a41ca0,4,0,39188905.521,0.177,-204066907.910256,0.016,48.031,36.7,604.013,0c1c1cc4,4,0,39188877.215,0.158,-165820965.852286,0.014,38.821,36.0,596.000,06a41cc0,9,0,37089162.333,0.144,-193133004.852419,0.013,71.039,36.0,624.013,081c1ce4,9,0,37089144.228,0.192,-156936318.561116,0.019,57.932,32.0,624.013,02a41ce0,8,0,25655154.595,0.102,-134818771.260850,0.009,2697.097,40.2,621.013,083b1c24,8,0,25655157.818,0.083,-100676353.997467,0.008,2014.044,42.6,621.013,01931c2b,8,0,25655154.815,0.076,-103302673.265381,0.007,2066.531,43.5,621.013,02331c20*c18c2dc3
#BESTPOSA,COM1,0,98.0,FINE,2428,94293.000,631140,41334,18;SOL_COMPUTED,SINGLE,34.36852430513,109.22189189142,500.8565,-33.6674,WGS84,6.2067,2.1903,5.4393,"",0.000,0.000,15,13,0,4,0,06,03,53*c83e072b
#RANGEA,COM1,0,98.0,FINE,2428,94294.000,632140,2,18;32,12,0,24200474.177,0.095,-127174344.738232,0.008,-2851.477,41.1,626.013,08181c24,12,0,24200471.036,0.215,-99096866.829641,0.022,-2221.464,35.8,623.013,01301c2b,20,0,22193669.506,0.064,-116628516.702572,0.007,3070.371,45.0,627.013,08181c64,20,0,22193666.860,0.116,-90879361.196878,0.010,2392.502,41.8,537.000,01301c6b,20,0,22193671.391,0.049,-87092733.372882,0.006,2292.830,46.9,625.013,01d01c60,15,0,24287502.804,0.116,-127631699.353053,0.010,3918.881,38.4,231.000,08181ca4,15,0,24287502.652,0.415,-99453256.754546,0.043,3054.330,34.0,227.000,01301cab,13,0,24391803.922,0.666,-128179794.398367,0.070,-2695.357,26.6,1.000,08181dc4,13,0,24391805.385,0.166,-95718680.787032,0.016,-2013.189,34.2,449.000,01d01dc0,44,12,19382190.623,0.040,-103754383.768517,0.005,950.776,48.8,600.000,08191c44,44,12,19382178.904,0.071,-80697794.244984,0.007,739.463,44.1,600.000,00b91c4b,45,13,22256075.202,0.138,-119180294.283706,0.012,4060.395,36.5,599.000,08191c64,45,13,22256059.105,0.060,-92695724.484544,0.006,3158.107,45.5,600.000,00b91c6b,58,11,21207541.055,0.258,-113485863.349850,0.027,-1812.980,28.5,7.000,08191dc4,58,11,21207535.178,0.208,-88266703.693770,0.021,-1409.918,30.7,161.000,00b91dcb,1,0,37984468.288,0.040,-197795094.509001,0.005,-5.903,50.7,627.013,0c1c1c24,1,0,37984448.655,0.040,-160724631.866387,0.005,-4.773,48.9,626.013,06a41c20,2,0,37925230.001,0.058,-197486623.303774,0.006,74.622,45.8,627.013,0c1c1c44,2,0,37925197.624,0.060,-160473922.958912,0.006,60.621,45.5,626.013,06a41c40,3,0,37138604.509,0.050,-193390457.820545,0.006,58.291,46.8,627.013,0c1c1c64,3,0,37138576.032,0.040,-157145465.701705,0.005,47.411,48.9,626.013,06a41c60,8,0,36728673.338,0.040,-191255846.166586,0.005,-735.442,50.1,625.013,081c1c84,8,0,36728657.086,0.040,-155410966.386936,0.005,-597.623,52.2,625.013,02a41c80,14,0,21983412.277,0.040,-114473392.617072,0.005,1121.533,53.9,625.013,081c1ca4,14,0,21983384.506,0.040,-93018895.748831,0.005,911.336,50.2,625.013,02a41ca0,4,0,39188896.351,0.162,-204066860.038018,0.014,47.629,36.7,605.013,0c1c1cc4,4,0,39188868.079,0.171,-165820926.959443,0.015,38.769,36.1,597.000,06a41cc0,9,0,37089148.631,0.142,-193132933.699076,0.013,70.890,36.1,625.013,081c1ce4,9,0,37089130.784,0.192,-156936260.808567,0.019,57.544,32.0,625.013,02a41ce0,8,0,25654641.391,0.104,-134816074.147262,0.009,2696.896,40.0,622.013,083b1c24,8,0,25654644.561,0.084,-100674339.923485,0.008,2013.843,42.5,622.013,01931c2b,8,0,25654641.580,0.076,-103300606.636746,0.007,2066.449,43.5,622.013,02331c20*9cf8a923
#BESTPOSA,COM1,0,98.0,FINE,2428,94294.000,632140,42334,18;SOL_COMPUTED,SINGLE,34.36852465931,109.22189216412,500.8382,-33.6674,WGS84,6.2122,2.1940,5.4653,"",0.000,0.000,15,13,0,4,0,06,03,53*8b7ba104
#RANGEA,COM1,0,98.0,FINE,2428,94295.000,633140,2,18;32,12,0,24201016.849,0.094,-127177196.086885,0.008,-2851.261,41.3,627.013,08181c24,12,0,24201013.500,0.214,-99099088.709063,0.022,-2222.395,35.8,624.013,01301c2b,20,0,22193085.036,0.064,-116625446.318867,0.007,3070.401,45.0,628.013,08181c64,20,0,22193082.699,0.115,-90876968.675374,0.010,2391.958,41.9,538.000,01301c6b,20,0,22193087.153,0.048,-87090440.554079,0.006,2292.837,46.9,626.013,01d01c60,15,0,24286757.027,0.114,-127627780.275865,0.010,3919.164,38.7,232.000,08181ca4,15,0,24286756.897,0.244,-99450202.946129,0.026,3053.175,34.0,228.000,01301cab,13,0,24392316.711,0.357,-128182490.095641,0.038,-2695.544,26.8,2.000,08181dc4,13,0,24392318.372,0.167,-95720693.812223,0.016,-2012.823,34.1,450.000,01d01dc0,44,12,19382013.118,0.040,-103753433.252576,0.005,950.269,48.8,601.000,08191c44,44,12,19382001.219,0.073,-80697054.961496,0.007,739.045,43.9,601.000,00b91c4b,45,13,22255316.933,0.136,-119176233.876824,0.012,4060.373,36.7,600.000,08191c64,45,13,22255300.757,0.060,-92692566.386356,0.006,3158.033,45.5,601.000,00b91c6b,58,11,21207880.138,0.527,-113487676.243226,0.055,-1813.315,28.0,8.000,08191dc4,58,11,21207873.800,0.228,-88268113.707140,0.023,-1409.955,30.7,162.000,00b91dcb,1,0,37984469.410,0.040,-197795100.209113,0.005,-5.553,50.7,628.013,0c1c1c24,1,0,37984449.794,0.040,-160724636.498935,0.005,-4.475,49.0,627.013,06a41c20,2,0,37925215.618,0.059,-197486548.499572,0.006,74.920,45.6,628.013,0c1c1c44,2,0,37925183.301,0.061,-160473862.166436,0.006,60.949,45.4,627.013,06a41c40,3,0,37138593.288,0.051,-193390399.279724,0.006,58.753,46.6,628.013,0c1c1c64,3,0,37138564.779,0.040,-157145418.131566,0.005,47.694,48.9,627.013,06a41c60,8,0,36728814.539,0.040,-191256581.513649,0.005,-735.271,49.9,626.013,081c1c84,8,0,36728798.335,0.040,-155411563.913956,0.005,-597.444,52.2,626.013,02a41c80,14,0,21983196.882,0.040,-114472271.130844,0.005,1121.407,53.8,626.013,081c1ca4,14,0,21983169.142,0.040,-93017984.449949,0.005,911.217,50.2,626.013,02a41ca0,4,0,39188887.164,0.163,-204066812.159827,0.014,48.121,36.7,606.013,0c1c1cc4,4,0,39188859.097,0.142,-165820888.035777,0.013,39.126,36.2,598.000,06a41cc0,9,0,37089135.158,0.144,-193132862.606709,0.013,71.270,36.0,626.013,081c1ce4,9,0,37089117.162,0.195,-156936203.012282,0.019,57.924,31.8,626.013,02a41ce0,8,0,25654128.066,0.103,-134813377.234720,0.009,2697.067,40.1,623.013,083b1c24,8,0,25654131.340,0.085,-100672325.984134,0.008,2014.014,42.4,623.013,01931c2b,8,0,25654128.383,0.076,-103298540.166555,0.007,2066.598,43.5,623.013,02331c20*a01b7476
#BESTPOSA,COM1,0,98.0,FINE,2428,94295.000,633140,43334,18;SOL_COMPUTED,SINGLE,34.36852528675,109.22189245981,500.8266,-33.6674,WGS84,6.2143,2.1945,5.4651,"",0.000,0.000,15,13,0,4,0,06,03,53*9a4f906e
#RANGEA,COM1,0,98.0,FINE,2428,94296.000,634140,2,18;32,12,0,24201559.564,0.091,-127180047.388205,0.008,-2851.417,41.6,628.013,08181c24,12,0,24201556.173,0.209,-99101310.465097,0.021,-2221.471,36.2,625.013,01301c2b,20,0,22192500.646,0.064,-116622376.122894,0.007,3069.969,45.0,629.013,08181c64,20,0,22192498.420,0.113,-90874576.350993,0.010,2391.742,42.1,539.000,01301c6b,20,0,22192502.894,0.049,-87088147.892989,0.006,2292.457,46.9,627.013,01d01c60,15,0,24286011.217,0.111,-127623861.104830,0.009,3919.059,39.2,233.000,08181ca4,15,0,24286011.030,0.268,-99447149.062021,0.028,3054.188,34.1,229.000,01301cab,13,0,24392829.090,0.304,-128185185.745362,0.032,-2695.782,26.9,3.000,08181dc4,13,0,24392831.290,0.170,-95722706.802965,0.016,-2013.062,33.9,451.000,01d01dc0,44,12,19381835.678,0.040,-103752483.454462,0.005,949.279,48.9,602.000,08191c44,44,12,19381823.700,0.075,-80696316.219368,0.007,738.390,43.7,602.000,00b91c4b,45,13,22254558.727,0.133,-119172173.690270,0.012,4059.851,36.9,601.000,08191c64,45,13,22254542.478,0.061,-92689408.451821,0.006,3157.728,45.4,602.000,00b91c6b,58,11,21208218.873,0.300,-113489489.307622,0.031,-1813.337,28.7,9.000,08191dc4,58,11,21208212.461,0.318,-88269523.983911,0.032,-1410.469,30.3,163.000,00b91dcb,1,0,37984470.488,0.040,-197795105.777915,0.005,-5.613,50.6,629.013,0c1c1c24,1,0,37984450.881,0.040,-160724641.021206,0.005,-4.579,48.8,628.013,06a41c20,2,0,37925201.270,0.059,-197486473.545860,0.006,74.861,45.6,629.013,0c1c1c44,2,0,37925168.921,0.061,-160473801.264682,0.006,60.860,45.3,628.013,06a41c40,3,0,37138582.046,0.052,-193390340.608876,0.006,58.619,46.5,629.013,0c1c1c64,3,0,37138553.487,0.040,-157145370.456329,0.005,47.627,48.8,628.013,06a41c60,8,0,36728955.729,0.040,-191257316.870673,0.005,-735.524,49.8,627.013,081c1c84,8,0,36728939.573,0.040,-155412161.444373,0.005,-597.645,52.1,627.013,02a41c80,14,0,21982981.594,0.040,-114471149.994323,0.005,1120.840,53.7,627.013,081c1ca4,14,0,21982953.830,0.040,-93017073.434241,0.005,910.755,50.1,627.013,02a41ca0,4,0,39188878.142,0.162,-204066764.143175,0.014,47.949,36.7,607.013,0c1c1cc4,4,0,39188849.578,0.143,-165820849.001105,0.013,39.096,36.1,599.000,06a41cc0,9,0,37089121.582,0.145,-193132791.504552,0.013,71.009,35.9,627.013,081c1ce4,9,0,37089103.460,0.196,-156936145.271683,0.020,57.529,31.7,627.013,02a41ce0,8,0,25653614.862,0.102,-134810680.361100,0.009,2696.740,40.2,624.013,083b1c24,8,0,25653618.132,0.084,-100670312.091662,0.008,2013.761,42.5,624.013,01931c2b,8,0,25653615.152,0.075,-103296473.740025,0.007,2066.315,43.6,624.013,02331c20*95253155
#BESTPOSA,COM1,0,98.0,FINE,2428,94296.000,634140,44334,18;SOL_COMPUTED,SINGLE,34.36852598382,109.22189278730,500.8325,-33.6674,WGS84,6.2079,2.1908,5.4385,"",0.000,0.000,15,13,0,4,0,06,03,53*dab4893e
#RANGEA,COM1,0,98.0,FINE,2428,94297.000,635140,2,18;32,12,0,24202102.254,0.089,-127182898.753205,0.008,-2851.462,41.8,629.013,08181c24,12,0,24202099.180,0.204,-99103532.312490,0.020,-2222.045,36.4,626.013,01301c2b,20,0,22191916.279,0.064,-116619306.196073,0.006,3069.611,45.0,630.013,08181c64,20,0,22191914.412,0.112,-90872184.176734,0.009,2391.996,42.2,540.000,01301c6b,20,0,22191918.687,0.049,-87085855.407011,0.006,2292.256,46.9,628.013,01d01c60,15,0,24285265.408,0.108,-127619941.899172,0.009,3919.126,39.5,234.000,08181ca4,15,0,24285265.085,0.241,-99444095.101538,0.025,3054.732,34.2,230.000,01301cab,13,0,24393341.164,0.305,-128187881.322291,0.032,-2695.603,26.8,4.000,08181dc4,13,0,24393344.359,0.172,-95724719.769077,0.017,-2013.107,33.7,452.000,01d01dc0,44,12,19381658.418,0.040,-103751534.455981,0.005,948.459,48.7,603.000,08191c44,44,12,19381646.419,0.075,-80695578.110130,0.007,737.704,43.6,603.000,00b91c4b,45,13,22253800.555,0.132,-119168113.786946,0.012,4059.568,37.0,602.000,08191c64,45,13,22253784.305,0.060,-92686250.768363,0.006,3157.467,45.5,603.000,00b91c6b,58,11,21208558.021,0.273,-113491302.846114,0.028,-1813.807,29.0,10.000,08191dc4,58,11,21208550.834,0.325,-88270934.496872,0.033,-1410.641,29.9,164.000,00b91dcb,1,0,37984471.550,0.040,-197795111.281160,0.005,-5.620,50.8,630.013,0c1c1c24,1,0,37984451.917,0.040,-160724645.487777,0.005,-4.564,48.6,629.013,06a41c20,2,0,37925186.803,0.058,-197486398.529175,0.006,74.891,45.7,630.013,0c1c1c44,2,0,37925154.515,0.063,-160473740.304054,0.006,60.882,45.1,629.013,06a41c40,3,0,37138570.723,0.050,-193390281.867411,0.006,58.671,46.7,630.013,0c1c1c64,3,0,37138542.200,0.040,-157145322.727805,0.005,47.657,48.6,629.013,06a41c60,8,0,36729096.943,0.040,-191258052.287368,0.005,-735.591,50.0,628.013,081c1c84,8,0,36729080.816,0.040,-155412759.035095,0.005,-597.742,51.8,628.013,02a41c80,14,0,21982766.355,0.040,-114470029.283608,0.005,1120.379,53.8,628.013,081c1ca4,14,0,21982738.659,0.040,-93016162.761752,0.005,910.419,49.8,628.013,02a41ca0,4,0,39188868.742,0.134,-204066716.045445,0.012,48.106,36.8,608.013,0c1c1cc4,4,0,39188840.390,0.175,-165820809.939194,0.016,38.985,35.8,600.000,06a41cc0,9,0,37089108.136,0.143,-193132720.421036,0.013,70.897,36.0,628.013,081c1ce4,9,0,37089089.721,0.199,-156936087.463925,0.020,57.730,31.4,628.013,02a41ce0,8,0,25653101.765,0.102,-134807983.627804,0.009,2696.546,40.2,625.013,083b1c24,8,0,25653105.029,0.085,-100668298.298819,0.008,2013.649,42.4,625.013,01931c2b,8,0,25653101.950,0.076,-103294407.402126,0.007,2066.210,43.5,625.013,02331c20*aa765ef5
#BESTPOSA,COM1,0,98.0,FINE,2428,94297.000,635140,45334,18;SOL_COMPUTED,SINGLE,34.36852670458,109.22189312250,500.8267,-33.6674,WGS84,6.2049,2.1904,5.4381,"",0.000,0.000,15,13,0,4,0,06,03,53*2843286a
#RANGEA,COM1,0,98.0,FINE,2428,94298.000,636140,2,18;32,12,0,24202644.932,0.088,-127185749.976711,0.008,-2851.097,42.0,630.013,08181c24,12,0,24202641.950,0.201,-99105754.004523,0.020,-2220.830,36.6,627.013,01301c2b,20,0,22191331.992,0.063,-116616236.348061,0.006,3069.812,45.1,631.013,08181c64,20,0,22191330.033,0.113,-90869792.096531,0.010,2391.973,42.0,541.000,01301c6b,20,0,22191334.515,0.049,-87083562.987235,0.006,2292.427,46.9,629.013,01d01c60,15,0,24284519.468,0.108,-127616022.521070,0.009,3919.544,39.5,235.000,08181ca4,15,0,24284519.038,0.244,-99441041.061955,0.026,3054.613,34.0,231.000,01301cab,13,0,24393853.863,0.439,-128190576.819941,0.046,-2695.559,26.5,5.000,08181dc4,13,0,24393857.261,0.174,-95726732.541037,0.017,-2012.712,33.5,453.000,01d01dc0,44,12,19381481.258,0.040,-103750586.093146,0.005,948.057,48.8,604.000,08191c44,44,12,19381469.186,0.076,-80694840.502576,0.007,737.362,43.5,604.000,00b91c4b,45,13,22253042.519,0.130,-119164053.988925,0.011,4059.836,37.1,603.000,08191c64,45,13,22253026.190,0.061,-92683093.166068,0.006,3157.578,45.4,604.000,00b91c6b,58,11,21208897.088,0.230,-113493116.544890,0.024,-1813.404,28.8,11.000,08191dc4,58,11,21208889.176,0.376,-88272345.215395,0.038,-1410.872,29.6,165.000,00b91dcb,1,0,37984472.589,0.040,-197795116.548713,0.005,-5.106,50.8,631.013,0c1c1c24,1,0,37984452.942,0.040,-160724649.771988,0.005,-4.147,48.7,630.013,06a41c20,2,0,37925172.343,0.058,-197486323.278505,0.006,75.405,45.7,631.013,0c1c1c44,2,0,37925140.065,0.062,-160473679.158033,0.006,61.299,45.2,630.013,06a41c40,3,0,37138559.457,0.051,-193390222.901266,0.006,59.081,46.7,631.013,0c1c1c64,3,0,37138530.875,0.040,-157145274.804389,0.005,48.082,48.7,630.013,06a41c60,8,0,36729238.133,0.040,-191258787.609680,0.005,-735.218,49.9,629.013,081c1c84,8,0,36729222.043,0.040,-155413356.547087,0.005,-597.436,52.0,629.013,02a41c80,14,0,21982551.159,0.040,-114468908.827140,0.005,1120.364,53.8,629.013,081c1ca4,14,0,21982523.470,0.040,-93015252.303723,0.005,910.390,49.9,629.013,02a41ca0,4,0,39188859.436,0.134,-204066667.734368,0.012,48.441,36.8,609.013,0c1c1cc4,4,0,39188831.101,0.202,-165820770.691308,0.018,39.365,36.0,601.000,06a41cc0,9,0,37089094.726,0.143,-193132649.153834,0.013,71.456,36.0,629.013,081c1ce4,9,0,37089075.917,0.316,-156936029.607261,0.032,57.894,31.5,629.013,02a41ce0,8,0,25652588.554,0.104,-134805286.847241,0.009,2696.814,40.0,626.013,083b1c24,8,0,25652591.888,0.084,-100666284.477694,0.008,2013.865,42.4,626.013,01931c2b,8,0,25652588.791,0.076,-103292341.041295,0.007,2066.434,43.5,626.013,02331c20*1b5652db
#BESTPOSA,COM1,0,98.0,FINE,2428,94298.000,636140,46334,18;SOL_COMPUTED,SINGLE,34.36852745247,109.22189334695,500.8196,-33.6674,WGS84,6.1891,2.1856,5.4173,"",0.000,0.000,15,13,0,4,0,06,03,53*3224fe4f
$command,GPSIONA ONCHANGED,response: OK*70
#RANGEA,COM1,0,98.0,FINE,2428,94299.000,637140,2,18;32,12,0,24203187.496,0.086,-127188601.082766,0.008,-2851.209,42.2,631.013,08181c24,12,0,24203184.568,0.199,-99107975.700020,0.020,-2221.561,36.7,628.013,01301c2b,20,0,22190747.797,0.062,-116613166.585343,0.006,3069.552,45.2,632.013,08181c64,20,0,22190745.640,0.114,-90867400.086010,0.010,2391.780,42.0,542.000,01301c6b,20,0,22190750.302,0.048,-87081270.643957,0.006,2292.197,47.0,630.013,01d01c60,15,0,24283773.470,0.106,-127612102.956145,0.009,3919.439,39.7,236.000,08181ca4,15,0,24283773.008,0.271,-99437986.892267,0.028,3053.697,33.9,232.000,01301cab,13,0,24394365.965,0.518,-128193271.916777,0.055,-2695.082,26.4,6.000,08181dc4,13,0,24394369.868,0.176,-95728745.175668,0.017,-2012.622,33.3,454.000,01d01dc0,44,12,19381304.239,0.040,-103749638.343904,0.005,947.252,48.8,605.000,08191c44,44,12,19381292.150,0.077,-80694103.349881,0.007,736.818,43.4,605.000,00b91c4b,45,13,22252284.475,0.127,-119159994.285661,0.011,4059.561,37.4,604.000,08191c64,45,13,22252267.979,0.061,-92679935.634106,0.006,3157.370,45.4,605.000,00b91c6b,58,11,21209235.375,0.631,-113494930.532346,0.066,-1814.112,27.8,12.000,08191dc4,58,11,21209227.813,0.286,-88273756.091080,0.029,-1411.423,29.7,166.000,00b91dcb,1,0,37984473.580,0.040,-197795121.565077,0.005,-5.017,51.0,632.013,0c1c1c24,1,0,37984453.948,0.040,-160724653.847776,0.005,-4.095,49.0,631.013,06a41c20,2,0,37925157.804,0.058,-197486247.773896,0.006,75.509,45.8,632.013,0c1c1c44,2,0,37925125.585,0.061,-160473617.808909,0.006,61.329,45.4,631.013,06a41c40,3,0,37138548.154,0.050,-193390163.673188,0.006,59.237,46.7,632.013,0c1c1c64,3,0,37138519.518,0.040,-157145226.687109,0.005,48.074,48.9,631.013,06a41c60,8,0,36729379.338,0.040,-191259522.832146,0.005,-735.300,50.0,630.013,081c1c84,8,0,36729363.218,0.040,-155413953.977689,0.005,-597.511,52.2,630.013,02a41c80,14,0,21982336.018,0.040,-114467788.617967,0.005,1119.932,53.9,630.013,081c1ca4,14,0,21982308.319,0.040,-93014342.039730,0.005,910.054,50.1,630.013,02a41ca0,4,0,39188850.035,0.175,-204066619.162044,0.015,48.478,36.8,610.013,0c1c1cc4,4,0,39188821.935,0.139,-165820731.225240,0.012,39.469,36.4,602.000,06a41cc0,9,0,37089081.059,0.143,-193132577.793708,0.013,71.240,36.1,630.013,081c1ce4,9,0,37089062.311,0.197,-156935971.579293,0.020,58.066,31.6,630.013,02a41ce0,8,0,25652075.194,0.106,-134802590.014987,0.009,2696.665,39.8,627.013,083b1c24,8,0,25652078.748,0.086,-100664270.606010,0.008,2013.783,42.3,627.013,01931c2b,8,0,25652075.553,0.077,-103290274.646459,0.007,2066.322,43.4,627.013,02331c20*ca8b945d
#BESTPOSA,COM1,0,98.0,FINE,2428,94299.000,637140,47334,18;SOL_COMPUTED,SINGLE,34.36852785706,109.22189359905,500.8378,-33.6674,WGS84,6.1886,2.1857,5.4170,"",0.000,0.000,15,13,0,4,0,06,03,53*20ae5357
#RANGEA,COM1,0,98.0,FINE,2428,94300.000,638140,2,18;32,12,0,24203730.108,0.085,-127191452.291989,0.008,-2851.417,42.4,632.013,08181c24,12,0,24203726.722,0.197,-99110197.362415,0.020,-2222.186,36.8,629.013,01301c2b,20,0,22190163.724,0.062,-116610097.144528,0.006,3069.149,45.3,633.013,08181c64,20,0,22190161.757,0.115,-90865008.295427,0.010,2391.511,41.9,543.000,01301c6b,20,0,22190166.162,0.049,-87078978.542775,0.006,2291.831,46.9,631.013,01d01c60,15,0,24283027.603,0.106,-127608183.396595,0.009,3919.432,39.8,237.000,08181ca4,15,0,24283027.189,0.274,-99434932.637594,0.029,3053.860,33.8,233.000,01301cab,13,0,24394879.204,0.669,-128195967.209138,0.071,-2695.060,26.5,7.000,08181dc4,13,0,24394882.684,0.177,-95730757.847649,0.017,-2012.779,33.3,455.000,01d01dc0,44,12,19381127.315,0.040,-103748691.436689,0.005,946.328,48.7,606.000,08191c44,44,12,19381115.203,0.077,-80693366.885172,0.007,735.998,43.3,606.000,00b91c4b,45,13,22251526.566,0.123,-119155934.920839,0.010,4059.106,37.7,605.000,08191c64,45,13,22251509.861,0.061,-92676778.354179,0.006,3157.005,45.4,606.000,00b91c6b,58,11,21209573.771,0.398,-113496744.886662,0.042,-1814.716,27.3,13.000,08191dc4,58,11,21209566.382,0.262,-88275167.251423,0.027,-1411.527,29.8,167.000,00b91dcb,1,0,37984474.580,0.040,-197795126.587618,0.005,-5.181,51.1,633.013,0c1c1c24,1,0,37984454.881,0.040,-160724657.929189,0.005,-4.251,49.1,632.013,06a41c20,2,0,37925143.291,0.057,-197486172.274756,0.006,75.353,45.8,633.013,0c1c1c44,2,0,37925111.104,0.060,-160473556.455382,0.006,61.232,45.5,632.013,06a41c40,3,0,37138536.744,0.050,-193390104.454573,0.006,59.058,46.8,633.013,0c1c1c64,3,0,37138508.125,0.040,-157145178.561261,0.005,47.992,49.0,632.013,06a41c60,8,0,36729520.562,0.040,-191260258.192612,0.005,-735.561,50.0,631.013,081c1c84,8,0,36729504.469,0.040,-155414551.517829,0.005,-597.727,52.3,631.013,02a41c80,14,0,21982120.943,0.040,-114466668.897400,0.005,1119.328,53.9,631.013,081c1ca4,14,0,21982093.302,0.040,-93013432.176318,0.005,909.555,50.2,631.013,02a41ca0,4,0,39188840.708,0.134,-204066570.629156,0.012,48.262,36.9,611.013,0c1c1cc4,4,0,39188812.546,0.137,-165820691.774148,0.012,39.335,36.6,603.000,06a41cc0,9,0,37089067.295,0.143,-193132506.516626,0.013,71.046,36.1,631.013,081c1ce4,9,0,37089048.559,0.197,-156935913.671145,0.020,57.768,31.6,631.013,02a41ce0,8,0,25651561.967,0.106,-134799893.385984,0.009,2696.330,39.8,628.013,083b1c24,8,0,25651565.629,0.087,-100662256.877287,0.008,2013.619,42.1,628.013,01931c2b,8,0,25651562.382,0.077,-103288208.389385,0.007,2066.054,43.4,628.013,02331c20*e23beb15
#GPSION,98,GPS,FINE,2428,94300000,0,0,18,3;7.450580596923828e-09,2.235174179077148e-08,-5.960464477539063e-08,-1.192092895507813e-07,9.011200000000000e+04,1.146880000000000e+05,-6.553600000000000e+04,-5.242880000000000e+05,0*721e1c3e
#BD2EPHEMA,COM1,0,98.0,FINE,2428,94300.000,638140,4,18;1,94260.0,0,1,1,2428,2428,93600.0,4.216491657e+07,5.176287042e-09,-9.638855754e-01,5.0575530622e-04,2.9251898267e-01,-1.620408148e-05,3.302469850e-06,-9.47187500e+01,-4.96156250e+02,5.401670933e-08,9.452924132e-08,7.9498685702e-02,8.000333246e-11,-2.624992642e+00,-4.25410577e-09,1,93600.0,4.500000000e-09,4.500000000e-09,-8.97446e-07,3.19744e-14,0.00000e+00,TRUE,7.292439720e-05,4.00000000e+00*11fef8e2
#BD2EPHEMA,COM1,0,98.0,FINE,2428,94300.000,638140,4,18;2,94260.0,0,1,1,2428,2428,93600.0,4.216411626e+07,4.353395622e-09,-1.034792571e+00,2.0876596682e-04,-1.3790743674e-01,-8.442439139e-06,-8.691567928e-06,2.60687500e+02,-2.52015625e+02,3.539025784e-08,2.887099981e-08,9.3321220781e-02,9.643258823e-11,3.109447153e+00,-3.28299389e-09,1,93600.0,4.730000000e-08,4.730000000e-08,8.98726e-08,-1.43885e-13,0.00000e+00,TRUE,7.292565041e-05,4.00000000e+00*1e20f2af
#BD2EPHEMA,COM1,0,98.0,FINE,2428,94300.000,638140,4,18;3,94260.0,0,1,1,2428,2428,93600.0,4.216359311e+07,4.599834459e-09,9.653868337e-01,2.2100971546e-04,-1.7459228104e+00,-1.093279570e-05,-6.035901606e-06,1.83859375e+02,-3.27750000e+02,7.171183825e-08,2.374872565e-08,1.0429712794e-01,9.464679956e-11,-3.033133363e+00,-3.50586032e-09,1,93600.0,3.530000000e-08,3.530000000e-08,-1.85333e-07,7.10543e-15,0.00000e+00,TRUE,7.292725402e-05,4.00000000e+00*9c92f280
#BD2EPHEMA,COM1,0,98.0,FINE,2428,94300.000,638140,4,18;4,94260.0,0,1,1,2428,2428,93600.0,4.216452116e+07,4.756983862e-09,5.766796078e-01,8.3901849575e-04,-5.9946405507e-01,-1.541851088e-05,-7.018912584e-06,2.22625000e+02,-4.70812500e+02,2.002343535e-08,1.089647412e-07,1.2609294691e-01,4.357324357e-11,-2.927592395e+00,-3.90444835e-09,1,93600.0,4.170000000e-08,4.170000000e-08,-6.68690e-07,1.76748e-13,0.00000e+00,TRUE,7.292500363e-05,4.00000000e+00*f93946ba
#BD2EPHEMA,COM1,0,98.0,FINE,2428,94300.000,638140,4,18;8,94260.0,0,1,1,2428,2428,93600.0,4.216191797e+07,1.634353792e-09,-4.835178831e-01,4.6098604798e-03,-2.8876592017e+00,2.518296242e-06,1.303851604e-07,2.29968750e+02,9.32343750e+01,-3.911554813e-08,8.847564459e-08,9.5584364558e-01,-3.835874065e-10,-2.833136511e-01,-2.54689180e-09,1,93600.0,9.000000000e-10,9.000000000e-10,-2.50728e-04,-3.33422e-12,0.00000e+00,TRUE,7.292863453e-05,4.00000000e+00*7fdc8c67
#BD2EPHEMA,COM1,0,98.0,FINE,2428,94300.000,638140,5,18;9,94260.0,0,1,1,2428,2428,93600.0,4.215898839e+07,6.189543534e-10,2.733493983e+00,5.8500906453e-03,-2.3098627613e+00,1.485459507e-07,1.233816147e-05,-1.02546875e+02,-8.75000000e+00,1.126900315e-07,2.235174179e-08,1.0515171040e+00,6.428839216e-10,1.761583942e+00,-1.80828961e-09,1,93600.0,-1.030000000e-08,2.800000000e-09,-5.82454e-04,-2.10996e-11,0.00000e+00,TRUE,7.293522069e-05,4.00000000e+00*ea61e25e
#BD2EPHEMA,COM1,0,98.0,FINE,2428,94300.000,638140,5,18;14,94230.0,0,1,1,2428,2428,93600.0,2.790629292e+07,3.695153918e-09,-4.998259994e-01,3.3541407902e-04,8.4595404515e-01,1.750886440e-07,5.861278623e-06,2.49031250e+02,1.43750000e+00,1.117587090e-08,-1.909211278e-08,9.7353075087e-01,3.885876148e-10,2.171553868e+00,-6.83849914e-09,1,93600.0,3.160000000e-08,3.160000000e-08,-3.06821e-04,7.75380e-12,0.00000e+00,TRUE,1.354339405e-04,4.00000000e+00*7d79f7ce
#GLOEPHEMERISA,COM1,0,98.0,FINE,2428,94300.000,638140,5,18;44,12,1,0,2428,94518000,10782,932,0,0,21,0,-9.158572265625000e+06,2.087143750000000e+07,1.154333447265625e+07,4.612865447998047e+02,-1.515855789184570e+03,3.111790657043457e+03,0.000000000000000,-0.000000000000000e+00,-0.000000000000000e+00,-1.231729984283447e-04,1.862645149e-09,0.000000000000000e+00,18060,2,1,0,12*88180032
#GLOEPHEMERISA,COM1,0,98.0,FINE,2428,94300.000,638140,5,18;45,13,1,0,2428,94518000,10782,932,0,0,21,0,-1.664627929687500e+06,2.474319726562500e+07,-6.004713378906250e+06,5.248260498046875e+01,8.536510467529297e+02,3.465950012207031e+03,0.000000931322575,-0.000000000000000e+00,9.313225746154785e-07,5.842186510562897e-06,-3.725290298e-09,-0.000000000000000e+00,18060,2,2,0,12*1bec2728
#GLOEPHEMERISA,COM1,0,98.0,FINE,2428,94300.000,638140,5,18;58,11,1,0,2428,94518000,10782,932,0,0,21,0,-2.125111816406250e+07,1.138700488281250e+07,8.266173339843750e+06,-1.010632514953613e+03,5.479898452758789e+02,-3.355565071105957e+03,-0.000000931322575,-9.313225746154785e-07,-0.000000000000000e+00,3.274362534284592e-04,9.313225746e-10,-3.637978807091713e-12,18540,2,3,0,12*d0f585d2
#GALEPHEMERISA,COM1,0,98.0,FINE,2428,94300.000,638140,6,18;8,FALSE,TRUE,0,0,0,0,0,0,107,0,29,93600,5.44061548e+03,3.2662e-09,-7.59470980e-01,4.782036413e-04,4.927080647e-01,-2.5705e-06,4.8559e-06,2.447e+02,-5.766e+01,0.0000e+00,-1.8626e-08,9.750572635e-01,9.5004e-11,2.856077308e+00,-5.74202489e-09,0,0.000000000e+00,0.000000e+00,0.0e+00,93600,-1.860354678e-04,-7.062795e-12,0.0e+00,-4.657e-09,-5.122e-09*a04d4338
#GPSEPHEM,98,GPS,FINE,2428,94300000,0,0,18,6;12,94260.0,0,70,70,2428,2428,100800.0,2.656068409e+07,4.648050753e-09,2.712248131e+00,8.7095656199e-03,1.5870354241e+00,3.103166819e-06,8.933246136e-06,2.00781250e+02,5.93125000e+01,1.415610313e-07,-1.396983862e-07,9.5830051117e-01,1.160762636e-10,-1.466510605e+00,-7.93854496e-09,70,100800.0,-1.257285476e-08,-6.0552545e-04,5.6843419e-13,0.0000000e+00,TRUE,1.458558575e-04,4.00000000e+00*53d3c1f6
#GPSEPHEM,98,GPS,FINE,2428,94300000,0,0,18,6;13,94260.0,63,26,26,2428,2428,100800.0,2.655950878e+07,4.635550232e-09,2.575116668e+00,2.2728930926e-03,1.8198118416e+00,2.713873982e-06,9.573996067e-06,1.91656250e+02,5.12187500e+01,6.705522537e-08,-6.519258022e-08,9.5881946819e-01,1.382200431e-10,-1.575031189e+00,-8.01354808e-09,26,100800.0,-8.381903172e-09,4.1786302e-04,5.2295945e-12,0.0000000e+00,TRUE,1.458655264e-04,4.00000000e+00*10a832e2
#GPSEPHEM,98,GPS,FINE,2428,94300000,0,0,18,6;15,94260.0,0,61,61,2428,2428,100800.0,2.656115225e+07,5.119141804e-09,-1.075488651e+00,1.7032536212e-02,1.5371767577e+00,1.862645149e-08,5.615875125e-06,2.65781250e+02,-7.06250000e+00,-2.253800631e-07,2.644956112e-07,9.4470280758e-01,3.003696545e-10,2.478255922e+00,-8.64214569e-09,61,100800.0,-1.071020961e-08,4.2976020e-04,3.0695446e-12,0.0000000e+00,TRUE,1.458524725e-04,4.00000000e+00*1ee8dacc
#GPSEPHEM,98,GPS,FINE,2428,94300000,0,0,18,6;19,94290.0,0,32,32,2428,2428,100800.0,2.656121355e+07,4.979135972e-09,1.588330368e+00,1.1764418799e-02,3.0287478475e+00,1.553446054e-06,4.317611456e-06,2.93281250e+02,2.66562500e+01,4.656612873e-08,1.508742571e-07,9.5661215448e-01,-3.735869900e-10,-3.903769582e-01,-8.43999442e-09,32,100800.0,-1.536682248e-08,7.0377067e-04,4.5474735e-13,0.0000000e+00,TRUE,1.458518276e-04,4.00000000e+00*6848e371
#GPSEPHEM,98,GPS,FINE,2428,94300000,0,0,18,7;20,94290.0,0,52,52,2428,2428,100800.0,2.655970595e+07,4.689838208e-09,2.564804794e+00,1.9065230154e-03,-1.7615133887e+00,-1.234933734e-06,5.258247256e-06,2.78937500e+02,-2.38125000e+01,2.421438694e-08,-2.235174179e-08,9.6206498852e-01,1.814361290e-10,2.630518565e+00,-8.19355558e-09,52,100800.0,-6.984919310e-09,2.3574708e-04,1.1937118e-11,0.0000000e+00,TRUE,1.458639565e-04,4.00000000e+00*d36d59bf
#GPSEPHEM,98,GPS,FINE,2428,94300000,0,0,18,7;25,94290.0,0,47,47,2428,2428,100800.0,2.656029168e+07,4.829844040e-09,2.645243241e+00,1.2902229326e-02,1.1616892086e+00,2.296641469e-06,9.389594197e-06,1.87218750e+02,4.67500000e+01,5.215406418e-08,-1.899898052e-07,9.4671861214e-01,1.264338379e-10,-1.561938201e+00,-7.90318634e-09,47,100800.0,5.587935448e-09,4.0509831e-04,-3.1832315e-12,0.0000000e+00,TRUE,1.458592716e-04,4.00000000e+00*041f957e
#BESTPOSA,COM1,0,98.0,FINE,2428,94300.000,638140,48338,18;SOL_COMPUTED,SINGLE,34.36852816697,109.22189380266,500.8629,-33.6674,WGS84,6.1882,2.1856,5.4166,"",0.000,0.000,15,13,0,4,0,06,03,53*c00427a7
#RANGEA,COM1,0,98.0,FINE,2428,94301.000,639132,2,18;32,12,0,24204272.703,0.084,-127194303.242916,0.008,-2851.075,42.5,633.013,08181c24,12,0,24204269.218,0.195,-99112418.926201,0.019,-2222.216,37.0,630.013,01301c2b,20,0,22189579.633,0.062,-116607027.662563,0.006,3069.269,45.3,634.013,08181c64,20,0,22189577.826,0.116,-90862616.509235,0.010,2391.601,41.8,544.000,01301c6b,20,0,22189582.011,0.049,-87076686.396431,0.006,2291.936,46.9,632.013,01d01c60,15,0,24282281.669,0.107,-127604263.529966,0.009,3919.819,39.6,238.000,08181ca4,15,0,24282281.358,0.330,-99431878.211467,0.035,3054.345,33.5,234.000,01301cab,13,0,24395392.493,0.669,-128198662.068013,0.071,-2695.201,26.5,8.000,08181dc4,13,0,24395395.526,0.177,-95732770.265223,0.017,-2012.481,33.3,456.000,01d01dc0,44,12,19380950.548,0.040,-103747745.004523,0.005,945.911,48.6,607.000,08191c44,44,12,19380938.448,0.078,-80692630.746500,0.007,735.804,43.3,607.000,00b91c4b,45,13,22250768.511,0.122,-119151875.513564,0.010,4059.158,37.9,606.000,08191c64,45,13,22250751.858,0.061,-92673621.019672,0.006,3157.139,45.4,607.000,00b91c6b,58,11,21209912.475,0.529,-113498559.423285,0.056,-1814.417,27.0,14.000,08191dc4,58,11,21209905.196,0.217,-88276578.501806,0.022,-1411.416,29.9,168.000,00b91dcb,1,0,37984475.488,0.040,-197795131.242770,0.005,-4.741,51.1,634.013,0c1c1c24,1,0,37984455.754,0.040,-160724661.704949,0.005,-3.849,49.0,633.013,06a41c20,2,0,37925128.701,0.058,-197486096.397731,0.006,75.822,45.8,634.013,0c1c1c44,2,0,37925096.524,0.060,-160473494.799414,0.006,61.642,45.5,633.013,06a41c40,3,0,37138525.251,0.050,-193390044.862534,0.006,59.513,46.7,634.013,0c1c1c64,3,0,37138496.689,0.040,-157145130.139282,0.005,48.358,48.9,633.013,06a41c60,8,0,36729661.772,0.040,-191260993.322236,0.005,-735.226,50.0,632.013,081c1c84,8,0,36729645.664,0.040,-155415148.871429,0.005,-597.459,52.2,632.013,02a41c80,14,0,21981905.917,0.040,-114465549.287459,0.005,1119.298,53.8,632.013,081c1ca4,14,0,21981878.269,0.040,-93012522.402961,0.005,909.548,50.1,632.013,02a41ca0,4,0,39188831.368,0.133,-204066521.681188,0.012,48.925,36.9,612.013,0c1c1cc4,4,0,39188803.181,0.138,-165820652.012940,0.012,39.655,36.5,604.000,06a41cc0,9,0,37089053.495,0.144,-193132434.940656,0.013,71.501,36.0,632.013,081c1ce4,9,0,37089034.654,0.276,-156935855.466643,0.027,58.177,31.6,632.013,02a41ce0,8,0,25651048.770,0.108,-134797196.559184,0.009,2696.680,39.5,629.013,083b1c24,8,0,25651052.410,0.087,-100660243.028088,0.008,2013.761,42.2,629.013,01931c2b,8,0,25651049.171,0.078,-103286141.997946,0.007,2066.270,43.3,629.013,02331c20*9a4456a4
#BESTPOSA,COM1,0,98.0,FINE,2428,94301.000,639132,49327,18;SOL_COMPUTED,SINGLE,34.36852868683,109.22189401200,500.8660,-33.6674,WGS84,6.1877,2.1856,5.4163,"",0.000,0.000,15,13,0,4,0,06,03,53*cada1383
#RANGEA,COM1,0,98.0,FINE,2428,94302.000,640140,2,18;32,12,0,24204815.396,0.084,-127197154.705548,0.008,-2851.641,42.6,634.013,08181c24,12,0,24204811.668,0.192,-99114640.814222,0.019,-2221.717,37.2,631.013,01301c2b,20,0,22188995.605,0.061,-116603958.936157,0.006,3068.419,45.3,635.013,08181c64,20,0,22188993.842,0.116,-90860225.308000,0.010,2390.796,41.8,545.000,01301c6b,20,0,22188997.995,0.049,-87074394.810338,0.006,2291.369,46.9,633.013,01d01c60,15,0,24281535.716,0.108,-127600344.134974,0.009,3919.208,39.5,239.000,08181ca4,15,0,24281535.490,0.357,-99428824.128403,0.038,3054.300,33.4,235.000,01301cab,13,0,24395905.417,0.309,-128201357.440557,0.033,-2695.670,26.5,9.000,08181dc4,13,0,24395908.396,0.176,-95734782.982597,0.017,-2012.622,33.3,457.000,01d01dc0,44,12,19380773.935,0.040,-103746799.855496,0.005,944.585,48.6,608.000,08191c44,44,12,19380761.983,0.077,-80691895.652363,0.007,734.702,43.4,608.000,00b91c4b,45,13,22250010.654,0.118,-119147816.824659,0.010,4058.316,38.2,607.000,08191c64,45,13,22249993.853,0.060,-92670464.270554,0.006,3156.513,45.5,608.000,00b91c6b,58,11,21210250.347,0.659,-113500374.749976,0.070,-1816.243,26.0,15.000,08191dc4,58,11,21210244.346,0.213,-88277990.401700,0.022,-1412.168,30.2,169.000,00b91dcb,1,0,37984476.501,0.040,-197795136.300880,0.005,-5.196,51.3,635.013,0c1c1c24,1,0,37984456.711,0.040,-160724665.815710,0.005,-4.147,49.0,634.013,06a41c20,2,0,37925114.254,0.057,-197486020.941625,0.006,75.338,45.9,635.013,0c1c1c44,2,0,37925081.982,0.061,-160473433.484846,0.006,61.217,45.4,634.013,06a41c40,3,0,37138513.913,0.049,-193389985.693466,0.006,59.013,46.9,635.013,0c1c1c64,3,0,37138485.327,0.040,-157145082.049942,0.005,48.007,48.9,634.013,06a41c60,8,0,36729803.011,0.040,-191261729.003688,0.005,-735.844,50.1,633.013,081c1c84,8,0,36729786.956,0.040,-155415746.673919,0.005,-597.965,52.2,633.013,02a41c80,14,0,21981691.053,0.040,-114464430.586281,0.005,1118.330,53.9,633.013,081c1ca4,14,0,21981663.419,0.040,-93011613.369062,0.005,908.743,50.1,633.013,02a41ca0,4,0,39188822.079,0.131,-204066473.158000,0.011,48.404,37.0,613.013,0c1c1cc4,4,0,39188794.127,0.139,-165820612.601849,0.012,39.298,36.4,605.000,06a41cc0,9,0,37089040.067,0.143,-193132363.866483,0.013,70.994,36.1,633.013,081c1ce4,9,0,37089020.989,0.237,-156935797.803843,0.024,57.395,31.5,633.013,02a41ce0,8,0,25650535.523,0.110,-134794500.352703,0.009,2695.994,39.3,630.013,083b1c24,8,0,25650539.334,0.087,-100658229.634120,0.008,2013.180,42.2,630.013,01931c2b,8,0,25650536.097,0.078,-103284076.074792,0.007,2065.763,43.2,630.013,02331c20*90ba04c5
#BESTPOSA,COM1,0,98.0,FINE,2428,94302.000,640140,50334,18;SOL_COMPUTED,SINGLE,34.36852932873,109.22189420195,500.8664,-33.6674,WGS84,6.1841,2.1837,5.4105,"",0.000,0.000,15,13,0,4,0,06,03,53*fadba403
#RANGEA,COM1,0,98.0,FINE,2428,94303.000,641140,2,18;31,12,0,24205358.061,0.083,-127200006.461637,0.008,-2851.589,42.6,635.013,08181c24,12,0,24205354.375,0.191,-99116862.972453,0.019,-2221.717,37.2,632.013,01301c2b,20,0,22188411.721,0.061,-116600890.709171,0.006,3068.248,45.4,636.013,08181c64,20,0,22188409.815,0.114,-90857834.476756,0.010,2391.086,42.0,546.000,01301c6b,20,0,22188414.094,0.049,-87072103.608512,0.006,2291.191,46.9,634.013,01d01c60,15,0,24280789.995,0.107,-127596424.958395,0.009,3919.357,39.6,240.000,08181ca4,15,0,24280789.888,0.254,-99425770.262129,0.027,3054.956,33.5,236.000,01301cab,13,0,24396418.827,0.609,-128204052.942820,0.064,-2695.626,26.8,10.000,08181dc4,13,0,24396421.401,0.178,-95736795.916343,0.017,-2012.823,33.1,458.000,01d01dc0,44,12,19380597.550,0.040,-103745855.782333,0.005,943.773,48.6,609.000,08191c44,44,12,19380585.688,0.077,-80691161.377342,0.007,734.039,43.4,609.000,00b91c4b,45,13,22249253.067,0.116,-119143758.702177,0.010,4058.115,38.5,608.000,08191c64,45,13,22249236.043,0.059,-92667307.953432,0.006,3156.297,45.6,609.000,00b91c6b,58,11,21210583.869,0.207,-88279402.762830,0.021,-1412.362,30.7,170.000,00b91dcb,1,0,37984477.548,0.040,-197795141.540873,0.005,-5.076,51.3,636.013,0c1c1c24,1,0,37984457.724,0.040,-160724670.078679,0.005,-4.117,48.9,635.013,06a41c20,2,0,37925099.736,0.056,-197485945.664312,0.006,75.420,46.0,636.013,0c1c1c44,2,0,37925067.558,0.062,-160473372.311556,0.006,61.299,45.3,635.013,06a41c40,3,0,37138502.677,0.049,-193389926.699038,0.006,59.170,46.9,636.013,0c1c1c64,3,0,37138473.994,0.040,-157145034.118852,0.005,48.052,48.8,635.013,06a41c60,8,0,36729944.355,0.040,-191262465.023575,0.005,-735.949,50.0,634.013,081c1c84,8,0,36729928.312,0.040,-155416344.742767,0.005,-597.988,52.1,634.013,02a41c80,14,0,21981476.322,0.040,-114463312.569218,0.005,1117.935,53.9,634.013,081c1ca4,14,0,21981448.715,0.040,-93010704.892851,0.005,908.415,50.0,634.013,02a41ca0,4,0,39188812.735,0.145,-204066424.821047,0.013,48.545,37.0,614.013,0c1c1cc4,4,0,39188784.935,0.139,-165820573.329496,0.012,39.402,36.4,606.000,06a41cc0,9,0,37089026.379,0.143,-193132293.113684,0.013,70.882,36.0,634.013,081c1ce4,9,0,37089007.319,0.239,-156935740.224699,0.024,57.701,31.4,634.013,02a41ce0,8,0,25650022.404,0.112,-134791804.529853,0.009,2695.890,39.0,631.013,083b1c24,8,0,25650026.334,0.087,-100656216.502754,0.008,2013.195,42.1,631.013,01931c2b,8,0,25650023.016,0.078,-103282010.439573,0.007,2065.719,43.2,631.013,02331c20*f2a0eb3b
#BESTPOSA,COM1,0,98.0,FINE,2428,94303.000,641140,51334,18;SOL_COMPUTED,SINGLE,34.36852969286,109.22189443357,500.8626,-33.6674,WGS84,6.1867,2.1857,5.4156,"",0.000,0.000,15,13,0,4,0,06,03,53*b8d44f40
#RANGEA,COM1,0,98.0,FINE,2428,94304.000,642140,2,18;31,12,0,24205900.725,0.083,-127202858.008230,0.008,-2851.835,42.7,636.013,08181c24,12,0,24205896.968,0.192,-99119084.947437,0.019,-2222.321,37.1,633.013,01301c2b,20,0,22187827.927,0.060,-116597822.488631,0.006,3067.808,45.5,637.013,08181c64,20,0,22187825.874,0.115,-90855443.659334,0.010,2390.386,41.9,547.000,01301c6b,20,0,22187830.152,0.049,-87069812.402032,0.006,2290.915,46.8,635.013,01d01c60,15,0,24280044.124,0.108,-127592505.480143,0.009,3919.246,39.5,241.000,08181ca4,15,0,24280043.880,0.363,-99422716.098166,0.038,3054.650,33.2,237.000,01301cab,13,0,24396931.664,0.381,-128206748.192109,0.040,-2695.439,26.8,11.000,08181dc4,13,0,24396934.294,0.179,-95738808.589165,0.017,-2012.719,33.0,459.000,01d01dc0,44,12,19380421.255,0.040,-103744912.202510,0.005,942.893,48.7,610.000,08191c44,44,12,19380409.456,0.076,-80690427.485095,0.007,733.361,43.5,610.000,00b91c4b,45,13,22248495.400,0.113,-119139700.603078,0.010,4057.631,38.8,609.000,08191c64,45,13,22248478.210,0.058,-92664151.653997,0.006,3155.939,45.8,610.000,00b91c6b,58,11,21210923.167,0.200,-88280815.285787,0.020,-1412.973,31.3,171.000,00b91dcb,1,0,37984478.544,0.040,-197795146.451007,0.005,-5.173,51.4,637.013,0c1c1c24,1,0,37984458.645,0.040,-160724674.064092,0.005,-4.184,49.0,636.013,06a41c20,2,0,37925085.233,0.056,-197485870.047341,0.006,75.353,46.0,637.013,0c1c1c44,2,0,37925053.013,0.061,-160473310.875000,0.006,61.277,45.4,636.013,06a41c40,3,0,37138491.285,0.049,-193389867.375996,0.006,59.095,46.9,637.013,0c1c1c64,3,0,37138462.605,0.040,-157144985.906547,0.005,48.045,48.9,636.013,06a41c60,8,0,36730085.611,0.040,-191263200.835092,0.005,-736.098,50.0,635.013,081c1c84,8,0,36730069.666,0.040,-155416942.656770,0.005,-598.159,52.2,635.013,02a41c80,14,0,21981261.621,0.040,-114462194.700951,0.005,1117.413,53.9,635.013,081c1ca4,14,0,21981234.006,0.040,-93009796.534423,0.005,907.961,50.1,635.013,02a41ca0,4,0,39188803.358,0.199,-204066376.189536,0.017,48.322,37.0,615.013,0c1c1cc4,4,0,39188775.651,0.150,-165820533.793743,0.013,39.372,36.6,607.000,06a41cc0,9,0,37089012.682,0.144,-193132222.074797,0.013,70.830,36.0,635.013,081c1ce4,9,0,37088993.555,0.199,-156935682.519028,0.020,57.634,31.4,635.013,02a41ce0,8,0,25649509.211,0.111,-134789108.556710,0.009,2695.577,39.1,632.013,083b1c24,8,0,25649513.329,0.089,-100654203.294842,0.008,2012.919,41.9,632.013,01931c2b,8,0,25649509.893,0.079,-103279944.703562,0.007,2065.413,43.1,632.013,02331c20*6325f20a
#BESTPOSA,COM1,0,98.0,FINE,2428,94304.000,642140,52334,18;SOL_COMPUTED,SINGLE,34.36853010482,109.22189457769,500.8839,-33.6674,WGS84,6.1888,2.1861,5.4153,"",0.000,0.000,15,13,0,4,0,06,03,53*46d18466
$command,BDSIONA ONCHANGED,response: OK*61
#RANGEA,COM1,0,98.0,FINE,2428,94305.000,643140,2,18;31,12,0,24206443.453,0.082,-127205710.122184,0.008,-2852.036,42.8,637.013,08181c24,12,0,24206439.715,0.194,-99121307.379022,0.019,-2222.708,37.0,634.013,01301c2b,20,0,22187244.260,0.059,-116594755.056469,0.006,3067.354,45.6,638.013,08181c64,20,0,22187242.250,0.115,-90853053.445621,0.010,2389.641,41.9,548.000,01301c6b,20,0,22187246.311,0.050,-87067521.787487,0.006,2290.587,46.7,636.013,01d01c60,15,0,24279298.287,0.106,-127588586.536775,0.009,3919.000,39.7,242.000,08181ca4,15,0,24279298.205,0.392,-99419662.381141,0.041,3053.875,33.0,238.000,01301cab,13,0,24397444.849,0.428,-128209443.963114,0.045,-2695.723,27.0,12.000,08181dc4,13,0,24397447.341,0.180,-95740821.669740,0.018,-2013.047,33.0,460.000,01d01dc0,44,12,19380245.300,0.040,-103743969.951610,0.005,941.925,48.8,611.000,08191c44,44,12,19380233.496,0.076,-80689694.629149,0.007,732.601,43.5,611.000,00b91c4b,45,13,22247737.907,0.110,-119135643.328677,0.009,4057.169,39.3,610.000,08191c64,45,13,22247720.535,0.058,-92660996.020466,0.006,3155.552,45.8,611.000,00b91c6b,58,11,21211262.649,0.198,-88282228.460207,0.020,-1413.338,31.5,172.000,00b91dcb,1,0,37984479.606,0.040,-197795151.822950,0.005,-5.285,51.3,638.013,0c1c1c24,1,0,37984459.676,0.040,-160724678.430631,0.005,-4.288,49.1,637.013,06a41c20,2,0,37925070.826,0.057,-197485794.905256,0.006,75.241,45.9,638.013,0c1c1c44,2,0,37925038.589,0.060,-160473249.803790,0.006,61.217,45.5,637.013,06a41c40,3,0,37138479.975,0.049,-193389808.511357,0.006,58.999,46.8,638.013,0c1c1c64,3,0,37138451.309,0.040,-157144938.080659,0.005,47.896,49.0,637.013,06a41c60,8,0,36730227.057,0.040,-191263937.259017,0.005,-736.373,49.9,636.013,081c1c84,8,0,36730211.092,0.040,-155417541.061930,0.005,-598.398,52.3,636.013,02a41c80,14,0,21981047.113,0.040,-114461077.786712,0.005,1116.795,53.8,636.013,081c1ca4,14,0,21981019.501,0.040,-93008888.948142,0.005,907.477,50.1,636.013,02a41ca0,4,0,39188794.205,0.160,-204066327.993376,0.014,48.367,36.9,616.013,0c1c1cc4,4,0,39188766.381,0.150,-165820494.627732,0.013,39.268,36.6,608.000,06a41cc0,9,0,37088998.995,0.146,-193132151.625564,0.013,70.480,35.8,636.013,081c1ce4,9,0,37088979.905,0.198,-156935625.269989,0.020,57.417,31.5,636.013,02a41ce0,8,0,25648996.190,0.112,-134786413.251229,0.009,2695.279,39.0,633.013,083b1c24,8,0,25649000.431,0.088,-100652190.577595,0.008,2012.680,42.0,633.013,01931c2b,8,0,25648996.966,0.079,-103277879.474742,0.007,2065.190,43.1,633.013,02331c20*23d6c304
#BDSION,98,GPS,FINE,2428,94305000,0,0,18,3;1.955777406692505e-08,2.980232238769531e-08,-5.960464477539063e-07,1.013278961181641e-06,1.454080000000000e+05,-8.192000000000000e+05,6.029312000000000e+06,-4.980736000000000e+06,0*a50d88a5
#BESTPOSA,COM1,0,98.0,FINE,2428,94305.000,643140,53334,18;SOL_COMPUTED,SINGLE,34.36853046512,109.22189481712,500.8952,-33.6674,WGS84,6.1883,2.1861,5.4151,"",0.000,0.000,15,13,0,4,0,06,03,53*df73eb6d
#RANGEA,COM1,0,98.0,FINE,2428,94306.000,644140,2,18;31,12,0,24206986.262,0.080,-127208562.247375,0.008,-2851.887,43.0,638.013,08181c24,12,0,24206982.654,0.196,-99123529.816188,0.020,-2221.970,36.9,635.013,01301c2b,20,0,22186660.655,0.058,-116591687.846857,0.006,3067.324,45.8,639.013,08181c64,20,0,22186658.588,0.116,-90850663.418046,0.010,2390.014,41.8,549.000,01301c6b,20,0,22186662.589,0.049,-87065231.342409,0.006,2290.550,46.8,637.013,01d01c60,15,0,24278552.501,0.105,-127584667.516912,0.009,3919.328,39.8,243.000,08181ca4,15,0,24278552.048,0.287,-99416608.592710,0.030,3052.490,33.0,239.000,01301cab,13,0,24397958.126,0.494,-128212139.637109,0.052,-2695.253,27.4,13.000,08181dc4,13,0,24397960.455,0.198,-95742834.666768,0.019,-2012.823,33.0,461.000,01d01dc0,44,12,19380069.512,0.040,-103743028.436269,0.005,941.381,49.0,612.000,08191c44,44,12,19380057.753,0.077,-80688962.341086,0.007,732.176,43.3,612.000,00b91c4b,45,13,22246980.489,0.107,-119131586.293629,0.009,4057.184,39.7,611.000,08191c64,45,13,22246963.001,0.058,-92657840.544663,0.006,3155.582,45.7,612.000,00b91c6b,58,11,21211602.694,0.196,-88283641.874015,0.019,-1413.249,31.7,173.000,00b91dcb,1,0,37984480.651,0.040,-197795157.093424,0.005,-4.994,51.2,639.013,0c1c1c24,1,0,37984460.698,0.040,-160724682.714961,0.005,-4.057,49.0,638.013,06a41c20,2,0,37925056.409,0.058,-197485719.656351,0.006,75.509,45.8,639.013,0c1c1c44,2,0,37925024.183,0.061,-160473188.666360,0.006,61.359,45.4,638.013,06a41c40,3,0,37138468.661,0.050,-193389749.541636,0.006,59.259,46.7,639.013,0c1c1c64,3,0,37138439.946,0.040,-157144890.170148,0.005,48.104,48.9,638.013,06a41c60,8,0,36730368.475,0.040,-191264673.718816,0.005,-736.232,49.8,637.013,081c1c84,8,0,36730352.533,0.040,-155418139.491334,0.005,-598.256,52.2,637.013,02a41c80,14,0,21980832.683,0.040,-114459961.262344,0.005,1116.564,53.7,637.013,081c1ca4,14,0,21980805.080,0.040,-93007981.681578,0.005,907.313,50.0,637.013,02a41ca0,4,0,39188784.763,0.162,-204066279.727480,0.014,48.478,36.8,617.013,0c1c1cc4,4,0,39188757.049,0.138,-165820455.381381,0.012,39.499,36.5,609.000,06a41cc0,9,0,37088985.214,0.147,-193132081.179147,0.013,70.592,35.7,637.013,081c1ce4,9,0,37088966.569,0.199,-156935567.995319,0.020,57.470,31.4,637.013,02a41ce0,8,0,25648483.196,0.112,-134783718.034856,0.010,2695.384,39.0,634.013,083b1c24,8,0,25648487.591,0.088,-100650177.896126,0.008,2012.852,42.0,634.013,01931c2b,8,0,25648483.980,0.078,-103275814.304395,0.007,2065.339,43.2,634.013,02331c20*c8b01c76
#BESTPOSA,COM1,0,98.0,FINE,2428,94306.000,644140,54334,18;SOL_COMPUTED,SINGLE,34.36853058216,109.22189503603,500.9208,-33.6674,WGS84,6.1879,2.1862,5.4148,"",0.000,0.000,15,13,0,4,0,06,03,53*0f0430d3
#RANGEA,COM1,0,98.0,FINE,2428,94307.000,645140,2,18;31,12,0,24207529.140,0.081,-127211414.700912,0.008,-2852.572,42.8,639.013,08181c24,12,0,24207525.546,0.200,-99125752.475574,0.020,-2223.207,36.7,636.013,01301c2b,20,0,22186077.215,0.058,-116588621.197666,0.006,3066.385,45.7,640.013,08181c64,20,0,22186074.940,0.116,-90848273.812326,0.010,2389.648,41.8,550.000,01301c6b,20,0,22186078.930,0.049,-87062941.318091,0.006,2289.797,46.8,638.013,01d01c60,15,0,24277806.762,0.110,-127580748.804922,0.009,3918.486,39.2,244.000,08181ca4,15,0,24277806.309,0.531,-99413555.084697,0.056,3052.832,32.8,240.000,01301cab,13,0,24398471.202,1.162,-128214831.522655,0.150,-2696.594,27.4,0.000,081811c4,13,0,24398473.536,0.182,-95744847.835956,0.018,-2013.174,32.8,462.000,01d01dc0,44,12,19379893.948,0.040,-103742088.025662,0.005,939.891,49.2,613.000,08191c44,44,12,19379882.029,0.076,-80688230.919303,0.007,730.917,43.4,613.000,00b91c4b,45,13,22246222.939,0.106,-119127529.827329,0.009,4056.193,39.8,612.000,08191c64,45,13,22246205.401,0.057,-92654685.510292,0.006,3154.814,45.9,613.000,00b91c6b,58,11,21211942.769,0.189,-88285055.878475,0.019,-1414.351,32.3,174.000,00b91dcb,1,0,37984481.759,0.040,-197795162.583369,0.005,-5.598,51.1,640.013,0c1c1c24,1,0,37984461.781,0.040,-160724687.178321,0.005,-4.579,48.8,639.013,06a41c20,2,0,37925042.001,0.058,-197485644.629265,0.006,74.876,45.7,640.013,0c1c1c44,2,0,37925009.763,0.062,-160473127.689989,0.006,60.897,45.2,639.013,06a41c40,3,0,37138457.395,0.051,-193389690.811958,0.006,58.581,46.7,640.013,0c1c1c64,3,0,37138428.631,0.040,-157144842.430046,0.005,47.657,48.8,639.013,06a41c60,8,0,36730509.964,0.040,-191265410.545116,0.005,-737.014,49.7,638.013,081c1c84,8,0,36730494.062,0.040,-155418738.215163,0.005,-598.874,52.1,638.013,02a41c80,14,0,21980618.425,0.040,-114458845.448589,0.005,1115.454,53.6,638.013,081c1ca4,14,0,21980590.780,0.040,-93007074.992478,0.005,906.426,49.9,638.013,02a41ca0,4,0,39188775.454,0.190,-204066231.633639,0.017,48.046,36.7,618.013,0c1c1cc4,4,0,39188747.987,0.139,-165820416.335288,0.012,39.037,36.4,610.000,06a41cc0,9,0,37088971.491,0.151,-193132011.035835,0.014,69.966,35.5,638.013,081c1ce4,9,0,37088952.975,0.202,-156935511.045406,0.020,56.807,31.2,638.013,02a41ce0,8,0,25647970.314,0.113,-134781023.240797,0.010,2694.586,38.8,635.013,083b1c24,8,0,25647974.777,0.088,-100648165.575413,0.008,2012.077,42.0,635.013,01931c2b,8,0,25647971.211,0.078,-103273749.451784,0.007,2064.765,43.3,635.013,02331c20*cd35c4fe
#BESTPOSA,COM1,0,98.0,FINE,2428,94307.000,645140,55334,18;SOL_COMPUTED,SINGLE,34.36853099593,109.22189529006,500.9191,-33.6674,WGS84,6.1874,2.1862,5.4144,"",0.000,0.000,15,13,0,4,0,06,03,53*9ca3db4a
#RANGEA,COM1,0,98.0,FINE,2428,94308.000,646140,2,18;31,12,0,24208072.028,0.083,-127214267.546610,0.008,-2852.423,42.7,640.013,08181c24,12,0,24208067.828,0.203,-99127975.490950,0.020,-2223.222,36.5,637.013,01301c2b,20,0,22185493.838,0.059,-116585555.133528,0.006,3066.363,45.6,641.013,08181c64,20,0,22185491.706,0.116,-90845884.692094,0.010,2389.365,41.8,551.000,01301c6b,20,0,22185495.462,0.050,-87060651.721720,0.006,2289.827,46.8,639.013,01d01c60,15,0,24277060.949,0.114,-127576830.376695,0.010,3918.821,38.8,245.000,08181ca4,15,0,24277060.699,0.428,-99410501.772246,0.045,3051.871,32.7,241.000,01301cab,13,0,24398984.678,1.427,-128217529.876309,0.150,-2696.594,27.5,0.000,081811c4,13,0,24398986.489,0.184,-95746861.294178,0.018,-2013.025,32.7,463.000,01d01dc0,44,12,19379718.661,0.040,-103741148.769337,0.005,939.354,49.3,614.000,08191c44,44,12,19379706.517,0.076,-80687500.372627,0.007,730.619,43.5,614.000,00b91c4b,45,13,22245465.463,0.105,-119123473.974208,0.009,4056.230,39.9,613.000,08191c64,45,13,22245447.978,0.056,-92651530.961956,0.006,3154.837,46.0,614.000,00b91c6b,58,11,21212283.023,0.185,-88286470.390081,0.018,-1414.448,32.6,175.000,00b91dcb,1,0,37984482.890,0.040,-197795168.337341,0.005,-5.263,51.2,641.013,0c1c1c24,1,0,37984462.899,0.040,-160724691.849924,0.005,-4.296,48.8,640.013,06a41c20,2,0,37925027.628,0.057,-197485569.854031,0.006,75.226,45.8,641.013,0c1c1c44,2,0,37924995.397,0.062,-160473066.930355,0.006,61.143,45.3,640.013,06a41c40,3,0,37138446.130,0.050,-193389632.315959,0.006,58.999,46.7,641.013,0c1c1c64,3,0,37138417.412,0.040,-157144794.906890,0.005,47.978,48.8,640.013,06a41c60,8,0,36730651.528,0.040,-191266147.758407,0.005,-736.790,49.8,639.013,081c1c84,8,0,36730635.678,0.040,-155419337.269142,0.005,-598.681,52.1,639.013,02a41c80,14,0,21980404.313,0.040,-114457730.384412,0.005,1115.312,53.7,639.013,081c1ca4,14,0,21980376.613,0.040,-93006168.911610,0.005,906.292,49.8,639.013,02a41ca0,4,0,39188766.307,0.176,-204066183.839483,0.016,48.329,36.7,619.013,0c1c1cc4,4,0,39188738.801,0.138,-165820377.488854,0.012,39.305,36.5,611.000,06a41cc0,9,0,37088957.946,0.150,-193131941.265186,0.014,70.174,35.5,639.013,081c1ce4,9,0,37088939.567,0.262,-156935454.353849,0.026,56.963,31.2,639.013,02a41ce0,8,0,25647457.442,0.114,-134778328.898005,0.010,2694.720,38.7,636.013,083b1c24,8,0,25647462.094,0.088,-100646153.552397,0.008,2012.323,42.0,636.013,01931c2b,8,0,25647458.563,0.077,-103271684.971822,0.007,2064.802,43.4,636.013,02331c20*41046c00
#BESTPOSA,COM1,0,98.0,FINE,2428,94308.000,646140,56334,18;SOL_COMPUTED,SINGLE,34.36853121753,109.22189552931,500.9330,-33.6674,WGS84,6.1912,2.1872,5.4247,"",0.000,0.000,15,13,0,4,0,06,03,53*303cee55
#RANGEA,COM1,0,98.0,FINE,2428,94309.000,647140,2,18;29,12,0,24208614.865,0.091,-127217120.213868,0.008,-2852.609,41.6,641.013,08181c24,12,0,24208610.528,0.204,-99130198.342919,0.021,-2222.395,36.4,638.013,01301c2b,20,0,22184910.476,0.067,-116582489.154620,0.007,3065.841,44.7,642.013,08181c64,20,0,22184908.163,0.116,-90843495.594604,0.010,2389.619,41.8,552.000,01301c6b,20,0,22184912.008,0.050,-87058362.191174,0.006,2289.440,46.8,640.013,01d01c60,15,0,24276315.367,0.131,-127572911.703194,0.011,3918.761,37.1,246.000,08181ca4,15,0,24276314.974,0.512,-99407448.208845,0.054,3053.585,32.5,242.000,01301cab,44,12,19379543.508,0.040,-103740210.123214,0.005,938.237,49.5,615.000,08191c44,44,12,19379531.108,0.078,-80686770.316200,0.007,729.762,43.3,615.000,00b91c4b,45,13,22244708.232,0.103,-119119418.238572,0.009,4055.604,40.2,614.000,08191c64,45,13,22244690.628,0.057,-92648376.499015,0.006,3154.390,45.9,615.000,00b91c6b,58,11,21212623.175,0.186,-88287885.078229,0.018,-1414.821,32.5,176.000,00b91dcb,1,0,37984483.952,0.040,-197795173.846218,0.005,-5.449,51.2,642.013,0c1c1c24,1,0,37984463.944,0.040,-160724696.324624,0.005,-4.422,48.9,641.013,06a41c20,2,0,37925013.211,0.057,-197485494.826424,0.006,75.099,45.8,642.013,0c1c1c44,2,0,37924980.942,0.061,-160473005.973139,0.006,61.046,45.3,641.013,06a41c40,3,0,37138434.818,0.050,-193389573.582928,0.006,58.820,46.7,642.013,0c1c1c64,3,0,37138406.189,0.040,-157144747.187143,0.005,47.776,48.8,641.013,06a41c60,8,0,36730793.069,0.040,-191266884.881182,0.005,-737.156,49.8,640.013,081c1c84,8,0,36730777.262,0.040,-155419936.240799,0.005,-598.986,52.2,640.013,02a41c80,14,0,21980190.240,0.040,-114456615.563741,0.005,1114.634,53.7,640.013,081c1ca4,14,0,21980162.508,0.040,-93005263.033144,0.005,905.718,49.9,640.013,02a41ca0,4,0,39188757.138,0.149,-204066135.790145,0.013,48.121,36.7,620.013,0c1c1cc4,4,0,39188729.499,0.138,-165820338.473502,0.012,38.940,36.5,612.000,06a41cc0,9,0,37088944.385,0.151,-193131871.346911,0.014,69.847,35.4,640.013,081c1ce4,9,0,37088926.316,0.200,-156935397.525588,0.020,56.903,31.3,640.013,02a41ce0,8,0,25646944.657,0.114,-134775634.499066,0.010,2694.370,38.8,637.013,083b1c24,8,0,25646949.354,0.088,-100644141.510485,0.008,2012.032,42.0,637.013,01931c2b,8,0,25646945.782,0.077,-103269620.448677,0.007,2064.497,43.3,637.013,02331c20*e22973d4
#BESTPOSA,COM1,0,98.0,FINE,2428,94309.000,647140,57334,18;SOL_COMPUTED,SINGLE,34.36853137454,109.22189569064,500.9279,-33.6674,WGS84,6.2120,2.1958,5.4724,"",0.000,0.000,14,13,0,4,0,06,03,53*f076e305
