#RANGEA,COM1,0,98.0,FINE,2428,98683.000,5021140,2,18;29,20,0,20465391.052,0.040,-107546357.219926,0.005,850.560,48.8,5016.013,08181c64,20,0,20465385.392,0.120,-83802358.633755,0.010,663.140,41.5,4926.000,01301c6b,20,0,20465388.552,0.048,-80310607.025478,0.005,635.143,47.1,5014.013,01d01c60,15,0,21343968.659,0.040,-112163308.284393,0.005,2843.792,50.7,4161.000,08181ca4,15,0,21343964.384,0.055,-87400012.437676,0.006,2215.692,47.2,3878.000,01301cab,11,0,22618624.164,0.177,-118861695.264517,0.017,-2200.266,33.2,588.000,08181cc4,11,0,22618621.005,3.303,-92619521.418525,0.150,-1713.900,28.8,8.000,01301ccb,11,0,22618630.783,0.059,-88760360.866405,0.006,-1643.141,45.7,589.000,01d01cc0,45,13,19838460.736,0.040,-106234101.503267,0.005,1564.123,50.9,4988.000,08191c64,45,13,19838439.771,0.059,-82626470.970042,0.006,1216.561,45.6,4989.000,00b91c6b,59,4,19454249.803,0.195,-103848121.373868,0.019,-318.363,31.8,33.000,08191d24,58,11,23467860.211,0.066,-125581281.722619,0.007,-3598.452,44.8,4367.000,08191dc4,58,11,23467847.355,0.100,-97674178.220623,0.009,-2798.751,40.5,4072.000,00b91dcb,1,0,37988481.440,0.040,-197815995.810601,0.005,-2.901,50.9,5016.013,0c1c1c24,1,0,37988462.737,0.040,-160741615.962967,0.005,-2.359,50.0,5015.013,06a41c20,2,0,37861744.015,0.049,-197156037.418178,0.006,75.502,46.9,5016.013,0c1c1c44,2,0,37861711.881,0.046,-160205295.283281,0.005,61.366,47.2,5015.013,06a41c40,3,0,37090226.918,0.049,-193138539.364811,0.006,56.152,46.9,5016.013,0c1c1c64,3,0,37090197.903,0.040,-156940761.544084,0.005,45.683,50.7,5015.013,06a41c60,8,0,37605762.054,0.057,-195823066.170232,0.006,-1330.758,45.8,5014.013,081c1c84,8,0,37605746.662,0.040,-159122205.172602,0.005,-1081.381,48.2,5014.013,02a41c80,4,0,39154164.934,0.155,-203885974.778245,0.013,34.769,37.2,1028.000,0c1c1cc4,4,0,39154134.391,0.173,-165673959.858597,0.016,28.204,36.0,2111.000,06a41cc0,8,0,23935810.806,0.040,-125783560.729951,0.005,1239.562,51.8,5011.013,083b1c24,8,0,23935809.861,0.040,-93929286.785340,0.005,925.648,48.5,5011.013,01931c2b,8,0,23935804.731,0.049,-96379594.952485,0.006,949.808,46.9,5011.013,02331c20,7,0,26595291.473,0.158,-139759204.269545,0.015,3018.515,34.8,531.000,083b1ca4,7,0,26595297.222,0.179,-104365636.004991,0.017,2254.064,33.1,82.000,01931cab,7,0,26595290.554,0.277,-107088221.921973,0.029,2312.937,28.8,535.000,02331ca0*012216ba
#BESTPOSA,COM1,0,98.0,FINE,2428,98683.000,5021140,40421,18;SOL_COMPUTED,SINGLE,34.36856473325,109.22188872712,491.2000,-33.6676,WGS84,7.7280,3.0324,7.0060,"",0.000,0.000,13,13,0,5,0,06,03,53*6eda69a2
$command,bdsiona onchanged,response: OK*61
#RANGEA,COM1,0,98.0,FINE,2428,98684.000,5022140,2,18;29,20,0,20465229.178,0.040,-107545506.758290,0.005,850.188,48.9,5017.013,08181c64,20,0,20465223.600,0.119,-83801695.963307,0.010,663.029,41.5,4927.000,01301c6b,20,0,20465226.826,0.047,-80309971.939750,0.005,634.882,47.1,5015.013,01d01c60,15,0,21343427.496,0.040,-112160464.520106,0.005,2843.575,51.0,4162.000,08181ca4,15,0,21343423.206,0.055,-87397796.517973,0.006,2215.402,47.2,3879.000,01301cab,11,0,22619042.655,0.176,-118863895.587849,0.017,-2200.490,33.3,589.000,08181cc4,11,0,22619039.532,2.774,-92621235.787941,0.150,-1713.394,28.9,0.000,013010cb,11,0,22619049.459,0.059,-88762003.942240,0.006,-1643.200,45.6,590.000,01d01cc0,45,13,19838168.633,0.040,-106232537.516690,0.005,1563.676,50.8,4989.000,08191c64,45,13,19838147.677,0.058,-82625254.533849,0.006,1216.196,45.8,4990.000,00b91c6b,59,4,19454309.085,0.262,-103848439.809857,0.026,-318.632,31.2,34.000,08191d24,58,11,23468532.704,0.066,-125584880.149393,0.007,-3598.593,44.8,4368.000,08191dc4,58,11,23468519.814,0.099,-97676976.991014,0.009,-2798.937,40.6,4073.000,00b91dcb,1,0,37988481.981,0.040,-197815998.470421,0.005,-2.685,51.0,5017.013,0c1c1c24,1,0,37988463.278,0.040,-160741618.124462,0.005,-2.135,50.0,5016.013,06a41c20,2,0,37861729.455,0.048,-197155961.645945,0.005,75.755,47.0,5017.013,0c1c1c44,2,0,37861697.348,0.047,-160205233.711717,0.005,61.590,47.2,5016.013,06a41c40,3,0,37090216.069,0.048,-193138482.905741,0.005,56.465,47.0,5017.013,0c1c1c64,3,0,37090187.021,0.040,-156940715.670383,0.005,45.839,50.7,5016.013,06a41c60,8,0,37606017.602,0.056,-195824396.748504,0.006,-1330.617,45.9,5015.013,081c1c84,8,0,37606002.176,0.040,-159123286.374822,0.005,-1081.232,48.1,5015.013,02a41c80,4,0,39154158.106,0.141,-203885939.797337,0.012,34.956,37.3,1029.000,0c1c1cc4,4,0,39154127.832,0.187,-165673931.416303,0.017,28.479,36.0,2112.000,06a41cc0,8,0,23935575.023,0.040,-125782321.161896,0.005,1239.369,51.8,5012.013,083b1c24,8,0,23935574.027,0.040,-93928361.132509,0.005,925.507,48.4,5012.013,01931c2b,8,0,23935568.883,0.050,-96378645.151502,0.006,949.681,46.8,5012.013,02331c20,7,0,26594716.904,0.157,-139756185.549164,0.015,3018.582,34.9,532.000,083b1ca4,7,0,26594722.811,0.179,-104363381.746850,0.017,2254.236,33.1,83.000,01931cab,7,0,26594716.086,0.419,-107085908.814602,0.043,2313.235,28.6,536.000,02331ca0*210bc250
#BDSION,98,GPS,FINE,2428,98684000,0,0,18,3;1.955777406692505e-08,2.980232238769531e-08,-5.960464477539063e-07,1.013278961181641e-06,1.454080000000000e+05,-8.192000000000000e+05,6.029312000000000e+06,-4.980736000000000e+06,0*fb891db0
#BESTPOSA,COM1,0,98.0,FINE,2428,98684.000,5022140,41422,18;SOL_COMPUTED,SINGLE,34.36856474290,109.22188867531,491.2651,-33.6676,WGS84,8.1533,3.0693,7.9876,"",0.000,0.000,13,12,0,4,0,06,03,53*ea96d187
#RANGEA,COM1,0,98.0,FINE,2428,98685.000,5023140,2,18;29,20,0,20465067.388,0.040,-107544656.756992,0.005,849.457,48.9,5018.013,08181c64,20,0,20465061.949,0.122,-83801033.604334,0.010,661.509,41.3,4928.000,01301c6b,20,0,20465065.171,0.047,-80309337.198176,0.005,634.316,47.1,5016.013,01d01c60,15,0,21342886.371,0.040,-112157621.010171,0.005,2843.031,51.0,4163.000,08181ca4,15,0,21342882.161,0.056,-87395580.795025,0.006,2215.715,47.1,3880.000,01301cab,11,0,22619461.639,0.193,-118866095.967224,0.019,-2200.810,33.4,590.000,08181cc4,11,0,22619458.142,3.593,-92622950.447431,0.150,-1714.958,28.9,1.000,01301ccb,11,0,22619468.183,0.059,-88763647.122506,0.006,-1643.506,45.6,591.000,01d01cc0,45,13,19837876.638,0.040,-106230974.038373,0.005,1562.886,50.9,4990.000,08191c64,45,13,19837855.705,0.058,-82624038.495384,0.006,1215.607,45.7,4991.000,00b91c6b,59,4,19454369.090,0.226,-103848758.775173,0.023,-319.652,30.9,35.000,08191d24,58,11,23469205.327,0.066,-125588478.695809,0.007,-3598.928,44.8,4369.000,08191dc4,58,11,23469192.280,0.100,-97679775.872794,0.009,-2799.235,40.5,4074.000,00b91dcb,1,0,37988482.496,0.040,-197816000.952769,0.005,-2.782,51.1,5018.013,0c1c1c24,1,0,37988463.749,0.040,-160741620.142869,0.005,-2.247,50.0,5017.013,06a41c20,2,0,37861714.856,0.047,-197155885.708357,0.005,75.658,47.1,5018.013,0c1c1c44,2,0,37861682.736,0.047,-160205172.010501,0.005,61.463,47.2,5017.013,06a41c40,3,0,37090205.251,0.047,-193138426.272522,0.005,56.406,47.1,5018.013,0c1c1c64,3,0,37090176.162,0.040,-156940669.654986,0.005,45.780,50.6,5017.013,06a41c60,8,0,37606273.109,0.056,-195825727.289161,0.006,-1330.870,46.0,5016.013,081c1c84,8,0,37606257.655,0.040,-159124367.540407,0.005,-1081.411,48.1,5016.013,02a41c80,4,0,39154151.357,0.166,-203885904.660302,0.014,34.874,37.4,1030.000,0c1c1cc4,4,0,39154121.102,0.172,-165673902.866729,0.016,28.368,36.0,2113.000,06a41cc0,8,0,23935339.251,0.040,-125781081.859023,0.005,1238.817,51.8,5013.013,083b1c24,8,0,23935338.232,0.040,-93927435.678607,0.005,925.112,48.4,5013.013,01931c2b,8,0,23935332.996,0.050,-96377695.558688,0.006,949.286,46.8,5013.013,02331c20,7,0,26594142.587,0.156,-139753166.740784,0.015,3018.344,35.0,533.000,083b1ca4,7,0,26594148.406,0.178,-104361127.419657,0.017,2254.266,33.2,84.000,01931cab,7,0,26594141.329,0.393,-107083595.782556,0.041,2312.840,28.7,537.000,02331ca0*6c0f33cd
#BESTPOSA,COM1,0,98.0,FINE,2428,98685.000,5023140,42421,18;SOL_COMPUTED,SINGLE,34.36856459525,109.22188861909,491.3163,-33.6676,WGS84,8.1524,3.0693,7.9879,"",0.000,0.000,13,12,0,4,0,06,03,53*3477ff27
#RANGEA,COM1,0,98.0,FINE,2428,98686.000,5024140,2,18;29,20,0,20464905.634,0.040,-107543807.028724,0.005,849.100,49.0,5019.013,08181c64,20,0,20464900.200,0.123,-83800371.492675,0.010,661.345,41.3,4929.000,01301c6b,20,0,20464903.562,0.048,-80308702.662774,0.005,634.077,47.0,5017.013,01d01c60,15,0,21342345.325,0.040,-112154777.611246,0.005,2842.868,51.2,4164.000,08181ca4,15,0,21342341.137,0.056,-87393365.156406,0.006,2215.029,47.2,3881.000,01301cab,11,0,22619880.072,0.179,-118868296.390778,0.017,-2200.848,33.1,591.000,08181cc4,11,0,22619877.082,4.158,-92624665.201465,0.150,-1716.113,28.8,0.000,013010cb,11,0,22619886.908,0.060,-88765290.274146,0.006,-1643.528,45.5,592.000,01d01cc0,45,13,19837584.714,0.040,-106229410.919852,0.005,1562.461,50.9,4991.000,08191c64,45,13,19837563.821,0.057,-82622822.745349,0.006,1215.205,45.8,4992.000,00b91c6b,59,4,19454428.681,0.310,-103849078.075318,0.031,-320.189,30.8,36.000,08191d24,58,11,23469877.866,0.065,-125592077.247309,0.007,-3599.033,44.8,4370.000,08191dc4,58,11,23469864.642,0.099,-97682574.726750,0.009,-2799.235,40.6,4075.000,00b91dcb,1,0,37988482.898,0.040,-197816003.108095,0.005,-2.499,51.0,5019.013,0c1c1c24,1,0,37988464.185,0.040,-160741621.890187,0.005,-2.001,50.0,5018.013,06a41c20,2,0,37861700.168,0.048,-197155809.441689,0.005,75.934,47.0,5019.013,0c1c1c44,2,0,37861668.108,0.047,-160205110.039306,0.005,61.702,47.2,5018.013,06a41c40,3,0,37090194.270,0.048,-193138369.336526,0.005,56.614,47.0,5019.013,0c1c1c64,3,0,37090165.228,0.040,-156940623.382887,0.005,46.048,50.7,5018.013,06a41c60,8,0,37606528.575,0.056,-195827057.621380,0.006,-1330.728,46.0,5017.013,081c1c84,8,0,37606513.094,0.040,-159125448.544371,0.005,-1081.299,48.1,5017.013,02a41c80,4,0,39154144.688,0.168,-203885869.211394,0.014,35.082,37.3,1031.000,0c1c1cc4,4,0,39154114.174,0.143,-165673874.056645,0.013,28.546,36.0,2114.000,06a41cc0,8,0,23935103.506,0.040,-125779842.671544,0.005,1238.676,51.7,5014.013,083b1c24,8,0,23935102.450,0.040,-93926510.309270,0.005,924.978,48.4,5014.013,01931c2b,8,0,23935097.206,0.050,-96376746.053567,0.006,949.078,46.7,5014.013,02331c20,7,0,26593567.892,0.172,-139750147.748978,0.016,3018.552,35.0,534.000,083b1ca4,7,0,26593573.971,0.196,-104358873.014844,0.019,2254.228,33.2,85.000,01931cab,7,0,26593566.647,0.658,-107081282.518276,0.068,2313.056,28.4,538.000,02331ca0*2a60a92f
#BESTPOSA,COM1,0,98.0,FINE,2428,98686.000,5024140,43421,18;SOL_COMPUTED,SINGLE,34.36856436563,109.22188853469,491.3693,-33.6676,WGS84,8.1523,3.0690,7.9891,"",0.000,0.000,13,12,0,4,0,06,03,53*aa96a53c
#RANGEA,COM1,0,98.0,FINE,2428,98687.000,5025140,2,18;29,20,0,20464744.238,0.040,-107542958.921550,0.005,847.155,49.0,5020.013,08181c64,20,0,20464738.847,0.124,-83799710.637032,0.011,659.840,41.2,4930.000,01301c6b,20,0,20464742.204,0.048,-80308069.325272,0.005,632.662,47.0,5018.013,01d01c60,15,0,21341804.511,0.040,-112151935.617408,0.005,2841.191,51.1,4165.000,08181ca4,15,0,21341800.359,0.055,-87391150.623639,0.006,2213.785,47.2,3882.000,01301cab,11,0,22620298.316,0.296,-118870498.119301,0.029,-2202.472,32.6,592.000,08181cc4,11,0,22620296.284,2.517,-92626380.729934,0.150,-1714.139,28.9,1.000,01301ccb,11,0,22620305.812,0.060,-88766934.391021,0.006,-1644.668,45.5,593.000,01d01cc0,45,13,19837293.121,0.040,-106227849.530487,0.005,1560.435,50.9,4992.000,08191c64,45,13,19837272.249,0.055,-82621608.330551,0.006,1213.655,46.1,4993.000,00b91c6b,59,4,19454488.687,0.228,-103849398.943251,0.023,-321.917,30.8,37.000,08191d24,58,11,23470550.678,0.067,-125595677.096176,0.007,-3600.612,44.6,4371.000,08191dc4,58,11,23470537.510,0.099,-97685374.606160,0.009,-2800.442,40.6,4076.000,00b91dcb,1,0,37988483.528,0.040,-197816006.238017,0.005,-3.743,51.0,5020.013,0c1c1c24,1,0,37988464.728,0.040,-160741624.432750,0.005,-3.014,50.0,5019.013,06a41c20,2,0,37861685.668,0.047,-197155734.150819,0.005,74.742,47.1,5020.013,0c1c1c44,2,0,37861653.623,0.046,-160205048.859303,0.005,60.718,47.3,5019.013,06a41c40,3,0,37090183.525,0.047,-193138313.361521,0.005,55.393,47.1,5020.013,0c1c1c64,3,0,37090154.497,0.040,-156940577.898404,0.005,44.975,50.8,5019.013,06a41c60,8,0,37606784.292,0.055,-195828389.048239,0.006,-1332.047,46.1,5018.013,081c1c84,8,0,37606768.757,0.040,-159126530.441638,0.005,-1082.417,48.2,5018.013,02a41c80,4,0,39154138.080,0.179,-203885834.700193,0.015,33.898,37.3,1032.000,0c1c1cc4,4,0,39154107.719,0.184,-165673846.038088,0.017,27.474,36.2,2115.000,06a41cc0,8,0,23934867.990,0.040,-125778604.895801,0.005,1236.992,51.8,5015.013,083b1c24,8,0,23934866.904,0.040,-93925586.000448,0.005,923.711,48.2,5015.013,01931c2b,8,0,23934861.629,0.051,-96375797.630345,0.006,947.759,46.6,5015.013,02331c20,7,0,26592993.494,0.186,-139747129.832940,0.017,3017.308,35.1,535.000,083b1ca4,7,0,26592999.674,0.180,-104356619.408912,0.017,2253.133,33.0,86.000,01931cab,7,0,26592992.559,0.325,-107078970.131211,0.034,2311.685,28.6,539.000,02331ca0*583f5140
#BESTPOSA,COM1,0,98.0,FINE,2428,98687.000,5025140,44421,18;SOL_COMPUTED,SINGLE,34.36856421674,109.22188839771,491.4063,-33.6676,WGS84,8.1515,3.0678,7.9663,"",0.000,0.000,13,12,0,4,0,06,03,53*30961fbb
#RANGEA,COM1,0,98.0,FINE,2428,98688.000,5026140,2,18;29,20,0,20464582.912,0.040,-107542111.446506,0.005,846.842,49.1,5021.013,08181c64,20,0,20464577.562,0.125,-83799050.257178,0.011,659.735,41.2,4931.000,01301c6b,20,0,20464581.022,0.049,-80307436.484646,0.006,632.371,46.8,5019.013,01d01c60,15,0,21341263.769,0.040,-112149094.089827,0.005,2841.057,51.3,4166.000,08181ca4,15,0,21341259.645,0.055,-87388936.451053,0.006,2213.845,47.2,3883.000,01301cab,11,0,22620716.912,0.206,-118872700.142047,0.020,-2202.792,32.4,593.000,08181cc4,11,0,22620714.984,3.106,-92628096.754322,0.150,-1720.412,28.6,0.000,013010cb,11,0,22620724.830,0.062,-88768578.752223,0.006,-1644.668,45.2,594.000,01d01cc0,45,13,19837001.712,0.040,-106226288.900013,0.005,1559.965,51.0,4993.000,08191c64,45,13,19836980.919,0.055,-82620394.506797,0.006,1213.282,46.1,4994.000,00b91c6b,59,4,19454549.438,0.202,-103849720.531395,0.020,-321.999,31.2,38.000,08191d24,58,11,23471223.573,0.066,-125599277.261908,0.007,-3600.583,44.7,4372.000,08191dc4,58,11,23471210.283,0.100,-97688174.727512,0.009,-2800.502,40.5,4077.000,00b91dcb,1,0,37988484.130,0.040,-197816009.396221,0.005,-3.452,51.0,5021.013,0c1c1c24,1,0,37988465.309,0.040,-160741627.005428,0.005,-2.798,50.0,5020.013,06a41c20,2,0,37861671.208,0.048,-197155658.902682,0.005,74.920,47.0,5021.013,0c1c1c44,2,0,37861639.169,0.046,-160204987.705660,0.005,60.912,47.3,5020.013,06a41c40,3,0,37090172.819,0.048,-193138257.420953,0.005,55.638,47.0,5021.013,0c1c1c64,3,0,37090143.767,0.040,-156940532.443931,0.005,45.161,50.8,5020.013,06a41c60,8,0,37607040.064,0.056,-195829720.628055,0.006,-1331.913,46.0,5019.013,081c1c84,8,0,37607024.475,0.040,-159127612.468346,0.005,-1082.320,48.2,5019.013,02a41c80,4,0,39154131.719,0.154,-203885800.262633,0.013,34.084,37.3,1033.000,0c1c1cc4,4,0,39154101.023,0.170,-165673818.033949,0.015,27.727,36.2,2116.000,06a41cc0,8,0,23934632.562,0.040,-125777367.591858,0.005,1236.761,51.8,5016.013,083b1c24,8,0,23934631.493,0.040,-93924662.037557,0.005,923.562,48.1,5016.013,01931c2b,8,0,23934626.196,0.052,-96374849.557897,0.006,947.685,46.6,5016.013,02331c20,7,0,26592419.008,0.156,-139744112.083742,0.014,3017.450,35.0,536.000,083b1ca4,7,0,26592425.253,0.180,-104354365.902915,0.018,2253.409,33.0,87.000,01931cab,7,0,26592418.678,0.322,-107076657.749564,0.033,2311.908,28.9,540.000,02331ca0*28159088
#BESTPOSA,COM1,0,98.0,FINE,2428,98688.000,5026140,45421,18;SOL_COMPUTED,SINGLE,34.36856431641,109.22188836775,491.4522,-33.6676,WGS84,8.1505,3.0674,7.9669,"",0.000,0.000,13,12,0,4,0,06,03,53*096eb372
#RANGEA,COM1,0,98.0,FINE,2428,98689.000,5027140,2,18;29,20,0,20464421.913,0.040,-107541265.121891,0.005,845.814,49.1,5022.013,08181c64,20,0,20464416.474,0.123,-83798390.785663,0.010,658.990,41.3,4932.000,01301c6b,20,0,20464420.042,0.050,-80306804.482654,0.006,631.663,46.8,5020.013,01d01c60,15,0,21340723.159,0.040,-112146253.525766,0.005,2840.200,51.2,4167.000,08181ca4,15,0,21340719.166,0.055,-87386723.021304,0.006,2213.263,47.2,3884.000,01301cab,11,0,22621135.232,0.267,-118874902.982472,0.026,-2203.180,32.1,594.000,08181cc4,11,0,22621134.694,1.563,-92629813.060215,0.150,-1716.731,28.4,0.000,013010cb,11,0,22621143.990,0.062,-88770223.733697,0.006,-1645.219,45.2,595.000,01d01cc0,45,13,19836710.530,0.040,-106224729.526552,0.005,1558.825,51.1,4994.000,08191c64,45,13,19836689.778,0.054,-82619181.660369,0.006,1212.403,46.2,4995.000,00b91c6b,59,4,19454610.137,0.238,-103850043.352684,0.024,-323.303,31.5,39.000,08191d24,58,11,23471896.645,0.066,-125602878.266248,0.007,-3601.335,44.8,4373.000,08191dc4,58,11,23471883.213,0.100,-97690975.512710,0.009,-2801.061,40.6,4078.000,00b91dcb,1,0,37988484.790,0.040,-197816013.072017,0.005,-3.825,50.8,5022.013,0c1c1c24,1,0,37988465.982,0.040,-160741629.989087,0.005,-3.133,50.0,5021.013,06a41c20,2,0,37861656.811,0.049,-197155584.156375,0.006,74.563,46.8,5022.013,0c1c1c44,2,0,37861624.863,0.046,-160204926.972774,0.005,60.614,47.3,5021.013,06a41c40,3,0,37090162.202,0.049,-193138201.994996,0.006,55.266,46.8,5022.013,0c1c1c64,3,0,37090133.128,0.040,-156940487.408956,0.005,44.841,50.8,5021.013,06a41c60,8,0,37607295.943,0.057,-195831052.852193,0.006,-1332.509,45.8,5020.013,081c1c84,8,0,37607280.305,0.040,-159128694.998580,0.005,-1082.745,48.2,5020.013,02a41c80,4,0,39154125.177,0.184,-203885766.316916,0.016,33.734,37.0,1034.000,0c1c1cc4,4,0,39154094.657,0.170,-165673790.473789,0.015,27.332,36.2,2117.000,06a41cc0,8,0,23934397.308,0.040,-125776131.240070,0.005,1235.934,51.8,5017.013,083b1c24,8,0,23934396.213,0.040,-93923738.788953,0.005,922.906,48.1,5017.013,01931c2b,8,0,23934390.903,0.052,-96373902.223429,0.006,947.051,46.5,5017.013,02331c20,7,0,26591844.582,0.171,-139741094.973119,0.016,3016.906,35.1,537.000,083b1ca4,7,0,26591851.337,0.179,-104352112.854636,0.017,2252.887,33.1,88.000,01931cab,7,0,26591844.430,0.389,-107074345.998936,0.040,2311.804,28.9,541.000,02331ca0*c819a111
#BESTPOSA,COM1,0,98.0,FINE,2428,98689.000,5027140,46421,18;SOL_COMPUTED,SINGLE,34.36856429022,109.22188831724,491.4875,-33.6676,WGS84,8.1528,3.0685,7.9696,"",0.000,0.000,13,12,0,4,0,06,03,53*312a2763
#RANGEA,COM1,0,98.0,FINE,2428,98690.000,5028140,2,18;29,20,0,20464261.139,0.040,-107540420.007905,0.005,845.084,49.1,5023.013,08181c64,20,0,20464255.661,0.123,-83797732.247567,0.010,658.655,41.2,4933.000,01301c6b,20,0,20464259.290,0.049,-80306173.401725,0.006,631.060,46.9,5021.013,01d01c60,15,0,21340182.772,0.040,-112143413.977923,0.005,2839.627,51.0,4168.000,08181ca4,15,0,21340178.821,0.056,-87384510.390100,0.006,2212.772,47.2,3885.000,01301cab,11,0,22621554.262,0.492,-118877106.688472,0.049,-2203.939,31.6,595.000,08181cc4,11,0,22621554.190,1.875,-92631530.111456,0.150,-1719.198,27.9,0.000,013010cb,11,0,22621563.288,0.063,-88771869.388740,0.006,-1645.584,45.2,596.000,01d01cc0,45,13,19836419.585,0.040,-106223171.491086,0.005,1557.946,51.1,4995.000,08191c64,45,13,19836398.911,0.054,-82617969.859216,0.006,1211.710,46.3,4996.000,00b91c6b,59,4,19454670.965,0.200,-103850367.431110,0.020,-324.085,31.4,40.000,08191d24,58,11,23472569.875,0.067,-125606480.181834,0.007,-3601.745,44.7,4374.000,08191dc4,58,11,23472556.212,0.100,-97693776.984179,0.009,-2801.329,40.5,4079.000,00b91dcb,1,0,37988485.615,0.040,-197816017.343174,0.005,-3.996,50.8,5023.013,0c1c1c24,1,0,37988466.769,0.040,-160741633.459649,0.005,-3.223,49.9,5022.013,06a41c20,2,0,37861642.513,0.049,-197155509.999159,0.006,74.473,46.8,5023.013,0c1c1c44,2,0,37861610.693,0.046,-160204866.716185,0.005,60.532,47.2,5022.013,06a41c40,3,0,37090151.613,0.049,-193138147.170331,0.006,55.072,46.9,5023.013,0c1c1c64,3,0,37090122.578,0.040,-156940442.850565,0.005,44.766,50.7,5022.013,06a41c60,8,0,37607551.973,0.057,-195832385.783562,0.006,-1332.725,45.9,5021.013,081c1c84,8,0,37607536.262,0.040,-159129778.112866,0.005,-1082.953,48.1,5021.013,02a41c80,4,0,39154118.647,0.184,-203885732.944879,0.016,33.674,37.1,1035.000,0c1c1cc4,4,0,39154088.176,0.186,-165673763.367683,0.017,27.280,36.1,2118.000,06a41cc0,8,0,23934162.268,0.040,-125774895.929277,0.005,1235.353,51.8,5018.013,083b1c24,8,0,23934161.182,0.040,-93922816.316551,0.005,922.526,48.0,5018.013,01931c2b,8,0,23934155.811,0.051,-96372955.687439,0.006,946.612,46.6,5018.013,02331c20,7,0,26591270.325,0.154,-139738078.595923,0.014,3016.623,35.2,538.000,083b1ca4,7,0,26591277.350,0.180,-104349860.393866,0.017,2252.619,33.0,89.000,01931cab,7,0,26591270.192,0.552,-107072034.773008,0.057,2310.903,28.8,542.000,02331ca0*33fa1658
#BD2EPHEMA,COM1,0,98.0,FINE,2428,98690.000,5028140,3,18;1,98640.0,0,1,1,2428,2428,97200.0,4.216504206e+07,5.093426447e-09,-6.969401812e-01,5.0907814875e-04,-6.7220646867e-04,-1.304131001e-05,1.108879223e-05,-3.33781250e+02,-4.04343750e+02,6.053596735e-08,-1.443549991e-08,7.9211530975e-02,-5.357366013e-12,-2.336142446e+00,-4.23339062e-09,1,97200.0,4.500000000e-09,4.500000000e-09,-8.97329e-07,3.46390e-14,0.00000e+00,TRUE,7.292398881e-05,4.00000000e+00*88dd2d50
#BD2EPHEMA,COM1,0,98.0,FINE,2428,98690.000,5028140,3,18;2,98640.0,0,1,1,2428,2428,97200.0,4.216403382e+07,5.140214111e-09,-7.801694309e-01,2.0670820959e-04,-3.4795072175e-01,-1.050764695e-05,-4.735775292e-06,1.43187500e+02,-3.13187500e+02,6.845220923e-08,-1.396983862e-09,8.0427492391e-02,2.000083311e-11,-2.955621264e+00,-4.03052503e-09,1,97200.0,4.730000000e-08,4.730000000e-08,8.91741e-08,-1.61648e-13,0.00000e+00,TRUE,7.292665108e-05,4.00000000e+00*e34afa0f
#BD2EPHEMA,COM1,0,98.0,FINE,2428,98690.000,5028140,3,18;3,98640.0,0,1,1,2428,2428,97200.0,4.216376044e+07,5.060925094e-09,1.204418431e+00,2.2221473046e-04,-1.9290426886e+00,-1.412862912e-05,-1.801643521e-06,5.81562500e+01,-4.28093750e+02,1.052394509e-07,-1.071020961e-08,9.4079018197e-02,1.035757429e-11,-2.826536872e+00,-4.05088302e-09,1,97200.0,3.530000000e-08,3.530000000e-08,-1.85100e-07,3.46390e-14,0.00000e+00,TRUE,7.292728103e-05,4.00000000e+00*1c21bd04
#BD2EPHEMA,COM1,0,98.0,FINE,2428,98690.000,5028140,4,18;4,98640.0,0,1,1,2428,2428,97200.0,4.216444199e+07,5.290220359e-09,8.417115930e-01,8.3762547001e-04,-7.7692187122e-01,-1.721456647e-05,-5.830079317e-07,2.27031250e+01,-5.29843750e+02,3.306195140e-08,2.887099981e-08,1.1776465376e-01,-3.464430022e-11,-2.752954369e+00,-4.38946855e-09,1,97200.0,4.170000000e-08,4.170000000e-08,-6.68573e-07,1.17240e-13,0.00000e+00,TRUE,7.292574224e-05,4.00000000e+00*f0d36308
#BD2EPHEMA,COM1,0,98.0,FINE,2428,98690.000,5028140,4,18;8,98640.0,0,1,1,2428,2428,97200.0,4.216196999e+07,1.664712199e-09,-2.209399035e-01,4.6114998404e-03,-2.8876938583e+00,2.751592547e-06,-5.969777703e-07,2.46812500e+02,9.87031250e+01,-1.294538379e-07,4.656612873e-08,9.5584180962e-01,-3.775157250e-10,-2.833228412e-01,-2.59617957e-09,1,97200.0,9.000000000e-10,9.000000000e-10,-2.50740e-04,-3.32090e-12,0.00000e+00,TRUE,7.292852993e-05,4.00000000e+00*1e70dfb9
#BD2EPHEMA,COM1,0,98.0,FINE,2428,98690.000,5028140,4,18;9,98640.0,0,1,1,2428,2428,93600.0,4.215898839e+07,6.189543534e-10,2.733493983e+00,5.8500906453e-03,-2.3098627613e+00,1.485459507e-07,1.233816147e-05,-1.02546875e+02,-8.75000000e+00,1.126900315e-07,2.235174179e-08,1.0515171040e+00,6.428839216e-10,1.761583942e+00,-1.80828961e-09,1,93600.0,-1.030000000e-08,2.800000000e-09,-5.82454e-04,-2.10996e-11,0.00000e+00,TRUE,7.293522069e-05,4.00000000e+00*b7571fef
#BD2EPHEMA,COM1,0,98.0,FINE,2428,98690.000,5028140,4,18;14,98640.0,0,1,1,2428,2428,93600.0,2.790629292e+07,3.695153918e-09,-4.998259994e-01,3.3541407902e-04,8.4595404515e-01,1.750886440e-07,5.861278623e-06,2.49031250e+02,1.43750000e+00,1.117587090e-08,-1.909211278e-08,9.7353075087e-01,3.885876148e-10,2.171553868e+00,-6.83849914e-09,1,93600.0,3.160000000e-08,3.160000000e-08,-3.06821e-04,7.75380e-12,0.00000e+00,TRUE,1.354339405e-04,4.00000000e+00*f09378dc
#GLOEPHEMERISA,COM1,0,98.0,FINE,2428,98690.000,5028140,4,18;44,12,1,0,2428,96318000,10782,932,0,0,23,0,-8.480241699218750e+06,1.744846972656250e+07,1.662844531250000e+07,2.559709548950195e+02,-2.259255409240723e+03,2.501864433288574e+03,0.000000000000000,0.000000000000000e+00,-9.313225746154785e-07,-1.231748610734940e-04,1.862645149e-09,0.000000000000000e+00,19800,2,1,0,13*dbaeba84
#GLOEPHEMERISA,COM1,0,98.0,FINE,2428,98690.000,5028140,5,18;45,13,1,0,2428,98118000,10782,932,0,0,25,0,-1.045867187500000e+06,2.461521142578125e+07,6.745846679687500e+06,1.262645721435547e+02,-9.286260604858398e+02,3.433453559875488e+03,0.000000000000000,-0.000000000000000e+00,0.000000000000000e+00,5.842186510562897e-06,-3.725290298e-09,0.000000000000000e+00,21600,2,2,0,13*f1a76995
#GLOEPHEMERISA,COM1,0,98.0,FINE,2428,98690.000,5028140,5,18;58,11,1,0,2428,98118000,10782,932,0,0,25,0,-2.185812109375000e+07,1.232951855468750e+07,-4.451984863281250e+06,6.158447265625000e+02,-1.792411804199219e+02,-3.525345802307129e+03,-0.000001862645149,-9.313225746154785e-07,9.313225746154785e-07,3.274492919445038e-04,9.313225746e-10,-3.637978807091713e-12,21600,2,3,0,13*906d6386
#GLOEPHEMERISA,COM1,0,98.0,FINE,2428,98690.000,5028140,5,18;59,4,1,0,2428,98118000,10782,932,0,0,25,0,-1.130311181640625e+07,1.655047509765625e+07,1.580345410156250e+07,-1.744259834289551e+03,1.275865554809570e+03,-2.587396621704102e+03,-0.000000000000000,-0.000000000000000e+00,-9.313225746154785e-07,-1.365225762128830e-04,3.725290298e-09,1.818989403545856e-12,23010,2,5,0,12*60a48ba1
#GALEPHEMERISA,COM1,0,98.0,FINE,2428,98690.000,5028140,5,18;7,TRUE,TRUE,0,0,0,0,0,0,107,0,32,95400,5.44061530e+03,3.2673e-09,-9.99461069e-01,4.267075565e-04,1.749537978e-01,-2.4009e-06,4.5747e-06,2.439e+02,-5.475e+01,2.2352e-08,-2.7940e-08,9.693492263e-01,1.0715e-10,2.852918955e+00,-5.75738268e-09,95400,-7.826928049e-05,-2.557954e-12,0.0e+00,95400,-7.826840738e-05,-2.572165e-12,0.0e+00,4.191e-09,4.889e-09*d5c5d7cb
#GALEPHEMERISA,COM1,0,98.0,FINE,2428,98690.000,5028140,5,18;8,TRUE,TRUE,0,0,0,0,0,0,107,0,32,95400,5.44061541e+03,3.2380e-09,-5.36310691e-01,4.781656899e-04,4.927038734e-01,-2.6170e-06,4.8857e-06,2.446e+02,-5.791e+01,1.8626e-09,4.0978e-08,9.750576862e-01,7.7503e-11,2.856066961e+00,-5.70488049e-09,95400,-1.860480406e-04,-7.077006e-12,0.0e+00,95400,-1.860482735e-04,-7.077006e-12,0.0e+00,-4.657e-09,-5.122e-09*078399d7
#GPSEPHEM,98,GPS,FINE,2428,98690000,0,0,18,6;6,98640.0,0,60,60,2428,2428,100784.0,2.656085612e+07,3.890519199e-09,-1.993708067e+00,3.6932027433e-03,-5.4554524977e-01,-1.966953278e-06,8.260831237e-06,2.34031250e+02,-3.80000000e+01,-1.117587090e-08,1.303851604e-08,9.8589814474e-01,-3.225134340e-10,5.845150643e-01,-7.85747015e-09,60,100784.0,3.725290298e-09,-5.7016546e-04,7.8443918e-12,0.0000000e+00,TRUE,1.458536831e-04,4.00000000e+00*b96da3d9
#GPSEPHEM,98,GPS,FINE,2428,98690000,0,0,18,6;11,98640.0,0,50,50,2428,2428,100800.0,2.656009859e+07,4.412326648e-09,-7.574558415e-01,2.4826183217e-03,-2.3563529403e+00,-2.151355147e-06,7.869675756e-06,2.30812500e+02,-3.95625000e+01,8.381903172e-08,6.519258022e-08,9.6278874822e-01,-3.710868858e-10,6.002287165e-01,-8.15033949e-09,818,100800.0,-8.847564459e-09,-2.6919972e-04,1.2278178e-11,0.0000000e+00,TRUE,1.458604447e-04,4.00000000e+00*2359dd5d
#GPSEPHEM,98,GPS,FINE,2428,98690000,0,0,18,6;12,98640.0,0,70,70,2428,2428,100800.0,2.656068409e+07,4.648050753e-09,2.712248131e+00,8.7095656199e-03,1.5870354241e+00,3.103166819e-06,8.933246136e-06,2.00781250e+02,5.93125000e+01,1.415610313e-07,-1.396983862e-07,9.5830051117e-01,1.160762636e-10,-1.466510605e+00,-7.93854496e-09,70,100800.0,-1.257285476e-08,-6.0552545e-04,5.6843419e-13,0.0000000e+00,TRUE,1.458558575e-04,4.00000000e+00*d44355bc
#GPSEPHEM,98,GPS,FINE,2428,98690000,0,0,18,6;13,98640.0,63,26,26,2428,2428,100800.0,2.655950878e+07,4.635550232e-09,2.575116668e+00,2.2728930926e-03,1.8198118416e+00,2.713873982e-06,9.573996067e-06,1.91656250e+02,5.12187500e+01,6.705522537e-08,-6.519258022e-08,9.5881946819e-01,1.382200431e-10,-1.575031189e+00,-8.01354808e-09,26,100800.0,-8.381903172e-09,4.1786302e-04,5.2295945e-12,0.0000000e+00,TRUE,1.458655264e-04,4.00000000e+00*9738a6a8
#GPSEPHEM,98,GPS,FINE,2428,98690000,0,0,18,6;15,98670.0,0,61,61,2428,2428,100800.0,2.656115225e+07,5.119141804e-09,-1.075488651e+00,1.7032536212e-02,1.5371767577e+00,1.862645149e-08,5.615875125e-06,2.65781250e+02,-7.06250000e+00,-2.253800631e-07,2.644956112e-07,9.4470280758e-01,3.003696545e-10,2.478255922e+00,-8.64214569e-09,61,100800.0,-1.071020961e-08,4.2976020e-04,3.0695446e-12,0.0000000e+00,TRUE,1.458524725e-04,4.00000000e+00*3749f529
#GPSEPHEM,98,GPS,FINE,2428,98690000,0,0,18,7;19,98670.0,0,32,32,2428,2428,100800.0,2.656121355e+07,4.979135972e-09,1.588330368e+00,1.1764418799e-02,3.0287478475e+00,1.553446054e-06,4.317611456e-06,2.93281250e+02,2.66562500e+01,4.656612873e-08,1.508742571e-07,9.5661215448e-01,-3.735869900e-10,-3.903769582e-01,-8.43999442e-09,32,100800.0,-1.536682248e-08,7.0377067e-04,4.5474735e-13,0.0000000e+00,TRUE,1.458518276e-04,4.00000000e+00*95d38a2d
#GPSEPHEM,98,GPS,FINE,2428,98690000,0,0,18,7;20,98670.0,0,52,52,2428,2428,100800.0,2.655970595e+07,4.689838208e-09,2.564804794e+00,1.9065230154e-03,-1.7615133887e+00,-1.234933734e-06,5.258247256e-06,2.78937500e+02,-2.38125000e+01,2.421438694e-08,-2.235174179e-08,9.6206498852e-01,1.814361290e-10,2.630518565e+00,-8.19355558e-09,52,100800.0,-6.984919310e-09,2.3574708e-04,1.1937118e-11,0.0000000e+00,TRUE,1.458639565e-04,4.00000000e+00*858c58ec
#GPSEPHEM,98,GPS,FINE,2428,98690000,0,0,18,7;25,98670.0,0,47,47,2428,2428,100800.0,2.656029168e+07,4.829844040e-09,2.645243241e+00,1.2902229326e-02,1.1616892086e+00,2.296641469e-06,9.389594197e-06,1.87218750e+02,4.67500000e+01,5.215406418e-08,-1.899898052e-07,9.4671861214e-01,1.264338379e-10,-1.561938201e+00,-7.90318634e-09,47,100800.0,5.587935448e-09,4.0509831e-04,-3.1832315e-12,0.0000000e+00,TRUE,1.458592716e-04,4.00000000e+00*a98d96cd
#RANGEA,COM1,0,98.0,FINE,2428,98683.000,5021140,2,18;29,20,0,20465391.052,0.040,-107546357.219926,0.005,850.560,48.8,5016.013,08181c64,20,0,20465385.392,0.120,-83802358.633755,0.010,663.140,41.5,4926.000,01301c6b,20,0,20465388.552,0.048,-80310607.025478,0.005,635.143,47.1,5014.013,01d01c60,15,0,21343968.659,0.040,-112163308.284393,0.005,2843.792,50.7,4161.000,08181ca4,15,0,21343964.384,0.055,-87400012.437676,0.006,2215.692,47.2,3878.000,01301cab,11,0,22618624.164,0.177,-118861695.264517,0.017,-2200.266,33.2,588.000,08181cc4,11,0,22618621.005,3.303,-92619521.418525,0.150,-1713.900,28.8,8.000,01301ccb,11,0,22618630.783,0.059,-88760360.866405,0.006,-1643.141,45.7,589.000,01d01cc0,45,13,19838460.736,0.040,-106234101.503267,0.005,1564.123,50.9,4988.000,08191c64,45,13,19838439.771,0.059,-82626470.970042,0.006,1216.561,45.6,4989.000,00b91c6b,59,4,19454249.803,0.195,-103848121.373868,0.019,-318.363,31.8,33.000,08191d24,58,11,23467860.211,0.066,-125581281.722619,0.007,-3598.452,44.8,4367.000,08191dc4,58,11,23467847.355,0.100,-97674178.220623,0.009,-2798.751,40.5,4072.000,00b91dcb,1,0,37988481.440,0.040,-197815995.810601,0.005,-2.901,50.9,5016.013,0c1c1c24,1,0,37988462.737,0.040,-160741615.962967,0.005,-2.359,50.0,5015.013,06a41c20,2,0,37861744.015,0.049,-197156037.418178,0.006,75.502,46.9,5016.013,0c1c1c44,2,0,37861711.881,0.046,-160205295.283281,0.005,61.366,47.2,5015.013,06a41c40,3,0,37090226.918,0.049,-193138539.364811,0.006,56.152,46.9,5016.013,0c1c1c64,3,0,37090197.903,0.040,-156940761.544084,0.005,45.683,50.7,5015.013,06a41c60,8,0,37605762.054,0.057,-195823066.170232,0.006,-1330.758,45.8,5014.013,081c1c84,8,0,37605746.662,0.040,-159122205.172602,0.005,-1081.381,48.2,5014.013,02a41c80,4,0,39154164.934,0.155,-203885974.778245,0.013,34.769,37.2,1028.000,0c1c1cc4,4,0,39154134.391,0.173,-165673959.858597,0.016,28.204,36.0,2111.000,06a41cc0,8,0,23935810.806,0.040,-125783560.729951,0.005,1239.562,51.8,5011.013,083b1c24,8,0,23935809.861,0.040,-93929286.785340,0.005,925.648,48.5,5011.013,01931c2b,8,0,23935804.731,0.049,-96379594.952485,0.006,949.808,46.9,5011.013,02331c20,7,0,26595291.473,0.158,-139759204.269545,0.015,3018.515,34.8,531.000,083b1ca4,7,0,26595297.222,0.179,-104365636.004991,0.017,2254.064,33.1,82.000,01931cab,7,0,26595290.554,0.277,-107088221.921973,0.029,2312.937,28.8,535.000,02331ca0*012216ba
#BESTPOSA,COM1,0,98.0,FINE,2428,98683.000,5021140,40421,18;SOL_COMPUTED,SINGLE,34.36856473325,109.22188872712,491.2000,-33.6676,WGS84,7.7280,3.0324,7.0060,"",0.000,0.000,13,13,0,5,0,06,03,53*6eda69a2
$command,bdsiona onchanged,response: OK*61
#RANGEA,COM1,0,98.0,FINE,2428,98684.000,5022140,2,18;29,20,0,20465229.178,0.040,-107545506.758290,0.005,850.188,48.9,5017.013,08181c64,20,0,20465223.600,0.119,-83801695.963307,0.010,663.029,41.5,4927.000,01301c6b,20,0,20465226.826,0.047,-80309971.939750,0.005,634.882,47.1,5015.013,01d01c60,15,0,21343427.496,0.040,-112160464.520106,0.005,2843.575,51.0,4162.000,08181ca4,15,0,21343423.206,0.055,-87397796.517973,0.006,2215.402,47.2,3879.000,01301cab,11,0,22619042.655,0.176,-118863895.587849,0.017,-2200.490,33.3,589.000,08181cc4,11,0,22619039.532,2.774,-92621235.787941,0.150,-1713.394,28.9,0.000,013010cb,11,0,22619049.459,0.059,-88762003.942240,0.006,-1643.200,45.6,590.000,01d01cc0,45,13,19838168.633,0.040,-106232537.516690,0.005,1563.676,50.8,4989.000,08191c64,45,13,19838147.677,0.058,-82625254.533849,0.006,1216.196,45.8,4990.000,00b91c6b,59,4,19454309.085,0.262,-103848439.809857,0.026,-318.632,31.2,34.000,08191d24,58,11,23468532.704,0.066,-125584880.149393,0.007,-3598.593,44.8,4368.000,08191dc4,58,11,23468519.814,0.099,-97676976.991014,0.009,-2798.937,40.6,4073.000,00b91dcb,1,0,37988481.981,0.040,-197815998.470421,0.005,-2.685,51.0,5017.013,0c1c1c24,1,0,37988463.278,0.040,-160741618.124462,0.005,-2.135,50.0,5016.013,06a41c20,2,0,37861729.455,0.048,-197155961.645945,0.005,75.755,47.0,5017.013,0c1c1c44,2,0,37861697.348,0.047,-160205233.711717,0.005,61.590,47.2,5016.013,06a41c40,3,0,37090216.069,0.048,-193138482.905741,0.005,56.465,47.0,5017.013,0c1c1c64,3,0,37090187.021,0.040,-156940715.670383,0.005,45.839,50.7,5016.013,06a41c60,8,0,37606017.602,0.056,-195824396.748504,0.006,-1330.617,45.9,5015.013,081c1c84,8,0,37606002.176,0.040,-159123286.374822,0.005,-1081.232,48.1,5015.013,02a41c80,4,0,39154158.106,0.141,-203885939.797337,0.012,34.956,37.3,1029.000,0c1c1cc4,4,0,39154127.832,0.187,-165673931.416303,0.017,28.479,36.0,2112.000,06a41cc0,8,0,23935575.023,0.040,-125782321.161896,0.005,1239.369,51.8,5012.013,083b1c24,8,0,23935574.027,0.040,-93928361.132509,0.005,925.507,48.4,5012.013,01931c2b,8,0,23935568.883,0.050,-96378645.151502,0.006,949.681,46.8,5012.013,02331c20,7,0,26594716.904,0.157,-139756185.549164,0.015,3018.582,34.9,532.000,083b1ca4,7,0,26594722.811,0.179,-104363381.746850,0.017,2254.236,33.1,83.000,01931cab,7,0,26594716.086,0.419,-107085908.814602,0.043,2313.235,28.6,536.000,02331ca0*210bc250
#BDSION,98,GPS,FINE,2428,98684000,0,0,18,3;1.955777406692505e-08,2.980232238769531e-08,-5.960464477539063e-07,1.013278961181641e-06,1.454080000000000e+05,-8.192000000000000e+05,6.029312000000000e+06,-4.980736000000000e+06,0*fb891db0
#BESTPOSA,COM1,0,98.0,FINE,2428,98684.000,5022140,41422,18;SOL_COMPUTED,SINGLE,34.36856474290,109.22188867531,491.2651,-33.6676,WGS84,8.1533,3.0693,7.9876,"",0.000,0.000,13,12,0,4,0,06,03,53*ea96d187
#RANGEA,COM1,0,98.0,FINE,2428,98685.000,5023140,2,18;29,20,0,20465067.388,0.040,-107544656.756992,0.005,849.457,48.9,5018.013,08181c64,20,0,20465061.949,0.122,-83801033.604334,0.010,661.509,41.3,4928.000,01301c6b,20,0,20465065.171,0.047,-80309337.198176,0.005,634.316,47.1,5016.013,01d01c60,15,0,21342886.371,0.040,-112157621.010171,0.005,2843.031,51.0,4163.000,08181ca4,15,0,21342882.161,0.056,-87395580.795025,0.006,2215.715,47.1,3880.000,01301cab,11,0,22619461.639,0.193,-118866095.967224,0.019,-2200.810,33.4,590.000,08181cc4,11,0,22619458.142,3.593,-92622950.447431,0.150,-1714.958,28.9,1.000,01301ccb,11,0,22619468.183,0.059,-88763647.122506,0.006,-1643.506,45.6,591.000,01d01cc0,45,13,19837876.638,0.040,-106230974.038373,0.005,1562.886,50.9,4990.000,08191c64,45,13,19837855.705,0.058,-82624038.495384,0.006,1215.607,45.7,4991.000,00b91c6b,59,4,19454369.090,0.226,-103848758.775173,0.023,-319.652,30.9,35.000,08191d24,58,11,23469205.327,0.066,-125588478.695809,0.007,-3598.928,44.8,4369.000,08191dc4,58,11,23469192.280,0.100,-97679775.872794,0.009,-2799.235,40.5,4074.000,00b91dcb,1,0,37988482.496,0.040,-197816000.952769,0.005,-2.782,51.1,5018.013,0c1c1c24,1,0,37988463.749,0.040,-160741620.142869,0.005,-2.247,50.0,5017.013,06a41c20,2,0,37861714.856,0.047,-197155885.708357,0.005,75.658,47.1,5018.013,0c1c1c44,2,0,37861682.736,0.047,-160205172.010501,0.005,61.463,47.2,5017.013,06a41c40,3,0,37090205.251,0.047,-193138426.272522,0.005,56.406,47.1,5018.013,0c1c1c64,3,0,37090176.162,0.040,-156940669.654986,0.005,45.780,50.6,5017.013,06a41c60,8,0,37606273.109,0.056,-195825727.289161,0.006,-1330.870,46.0,5016.013,081c1c84,8,0,37606257.655,0.040,-159124367.540407,0.005,-1081.411,48.1,5016.013,02a41c80,4,0,39154151.357,0.166,-203885904.660302,0.014,34.874,37.4,1030.000,0c1c1cc4,4,0,39154121.102,0.172,-165673902.866729,0.016,28.368,36.0,2113.000,06a41cc0,8,0,23935339.251,0.040,-125781081.859023,0.005,1238.817,51.8,5013.013,083b1c24,8,0,23935338.232,0.040,-93927435.678607,0.005,925.112,48.4,5013.013,01931c2b,8,0,23935332.996,0.050,-96377695.558688,0.006,949.286,46.8,5013.013,02331c20,7,0,26594142.587,0.156,-139753166.740784,0.015,3018.344,35.0,533.000,083b1ca4,7,0,26594148.406,0.178,-104361127.419657,0.017,2254.266,33.2,84.000,01931cab,7,0,26594141.329,0.393,-107083595.782556,0.041,2312.840,28.7,537.000,02331ca0*6c0f33cd
#BESTPOSA,COM1,0,98.0,FINE,2428,98685.000,5023140,42421,18;SOL_COMPUTED,SINGLE,34.36856459525,109.22188861909,491.3163,-33.6676,WGS84,8.1524,3.0693,7.9879,"",0.000,0.000,13,12,0,4,0,06,03,53*3477ff27
#RANGEA,COM1,0,98.0,FINE,2428,98686.000,5024140,2,18;29,20,0,20464905.634,0.040,-107543807.028724,0.005,849.100,49.0,5019.013,08181c64,20,0,20464900.200,0.123,-83800371.492675,0.010,661.345,41.3,4929.000,01301c6b,20,0,20464903.562,0.048,-80308702.662774,0.005,634.077,47.0,5017.013,01d01c60,15,0,21342345.325,0.040,-112154777.611246,0.005,2842.868,51.2,4164.000,08181ca4,15,0,21342341.137,0.056,-87393365.156406,0.006,2215.029,47.2,3881.000,01301cab,11,0,22619880.072,0.179,-118868296.390778,0.017,-2200.848,33.1,591.000,08181cc4,11,0,22619877.082,4.158,-92624665.201465,0.150,-1716.113,28.8,0.000,013010cb,11,0,22619886.908,0.060,-88765290.274146,0.006,-1643.528,45.5,592.000,01d01cc0,45,13,19837584.714,0.040,-106229410.919852,0.005,1562.461,50.9,4991.000,08191c64,45,13,19837563.821,0.057,-82622822.745349,0.006,1215.205,45.8,4992.000,00b91c6b,59,4,19454428.681,0.310,-103849078.075318,0.031,-320.189,30.8,36.000,08191d24,58,11,23469877.866,0.065,-125592077.247309,0.007,-3599.033,44.8,4370.000,08191dc4,58,11,23469864.642,0.099,-97682574.726750,0.009,-2799.235,40.6,4075.000,00b91dcb,1,0,37988482.898,0.040,-197816003.108095,0.005,-2.499,51.0,5019.013,0c1c1c24,1,0,37988464.185,0.040,-160741621.890187,0.005,-2.001,50.0,5018.013,06a41c20,2,0,37861700.168,0.048,-197155809.441689,0.005,75.934,47.0,5019.013,0c1c1c44,2,0,37861668.108,0.047,-160205110.039306,0.005,61.702,47.2,5018.013,06a41c40,3,0,37090194.270,0.048,-193138369.336526,0.005,56.614,47.0,5019.013,0c1c1c64,3,0,37090165.228,0.040,-156940623.382887,0.005,46.048,50.7,5018.013,06a41c60,8,0,37606528.575,0.056,-195827057.621380,0.006,-1330.728,46.0,5017.013,081c1c84,8,0,37606513.094,0.040,-159125448.544371,0.005,-1081.299,48.1,5017.013,02a41c80,4,0,39154144.688,0.168,-203885869.211394,0.014,35.082,37.3,1031.000,0c1c1cc4,4,0,39154114.174,0.143,-165673874.056645,0.013,28.546,36.0,2114.000,06a41cc0,8,0,23935103.506,0.040,-125779842.671544,0.005,1238.676,51.7,5014.013,083b1c24,8,0,23935102.450,0.040,-93926510.309270,0.005,924.978,48.4,5014.013,01931c2b,8,0,23935097.206,0.050,-96376746.053567,0.006,949.078,46.7,5014.013,02331c20,7,0,26593567.892,0.172,-139750147.748978,0.016,3018.552,35.0,534.000,083b1ca4,7,0,26593573.971,0.196,-104358873.014844,0.019,2254.228,33.2,85.000,01931cab,7,0,26593566.647,0.658,-107081282.518276,0.068,2313.056,28.4,538.000,02331ca0*2a60a92f
#BESTPOSA,COM1,0,98.0,FINE,2428,98686.000,5024140,43421,18;SOL_COMPUTED,SINGLE,34.36856436563,109.22188853469,491.3693,-33.6676,WGS84,8.1523,3.0690,7.9891,"",0.000,0.000,13,12,0,4,0,06,03,53*aa96a53c
#RANGEA,COM1,0,98.0,FINE,2428,98687.000,5025140,2,18;29,20,0,20464744.238,0.040,-107542958.921550,0.005,847.155,49.0,5020.013,08181c64,20,0,20464738.847,0.124,-83799710.637032,0.011,659.840,41.2,4930.000,01301c6b,20,0,20464742.204,0.048,-80308069.325272,0.005,632.662,47.0,5018.013,01d01c60,15,0,21341804.511,0.040,-112151935.617408,0.005,2841.191,51.1,4165.000,08181ca4,15,0,21341800.359,0.055,-87391150.623639,0.006,2213.785,47.2,3882.000,01301cab,11,0,22620298.316,0.296,-118870498.119301,0.029,-2202.472,32.6,592.000,08181cc4,11,0,22620296.284,2.517,-92626380.729934,0.150,-1714.139,28.9,1.000,01301ccb,11,0,22620305.812,0.060,-88766934.391021,0.006,-1644.668,45.5,593.000,01d01cc0,45,13,19837293.121,0.040,-106227849.530487,0.005,1560.435,50.9,4992.000,08191c64,45,13,19837272.249,0.055,-82621608.330551,0.006,1213.655,46.1,4993.000,00b91c6b,59,4,19454488.687,0.228,-103849398.943251,0.023,-321.917,30.8,37.000,08191d24,58,11,23470550.678,0.067,-125595677.096176,0.007,-3600.612,44.6,4371.000,08191dc4,58,11,23470537.510,0.099,-97685374.606160,0.009,-2800.442,40.6,4076.000,00b91dcb,1,0,37988483.528,0.040,-197816006.238017,0.005,-3.743,51.0,5020.013,0c1c1c24,1,0,37988464.728,0.040,-160741624.432750,0.005,-3.014,50.0,5019.013,06a41c20,2,0,37861685.668,0.047,-197155734.150819,0.005,74.742,47.1,5020.013,0c1c1c44,2,0,37861653.623,0.046,-160205048.859303,0.005,60.718,47.3,5019.013,06a41c40,3,0,37090183.525,0.047,-193138313.361521,0.005,55.393,47.1,5020.013,0c1c1c64,3,0,37090154.497,0.040,-156940577.898404,0.005,44.975,50.8,5019.013,06a41c60,8,0,37606784.292,0.055,-195828389.048239,0.006,-1332.047,46.1,5018.013,081c1c84,8,0,37606768.757,0.040,-159126530.441638,0.005,-1082.417,48.2,5018.013,02a41c80,4,0,39154138.080,0.179,-203885834.700193,0.015,33.898,37.3,1032.000,0c1c1cc4,4,0,39154107.719,0.184,-165673846.038088,0.017,27.474,36.2,2115.000,06a41cc0,8,0,23934867.990,0.040,-125778604.895801,0.005,1236.992,51.8,5015.013,083b1c24,8,0,23934866.904,0.040,-93925586.000448,0.005,923.711,48.2,5015.013,01931c2b,8,0,23934861.629,0.051,-96375797.630345,0.006,947.759,46.6,5015.013,02331c20,7,0,26592993.494,0.186,-139747129.832940,0.017,3017.308,35.1,535.000,083b1ca4,7,0,26592999.674,0.180,-104356619.408912,0.017,2253.133,33.0,86.000,01931cab,7,0,26592992.559,0.325,-107078970.131211,0.034,2311.685,28.6,539.000,02331ca0*583f5140
#BESTPOSA,COM1,0,98.0,FINE,2428,98687.000,5025140,44421,18;SOL_COMPUTED,SINGLE,34.36856421674,109.22188839771,491.4063,-33.6676,WGS84,8.1515,3.0678,7.9663,"",0.000,0.000,13,12,0,4,0,06,03,53*30961fbb
#RANGEA,COM1,0,98.0,FINE,2428,98688.000,5026140,2,18;29,20,0,20464582.912,0.040,-107542111.446506,0.005,846.842,49.1,5021.013,08181c64,20,0,20464577.562,0.125,-83799050.257178,0.011,659.735,41.2,4931.000,01301c6b,20,0,20464581.022,0.049,-80307436.484646,0.006,632.371,46.8,5019.013,01d01c60,15,0,21341263.769,0.040,-112149094.089827,0.005,2841.057,51.3,4166.000,08181ca4,15,0,21341259.645,0.055,-87388936.451053,0.006,2213.845,47.2,3883.000,01301cab,11,0,22620716.912,0.206,-118872700.142047,0.020,-2202.792,32.4,593.000,08181cc4,11,0,22620714.984,3.106,-92628096.754322,0.150,-1720.412,28.6,0.000,013010cb,11,0,22620724.830,0.062,-88768578.752223,0.006,-1644.668,45.2,594.000,01d01cc0,45,13,19837001.712,0.040,-106226288.900013,0.005,1559.965,51.0,4993.000,08191c64,45,13,19836980.919,0.055,-82620394.506797,0.006,1213.282,46.1,4994.000,00b91c6b,59,4,19454549.438,0.202,-103849720.531395,0.020,-321.999,31.2,38.000,08191d24,58,11,23471223.573,0.066,-125599277.261908,0.007,-3600.583,44.7,4372.000,08191dc4,58,11,23471210.283,0.100,-97688174.727512,0.009,-2800.502,40.5,4077.000,00b91dcb,1,0,37988484.130,0.040,-197816009.396221,0.005,-3.452,51.0,5021.013,0c1c1c24,1,0,37988465.309,0.040,-160741627.005428,0.005,-2.798,50.0,5020.013,06a41c20,2,0,37861671.208,0.048,-197155658.902682,0.005,74.920,47.0,5021.013,0c1c1c44,2,0,37861639.169,0.046,-160204987.705660,0.005,60.912,47.3,5020.013,06a41c40,3,0,37090172.819,0.048,-193138257.420953,0.005,55.638,47.0,5021.013,0c1c1c64,3,0,37090143.767,0.040,-156940532.443931,0.005,45.161,50.8,5020.013,06a41c60,8,0,37607040.064,0.056,-195829720.628055,0.006,-1331.913,46.0,5019.013,081c1c84,8,0,37607024.475,0.040,-159127612.468346,0.005,-1082.320,48.2,5019.013,02a41c80,4,0,39154131.719,0.154,-203885800.262633,0.013,34.084,37.3,1033.000,0c1c1cc4,4,0,39154101.023,0.170,-165673818.033949,0.015,27.727,36.2,2116.000,06a41cc0,8,0,23934632.562,0.040,-125777367.591858,0.005,1236.761,51.8,5016.013,083b1c24,8,0,23934631.493,0.040,-93924662.037557,0.005,923.562,48.1,5016.013,01931c2b,8,0,23934626.196,0.052,-96374849.557897,0.006,947.685,46.6,5016.013,02331c20,7,0,26592419.008,0.156,-139744112.083742,0.014,3017.450,35.0,536.000,083b1ca4,7,0,26592425.253,0.180,-104354365.902915,0.018,2253.409,33.0,87.000,01931cab,7,0,26592418.678,0.322,-107076657.749564,0.033,2311.908,28.9,540.000,02331ca0*28159088
#BESTPOSA,COM1,0,98.0,FINE,2428,98688.000,5026140,45421,18;SOL_COMPUTED,SINGLE,34.36856431641,109.22188836775,491.4522,-33.6676,WGS84,8.1505,3.0674,7.9669,"",0.000,0.000,13,12,0,4,0,06,03,53*096eb372
#RANGEA,COM1,0,98.0,FINE,2428,98689.000,5027140,2,18;29,20,0,20464421.913,0.040,-107541265.121891,0.005,845.814,49.1,5022.013,08181c64,20,0,20464416.474,0.123,-83798390.785663,0.010,658.990,41.3,4932.000,01301c6b,20,0,20464420.042,0.050,-80306804.482654,0.006,631.663,46.8,5020.013,01d01c60,15,0,21340723.159,0.040,-112146253.525766,0.005,2840.200,51.2,4167.000,08181ca4,15,0,21340719.166,0.055,-87386723.021304,0.006,2213.263,47.2,3884.000,01301cab,11,0,22621135.232,0.267,-118874902.982472,0.026,-2203.180,32.1,594.000,08181cc4,11,0,22621134.694,1.563,-92629813.060215,0.150,-1716.731,28.4,0.000,013010cb,11,0,22621143.990,0.062,-88770223.733697,0.006,-1645.219,45.2,595.000,01d01cc0,45,13,19836710.530,0.040,-106224729.526552,0.005,1558.825,51.1,4994.000,08191c64,45,13,19836689.778,0.054,-82619181.660369,0.006,1212.403,46.2,4995.000,00b91c6b,59,4,19454610.137,0.238,-103850043.352684,0.024,-323.303,31.5,39.000,08191d24,58,11,23471896.645,0.066,-125602878.266248,0.007,-3601.335,44.8,4373.000,08191dc4,58,11,23471883.213,0.100,-97690975.512710,0.009,-2801.061,40.6,4078.000,00b91dcb,1,0,37988484.790,0.040,-197816013.072017,0.005,-3.825,50.8,5022.013,0c1c1c24,1,0,37988465.982,0.040,-160741629.989087,0.005,-3.133,50.0,5021.013,06a41c20,2,0,37861656.811,0.049,-197155584.156375,0.006,74.563,46.8,5022.013,0c1c1c44,2,0,37861624.863,0.046,-160204926.972774,0.005,60.614,47.3,5021.013,06a41c40,3,0,37090162.202,0.049,-193138201.994996,0.006,55.266,46.8,5022.013,0c1c1c64,3,0,37090133.128,0.040,-156940487.408956,0.005,44.841,50.8,5021.013,06a41c60,8,0,37607295.943,0.057,-195831052.852193,0.006,-1332.509,45.8,5020.013,081c1c84,8,0,37607280.305,0.040,-159128694.998580,0.005,-1082.745,48.2,5020.013,02a41c80,4,0,39154125.177,0.184,-203885766.316916,0.016,33.734,37.0,1034.000,0c1c1cc4,4,0,39154094.657,0.170,-165673790.473789,0.015,27.332,36.2,2117.000,06a41cc0,8,0,23934397.308,0.040,-125776131.240070,0.005,1235.934,51.8,5017.013,083b1c24,8,0,23934396.213,0.040,-93923738.788953,0.005,922.906,48.1,5017.013,01931c2b,8,0,23934390.903,0.052,-96373902.223429,0.006,947.051,46.5,5017.013,02331c20,7,0,26591844.582,0.171,-139741094.973119,0.016,3016.906,35.1,537.000,083b1ca4,7,0,26591851.337,0.179,-104352112.854636,0.017,2252.887,33.1,88.000,01931cab,7,0,26591844.430,0.389,-107074345.998936,0.040,2311.804,28.9,541.000,02331ca0*c819a111
#BESTPOSA,COM1,0,98.0,FINE,2428,98689.000,5027140,46421,18;SOL_COMPUTED,SINGLE,34.36856429022,109.22188831724,491.4875,-33.6676,WGS84,8.1528,3.0685,7.9696,"",0.000,0.000,13,12,0,4,0,06,03,53*312a2763
#RANGEA,COM1,0,98.0,FINE,2428,98690.000,5028140,2,18;29,20,0,20464261.139,0.040,-107540420.007905,0.005,845.084,49.1,5023.013,08181c64,20,0,20464255.661,0.123,-83797732.247567,0.010,658.655,41.2,4933.000,01301c6b,20,0,20464259.290,0.049,-80306173.401725,0.006,631.060,46.9,5021.013,01d01c60,15,0,21340182.772,0.040,-112143413.977923,0.005,2839.627,51.0,4168.000,08181ca4,15,0,21340178.821,0.056,-87384510.390100,0.006,2212.772,47.2,3885.000,01301cab,11,0,22621554.262,0.492,-118877106.688472,0.049,-2203.939,31.6,595.000,08181cc4,11,0,22621554.190,1.875,-92631530.111456,0.150,-1719.198,27.9,0.000,013010cb,11,0,22621563.288,0.063,-88771869.388740,0.006,-1645.584,45.2,596.000,01d01cc0,45,13,19836419.585,0.040,-106223171.491086,0.005,1557.946,51.1,4995.000,08191c64,45,13,19836398.911,0.054,-82617969.859216,0.006,1211.710,46.3,4996.000,00b91c6b,59,4,19454670.965,0.200,-103850367.431110,0.020,-324.085,31.4,40.000,08191d24,58,11,23472569.875,0.067,-125606480.181834,0.007,-3601.745,44.7,4374.000,08191dc4,58,11,23472556.212,0.100,-97693776.984179,0.009,-2801.329,40.5,4079.000,00b91dcb,1,0,37988485.615,0.040,-197816017.343174,0.005,-3.996,50.8,5023.013,0c1c1c24,1,0,37988466.769,0.040,-160741633.459649,0.005,-3.223,49.9,5022.013,06a41c20,2,0,37861642.513,0.049,-197155509.999159,0.006,74.473,46.8,5023.013,0c1c1c44,2,0,37861610.693,0.046,-160204866.716185,0.005,60.532,47.2,5022.013,06a41c40,3,0,37090151.613,0.049,-193138147.170331,0.006,55.072,46.9,5023.013,0c1c1c64,3,0,37090122.578,0.040,-156940442.850565,0.005,44.766,50.7,5022.013,06a41c60,8,0,37607551.973,0.057,-195832385.783562,0.006,-1332.725,45.9,5021.013,081c1c84,8,0,37607536.262,0.040,-159129778.112866,0.005,-1082.953,48.1,5021.013,02a41c80,4,0,39154118.647,0.184,-203885732.944879,0.016,33.674,37.1,1035.000,0c1c1cc4,4,0,39154088.176,0.186,-165673763.367683,0.017,27.280,36.1,2118.000,06a41cc0,8,0,23934162.268,0.040,-125774895.929277,0.005,1235.353,51.8,5018.013,083b1c24,8,0,23934161.182,0.040,-93922816.316551,0.005,922.526,48.0,5018.013,01931c2b,8,0,23934155.811,0.051,-96372955.687439,0.006,946.612,46.6,5018.013,02331c20,7,0,26591270.325,0.154,-139738078.595923,0.014,3016.623,35.2,538.000,083b1ca4,7,0,26591277.350,0.180,-104349860.393866,0.017,2252.619,33.0,89.000,01931cab,7,0,26591270.192,0.552,-107072034.773008,0.057,2310.903,28.8,542.000,02331ca0*33fa1658
#BD2EPHEMA,COM1,0,98.0,FINE,2428,98690.000,5028140,3,18;1,98640.0,0,1,1,2428,2428,97200.0,4.216504206e+07,5.093426447e-09,-6.969401812e-01,5.0907814875e-04,-6.7220646867e-04,-1.304131001e-05,1.108879223e-05,-3.33781250e+02,-4.04343750e+02,6.053596735e-08,-1.443549991e-08,7.9211530975e-02,-5.357366013e-12,-2.336142446e+00,-4.23339062e-09,1,97200.0,4.500000000e-09,4.500000000e-09,-8.97329e-07,3.46390e-14,0.00000e+00,TRUE,7.292398881e-05,4.00000000e+00*88dd2d50
#BD2EPHEMA,COM1,0,98.0,FINE,2428,98690.000,5028140,3,18;2,98640.0,0,1,1,2428,2428,97200.0,4.216403382e+07,5.140214111e-09,-7.801694309e-01,2.0670820959e-04,-3.4795072175e-01,-1.050764695e-05,-4.735775292e-06,1.43187500e+02,-3.13187500e+02,6.845220923e-08,-1.396983862e-09,8.0427492391e-02,2.000083311e-11,-2.955621264e+00,-4.03052503e-09,1,97200.0,4.730000000e-08,4.730000000e-08,8.91741e-08,-1.61648e-13,0.00000e+00,TRUE,7.292665108e-05,4.00000000e+00*e34afa0f
#BD2EPHEMA,COM1,0,98.0,FINE,2428,98690.000,5028140,3,18;3,98640.0,0,1,1,2428,2428,97200.0,4.216376044e+07,5.060925094e-09,1.204418431e+00,2.2221473046e-04,-1.9290426886e+00,-1.412862912e-05,-1.801643521e-06,5.81562500e+01,-4.28093750e+02,1.052394509e-07,-1.071020961e-08,9.4079018197e-02,1.035757429e-11,-2.826536872e+00,-4.05088302e-09,1,97200.0,3.530000000e-08,3.530000000e-08,-1.85100e-07,3.46390e-14,0.00000e+00,TRUE,7.292728103e-05,4.00000000e+00*1c21bd04
#BD2EPHEMA,COM1,0,98.0,FINE,2428,98690.000,5028140,4,18;4,98640.0,0,1,1,2428,2428,97200.0,4.216444199e+07,5.290220359e-09,8.417115930e-01,8.3762547001e-04,-7.7692187122e-01,-1.721456647e-05,-5.830079317e-07,2.27031250e+01,-5.29843750e+02,3.306195140e-08,2.887099981e-08,1.1776465376e-01,-3.464430022e-11,-2.752954369e+00,-4.38946855e-09,1,97200.0,4.170000000e-08,4.170000000e-08,-6.68573e-07,1.17240e-13,0.00000e+00,TRUE,7.292574224e-05,4.00000000e+00*f0d36308
#BD2EPHEMA,COM1,0,98.0,FINE,2428,98690.000,5028140,4,18;8,98640.0,0,1,1,2428,2428,97200.0,4.216196999e+07,1.664712199e-09,-2.209399035e-01,4.6114998404e-03,-2.8876938583e+00,2.751592547e-06,-5.969777703e-07,2.46812500e+02,9.87031250e+01,-1.294538379e-07,4.656612873e-08,9.5584180962e-01,-3.775157250e-10,-2.833228412e-01,-2.59617957e-09,1,97200.0,9.000000000e-10,9.000000000e-10,-2.50740e-04,-3.32090e-12,0.00000e+00,TRUE,7.292852993e-05,4.00000000e+00*1e70dfb9
#BD2EPHEMA,COM1,0,98.0,FINE,2428,98690.000,5028140,4,18;9,98640.0,0,1,1,2428,2428,93600.0,4.215898839e+07,6.189543534e-10,2.733493983e+00,5.8500906453e-03,-2.3098627613e+00,1.485459507e-07,1.233816147e-05,-1.02546875e+02,-8.75000000e+00,1.126900315e-07,2.235174179e-08,1.0515171040e+00,6.428839216e-10,1.761583942e+00,-1.80828961e-09,1,93600.0,-1.030000000e-08,2.800000000e-09,-5.82454e-04,-2.10996e-11,0.00000e+00,TRUE,7.293522069e-05,4.00000000e+00*b7571fef
#BD2EPHEMA,COM1,0,98.0,FINE,2428,98690.000,5028140,4,18;14,98640.0,0,1,1,2428,2428,93600.0,2.790629292e+07,3.695153918e-09,-4.998259994e-01,3.3541407902e-04,8.4595404515e-01,1.750886440e-07,5.861278623e-06,2.49031250e+02,1.43750000e+00,1.117587090e-08,-1.909211278e-08,9.7353075087e-01,3.885876148e-10,2.171553868e+00,-6.83849914e-09,1,93600.0,3.160000000e-08,3.160000000e-08,-3.06821e-04,7.75380e-12,0.00000e+00,TRUE,1.354339405e-04,4.00000000e+00*f09378dc
#GLOEPHEMERISA,COM1,0,98.0,FINE,2428,98690.000,5028140,4,18;44,12,1,0,2428,96318000,10782,932,0,0,23,0,-8.480241699218750e+06,1.744846972656250e+07,1.662844531250000e+07,2.559709548950195e+02,-2.259255409240723e+03,2.501864433288574e+03,0.000000000000000,0.000000000000000e+00,-9.313225746154785e-07,-1.231748610734940e-04,1.862645149e-09,0.000000000000000e+00,19800,2,1,0,13*dbaeba84
#GLOEPHEMERISA,COM1,0,98.0,FINE,2428,98690.000,5028140,5,18;45,13,1,0,2428,98118000,10782,932,0,0,25,0,-1.045867187500000e+06,2.461521142578125e+07,6.745846679687500e+06,1.262645721435547e+02,-9.286260604858398e+02,3.433453559875488e+03,0.000000000000000,-0.000000000000000e+00,0.000000000000000e+00,5.842186510562897e-06,-3.725290298e-09,0.000000000000000e+00,21600,2,2,0,13*f1a76995
#GLOEPHEMERISA,COM1,0,98.0,FINE,2428,98690.000,5028140,5,18;58,11,1,0,2428,98118000,10782,932,0,0,25,0,-2.185812109375000e+07,1.232951855468750e+07,-4.451984863281250e+06,6.158447265625000e+02,-1.792411804199219e+02,-3.525345802307129e+03,-0.000001862645149,-9.313225746154785e-07,9.313225746154785e-07,3.274492919445038e-04,9.313225746e-10,-3.637978807091713e-12,21600,2,3,0,13*906d6386
#GLOEPHEMERISA,COM1,0,98.0,FINE,2428,98690.000,5028140,5,18;59,4,1,0,2428,98118000,10782,932,0,0,25,0,-1.130311181640625e+07,1.655047509765625e+07,1.580345410156250e+07,-1.744259834289551e+03,1.275865554809570e+03,-2.587396621704102e+03,-0.000000000000000,-0.000000000000000e+00,-9.313225746154785e-07,-1.365225762128830e-04,3.725290298e-09,1.818989403545856e-12,23010,2,5,0,12*60a48ba1
#GALEPHEMERISA,COM1,0,98.0,FINE,2428,98690.000,5028140,5,18;7,TRUE,TRUE,0,0,0,0,0,0,107,0,32,95400,5.44061530e+03,3.2673e-09,-9.99461069e-01,4.267075565e-04,1.749537978e-01,-2.4009e-06,4.5747e-06,2.439e+02,-5.475e+01,2.2352e-08,-2.7940e-08,9.693492263e-01,1.0715e-10,2.852918955e+00,-5.75738268e-09,95400,-7.826928049e-05,-2.557954e-12,0.0e+00,95400,-7.826840738e-05,-2.572165e-12,0.0e+00,4.191e-09,4.889e-09*d5c5d7cb
#GALEPHEMERISA,COM1,0,98.0,FINE,2428,98690.000,5028140,5,18;8,TRUE,TRUE,0,0,0,0,0,0,107,0,32,95400,5.44061541e+03,3.2380e-09,-5.36310691e-01,4.781656899e-04,4.927038734e-01,-2.6170e-06,4.8857e-06,2.446e+02,-5.791e+01,1.8626e-09,4.0978e-08,9.750576862e-01,7.7503e-11,2.856066961e+00,-5.70488049e-09,95400,-1.860480406e-04,-7.077006e-12,0.0e+00,95400,-1.860482735e-04,-7.077006e-12,0.0e+00,-4.657e-09,-5.122e-09*078399d7
#GPSEPHEM,98,GPS,FINE,2428,98690000,0,0,18,6;6,98640.0,0,60,60,2428,2428,100784.0,2.656085612e+07,3.890519199e-09,-1.993708067e+00,3.6932027433e-03,-5.4554524977e-01,-1.966953278e-06,8.260831237e-06,2.34031250e+02,-3.80000000e+01,-1.117587090e-08,1.303851604e-08,9.8589814474e-01,-3.225134340e-10,5.845150643e-01,-7.85747015e-09,60,100784.0,3.725290298e-09,-5.7016546e-04,7.8443918e-12,0.0000000e+00,TRUE,1.458536831e-04,4.00000000e+00*b96da3d9
#GPSEPHEM,98,GPS,FINE,2428,98690000,0,0,18,6;11,98640.0,0,50,50,2428,2428,100800.0,2.656009859e+07,4.412326648e-09,-7.574558415e-01,2.4826183217e-03,-2.3563529403e+00,-2.151355147e-06,7.869675756e-06,2.30812500e+02,-3.95625000e+01,8.381903172e-08,6.519258022e-08,9.6278874822e-01,-3.710868858e-10,6.002287165e-01,-8.15033949e-09,818,100800.0,-8.847564459e-09,-2.6919972e-04,1.2278178e-11,0.0000000e+00,TRUE,1.458604447e-04,4.00000000e+00*2359dd5d
#GPSEPHEM,98,GPS,FINE,2428,98690000,0,0,18,6;12,98640.0,0,70,70,2428,2428,100800.0,2.656068409e+07,4.648050753e-09,2.712248131e+00,8.7095656199e-03,1.5870354241e+00,3.103166819e-06,8.933246136e-06,2.00781250e+02,5.93125000e+01,1.415610313e-07,-1.396983862e-07,9.5830051117e-01,1.160762636e-10,-1.466510605e+00,-7.93854496e-09,70,100800.0,-1.257285476e-08,-6.0552545e-04,5.6843419e-13,0.0000000e+00,TRUE,1.458558575e-04,4.00000000e+00*d44355bc
#GPSEPHEM,98,GPS,FINE,2428,98690000,0,0,18,6;13,98640.0,63,26,26,2428,2428,100800.0,2.655950878e+07,4.635550232e-09,2.575116668e+00,2.2728930926e-03,1.8198118416e+00,2.713873982e-06,9.573996067e-06,1.91656250e+02,5.12187500e+01,6.705522537e-08,-6.519258022e-08,9.5881946819e-01,1.382200431e-10,-1.575031189e+00,-8.01354808e-09,26,100800.0,-8.381903172e-09,4.1786302e-04,5.2295945e-12,0.0000000e+00,TRUE,1.458655264e-04,4.00000000e+00*9738a6a8
#GPSEPHEM,98,GPS,FINE,2428,98690000,0,0,18,6;15,98670.0,0,61,61,2428,2428,100800.0,2.656115225e+07,5.119141804e-09,-1.075488651e+00,1.7032536212e-02,1.5371767577e+00,1.862645149e-08,5.615875125e-06,2.65781250e+02,-7.06250000e+00,-2.253800631e-07,2.644956112e-07,9.4470280758e-01,3.003696545e-10,2.478255922e+00,-8.64214569e-09,61,100800.0,-1.071020961e-08,4.2976020e-04,3.0695446e-12,0.0000000e+00,TRUE,1.458524725e-04,4.00000000e+00*3749f529
#GPSEPHEM,98,GPS,FINE,2428,98690000,0,0,18,7;19,98670.0,0,32,32,2428,2428,100800.0,2.656121355e+07,4.979135972e-09,1.588330368e+00,1.1764418799e-02,3.0287478475e+00,1.553446054e-06,4.317611456e-06,2.93281250e+02,2.66562500e+01,4.656612873e-08,1.508742571e-07,9.5661215448e-01,-3.735869900e-10,-3.903769582e-01,-8.43999442e-09,32,100800.0,-1.536682248e-08,7.0377067e-04,4.5474735e-13,0.0000000e+00,TRUE,1.458518276e-04,4.00000000e+00*95d38a2d
#GPSEPHEM,98,GPS,FINE,2428,98690000,0,0,18,7;20,98670.0,0,52,52,2428,2428,100800.0,2.655970595e+07,4.689838208e-09,2.564804794e+00,1.9065230154e-03,-1.7615133887e+00,-1.234933734e-06,5.258247256e-06,2.78937500e+02,-2.38125000e+01,2.421438694e-08,-2.235174179e-08,9.6206498852e-01,1.814361290e-10,2.630518565e+00,-8.19355558e-09,52,100800.0,-6.984919310e-09,2.3574708e-04,1.1937118e-11,0.0000000e+00,TRUE,1.458639565e-04,4.00000000e+00*858c58ec
#GPSEPHEM,98,GPS,FINE,2428,98690000,0,0,18,7;25,98670.0,0,47,47,2428,2428,100800.0,2.656029168e+07,4.829844040e-09,2.645243241e+00,1.2902229326e-02,1.1616892086e+00,2.296641469e-06,9.389594197e-06,1.87218750e+02,4.67500000e+01,5.215406418e-08,-1.899898052e-07,9.4671861214e-01,1.264338379e-10,-1.561938201e+00,-7.90318634e-09,47,100800.0,5.587935448e-09,4.0509831e-04,-3.1832315e-12,0.0000000e+00,TRUE,1.458592716e-04,4.00000000e+00*a98d96cd
