#RANGEA,COM1,0,98.0,FINE,2428,95398.000,1736140,2,18;28,12,0,24807174.329,0.091,-130362594.602913,0.008,-2904.585,41.6,177.000,08181c24,12,0,24807172.233,0.201,-101581224.082551,0.020,-2263.731,36.6,172.000,01301c2b,20,0,21590503.435,0.060,-113458861.570342,0.006,2648.527,45.5,1731.013,08181c64,20,0,21590500.542,0.114,-88409501.602794,0.010,2063.961,42.0,1641.000,01301c6b,20,0,21590504.127,0.040,-84725784.970094,0.005,1977.782,48.8,1729.013,01d01c60,15,0,23473036.734,0.062,-123351608.328981,0.006,3812.523,45.2,876.000,08181ca4,15,0,23473033.759,0.096,-96118161.326983,0.008,2970.883,43.6,593.000,01301cab,44,12,19284107.561,0.885,-103229336.553959,0.013,-1.110,35.7,4.000,08191c44,44,12,19284095.848,5.875,-80289436.168597,0.150,5.715,30.6,0.000,00b9104b,45,13,21462970.518,0.049,-114933255.775015,0.006,3605.053,46.8,1703.000,08191c64,45,13,21462951.393,0.055,-89392475.039150,0.006,2803.981,46.1,1704.000,00b91c6b,58,11,21631905.502,0.057,-115756728.988795,0.006,-2305.098,45.8,1082.000,08191dc4,58,11,21631886.024,0.134,-90032868.404047,0.012,-1792.721,36.8,787.000,00b91dcb,1,0,37985292.213,0.040,-197799385.283436,0.005,-5.427,52.3,1731.013,0c1c1c24,1,0,37985272.398,0.040,-160728118.655182,0.005,-4.407,50.1,1730.013,06a41c20,2,0,37908956.822,0.042,-197401883.917383,0.005,75.286,47.8,1731.013,0c1c1c44,2,0,37908924.097,0.051,-160405065.169008,0.006,61.135,46.6,1730.013,06a41c40,3,0,37125880.411,0.048,-193324197.126802,0.006,58.105,47.0,1731.013,0c1c1c64,3,0,37125851.619,0.040,-157091623.399263,0.005,47.210,50.5,1730.013,06a41c60,8,0,36900739.990,0.060,-192151847.437194,0.006,-891.442,45.4,1729.013,081c1c84,8,0,36900724.564,0.040,-156139040.489479,0.005,-724.350,51.3,1729.013,02a41c80,14,0,21802832.361,0.074,-113533052.260640,0.007,578.535,43.8,1729.013,081c1ca4,14,0,21802802.415,0.115,-92254792.539917,0.010,470.105,38.6,1729.013,02a41ca0,4,0,39178736.378,0.125,-204013952.580284,0.011,44.619,37.6,21.000,0c1c1cc4,4,0,39178705.029,0.133,-165777922.956818,0.011,36.131,37.9,272.000,06a41cc0,8,0,25113321.624,0.040,-131971417.738144,0.005,2438.622,48.2,1726.013,083b1c24,8,0,25113319.206,0.090,-98550085.566840,0.008,1821.066,41.8,1726.013,01931c2b,8,0,25113318.967,0.071,-101120936.705152,0.007,1868.539,44.1,1726.013,02331c20*62105854
#BESTPOSA,COM1,0,98.0,FINE,2428,95398.000,1736140,32221,18;SOL_COMPUTED,SINGLE,34.36852048556,109.22188591329,499.9504,-33.6674,WGS84,6.5458,2.4024,5.1826,"",0.000,0.000,13,13,0,4,0,06,03,53*de4c417d
$command,GPSIONA ONCHANGED,response: OK*70
#RANGEA,COM1,0,98.0,FINE,2428,95399.000,1737140,2,18;28,12,0,24807727.108,0.093,-130365499.066979,0.008,-2904.622,41.4,178.000,08181c24,12,0,24807724.951,0.200,-101583487.302943,0.020,-2262.978,36.7,173.000,01301c2b,20,0,21589999.518,0.059,-113456213.065854,0.006,2648.169,45.6,1732.013,08181c64,20,0,21589996.419,0.113,-88407437.852020,0.010,2063.313,42.0,1642.000,01301c6b,20,0,21590000.138,0.040,-84723807.194308,0.005,1977.514,48.8,1730.013,01d01c60,15,0,23472311.244,0.063,-123347795.733346,0.006,3812.397,45.2,877.000,08181ca4,15,0,23472308.246,0.096,-96115190.492922,0.009,2970.689,43.6,594.000,01301cab,44,12,19284119.336,0.262,-103229337.964827,0.011,-3.144,37.1,5.000,08191c44,44,12,19284090.953,2.452,-80289415.262063,0.150,-1.945,31.0,0.000,00b9104b,45,13,21462297.290,0.050,-114929650.761287,0.006,3604.621,46.7,1704.000,08191c64,45,13,21462278.192,0.054,-89389671.145048,0.006,2803.616,46.2,1705.000,00b91c6b,58,11,21632336.137,0.060,-115759034.081514,0.006,-2305.456,45.6,1083.000,08191dc4,58,11,21632316.879,0.135,-90034661.257074,0.012,-1793.101,36.8,788.000,00b91dcb,1,0,37985293.236,0.040,-197799390.519525,0.005,-5.345,52.2,1732.013,0c1c1c24,1,0,37985273.376,0.040,-160728122.912906,0.005,-4.326,50.1,1731.013,06a41c20,2,0,37908942.388,0.042,-197401808.473035,0.005,75.345,47.7,1732.013,0c1c1c44,2,0,37908909.551,0.051,-160405003.853423,0.006,61.232,46.6,1731.013,06a41c40,3,0,37125869.230,0.048,-193324138.862010,0.006,58.134,47.0,1732.013,0c1c1c64,3,0,37125840.411,0.040,-157091576.051956,0.005,47.262,50.5,1731.013,06a41c60,8,0,36900911.122,0.061,-192152738.757355,0.006,-891.502,45.4,1730.013,081c1c84,8,0,36900895.737,0.040,-156139764.766749,0.005,-724.424,51.2,1730.013,02a41c80,14,0,21802721.298,0.074,-113532473.793606,0.007,578.095,43.7,1730.013,081c1ca4,14,0,21802691.262,0.116,-92254322.473064,0.010,469.882,38.5,1730.013,02a41ca0,4,0,39178727.669,0.125,-204013907.811034,0.011,44.641,37.6,22.000,0c1c1cc4,4,0,39178696.369,0.121,-165777886.576862,0.010,36.250,37.9,273.000,06a41cc0,8,0,25112857.609,0.040,-131968979.060803,0.005,2438.420,48.3,1727.013,083b1c24,8,0,25112855.163,0.091,-98548264.460853,0.008,1820.970,41.7,1727.013,01931c2b,8,0,25112854.804,0.071,-101119068.100477,0.007,1868.405,44.2,1727.013,02331c20*08c44e8a
#BESTPOSA,COM1,0,98.0,FINE,2428,95399.000,1737140,33222,18;SOL_COMPUTED,SINGLE,34.36851559892,109.22188697530,499.8453,-33.6674,WGS84,6.5452,2.4025,5.1828,"",0.000,0.000,13,13,0,4,0,06,03,53*a7b645eb
#RANGEA,COM1,0,98.0,FINE,2428,95400.000,1738140,2,18;28,12,0,24808279.770,0.091,-130368403.668769,0.008,-2904.406,41.6,179.000,08181c24,12,0,24808277.649,0.201,-101585750.642932,0.020,-2263.828,36.6,174.000,01301c2b,20,0,21589495.601,0.058,-113453565.173896,0.006,2647.864,45.7,1733.013,08181c64,20,0,21589492.601,0.113,-88405374.549473,0.010,2063.253,42.1,1643.000,01301c6b,20,0,21589496.291,0.040,-84721829.869915,0.005,1977.320,48.9,1731.013,01d01c60,15,0,23471585.774,0.062,-123343983.466556,0.006,3812.375,45.3,878.000,08181ca4,15,0,23471582.738,0.096,-96112219.883704,0.009,2970.421,43.6,595.000,01301cab,44,12,19284115.568,0.268,-103229340.402732,0.012,-2.712,36.8,6.000,08191c44,44,12,19284086.611,1.752,-80289397.174798,0.029,-2.548,31.8,1.000,00b91c4b,45,13,21461624.080,0.051,-114926046.372424,0.006,3604.360,46.7,1705.000,08191c64,45,13,21461605.149,0.055,-89386867.741700,0.006,2803.415,46.2,1706.000,00b91c6b,58,11,21632766.948,0.061,-115761339.824295,0.006,-2305.798,45.3,1084.000,08191dc4,58,11,21632747.984,0.135,-90036454.599847,0.012,-1793.280,36.8,789.000,00b91dcb,1,0,37985294.319,0.040,-197799395.938824,0.005,-5.173,52.3,1733.013,0c1c1c24,1,0,37985274.424,0.040,-160728127.315789,0.005,-4.236,50.1,1732.013,06a41c20,2,0,37908927.927,0.042,-197401733.205750,0.005,75.472,47.8,1733.013,0c1c1c44,2,0,37908895.110,0.051,-160404942.688656,0.006,61.366,46.6,1732.013,06a41c40,3,0,37125858.061,0.048,-193324080.781769,0.005,58.254,47.0,1733.013,0c1c1c64,3,0,37125829.252,0.040,-157091528.853735,0.005,47.404,50.5,1732.013,06a41c60,8,0,36901082.252,0.061,-192153630.403986,0.006,-891.487,45.4,1731.013,081c1c84,8,0,36901066.951,0.040,-156140489.301193,0.005,-724.409,51.3,1731.013,02a41c80,14,0,21802610.424,0.074,-113531895.990151,0.007,577.745,43.8,1731.013,081c1ca4,14,0,21802580.179,0.116,-92253852.961495,0.010,469.546,38.5,1731.013,02a41ca0,4,0,39178718.810,0.126,-204013863.239716,0.011,44.842,37.5,23.000,0c1c1cc4,4,0,39178687.827,0.120,-165777850.360052,0.010,36.399,38.0,274.000,06a41cc0,8,0,25112393.736,0.040,-131966540.831242,0.005,2438.338,48.3,1728.013,083b1c24,8,0,25112391.179,0.090,-98546443.718752,0.008,1820.828,41.7,1728.013,01931c2b,8,0,25112390.756,0.071,-101117199.855993,0.007,1868.308,44.1,1728.013,02331c20*f1da1eab
#GPSION,98,GPS,FINE,2428,95400000,0,0,18,3;7.450580596923828e-09,2.235174179077148e-08,-5.960464477539063e-08,-1.192092895507813e-07,9.011200000000000e+04,1.146880000000000e+05,-6.553600000000000e+04,-5.242880000000000e+05,0*65fc14b5
#BD2EPHEMA,COM1,0,98.0,FINE,2428,95400.000,1738140,3,18;1,95370.0,0,1,1,2428,2428,93600.0,4.216491657e+07,5.176287042e-09,-9.638855754e-01,5.0575530622e-04,2.9251898267e-01,-1.620408148e-05,3.302469850e-06,-9.47187500e+01,-4.96156250e+02,5.401670933e-08,9.452924132e-08,7.9498685702e-02,8.000333246e-11,-2.624992642e+00,-4.25410577e-09,1,93600.0,4.500000000e-09,4.500000000e-09,-8.97446e-07,3.19744e-14,0.00000e+00,TRUE,7.292439720e-05,4.00000000e+00*b55c4a05
#BD2EPHEMA,COM1,0,98.0,FINE,2428,95400.000,1738140,4,18;2,95340.0,0,1,1,2428,2428,93600.0,4.216411626e+07,4.353395622e-09,-1.034792571e+00,2.0876596682e-04,-1.3790743674e-01,-8.442439139e-06,-8.691567928e-06,2.60687500e+02,-2.52015625e+02,3.539025784e-08,2.887099981e-08,9.3321220781e-02,9.643258823e-11,3.109447153e+00,-3.28299389e-09,1,93600.0,4.730000000e-08,4.730000000e-08,8.98726e-08,-1.43885e-13,0.00000e+00,TRUE,7.292565041e-05,4.00000000e+00*d320b3ff
#BD2EPHEMA,COM1,0,98.0,FINE,2428,95400.000,1738140,4,18;3,95340.0,0,1,1,2428,2428,93600.0,4.216359311e+07,4.599834459e-09,9.653868337e-01,2.2100971546e-04,-1.7459228104e+00,-1.093279570e-05,-6.035901606e-06,1.83859375e+02,-3.27750000e+02,7.171183825e-08,2.374872565e-08,1.0429712794e-01,9.464679956e-11,-3.033133363e+00,-3.50586032e-09,1,93600.0,3.530000000e-08,3.530000000e-08,-1.85333e-07,7.10543e-15,0.00000e+00,TRUE,7.292725402e-05,4.00000000e+00*5192b3d0
#BD2EPHEMA,COM1,0,98.0,FINE,2428,95400.000,1738140,4,18;4,95340.0,0,1,1,2428,2428,93600.0,4.216452116e+07,4.756983862e-09,5.766796078e-01,8.3901849575e-04,-5.9946405507e-01,-1.541851088e-05,-7.018912584e-06,2.22625000e+02,-4.70812500e+02,2.002343535e-08,1.089647412e-07,1.2609294691e-01,4.357324357e-11,-2.927592395e+00,-3.90444835e-09,1,93600.0,4.170000000e-08,4.170000000e-08,-6.68690e-07,1.76748e-13,0.00000e+00,TRUE,7.292500363e-05,4.00000000e+00*343907ea
#BD2EPHEMA,COM1,0,98.0,FINE,2428,95400.000,1738140,4,18;8,95340.0,0,1,1,2428,2428,93600.0,4.216191797e+07,1.634353792e-09,-4.835178831e-01,4.6098604798e-03,-2.8876592017e+00,2.518296242e-06,1.303851604e-07,2.29968750e+02,9.32343750e+01,-3.911554813e-08,8.847564459e-08,9.5584364558e-01,-3.835874065e-10,-2.833136511e-01,-2.54689180e-09,1,93600.0,9.000000000e-10,9.000000000e-10,-2.50728e-04,-3.33422e-12,0.00000e+00,TRUE,7.292863453e-05,4.00000000e+00*147addd2
#BD2EPHEMA,COM1,0,98.0,FINE,2428,95400.000,1738140,4,18;9,95340.0,0,1,1,2428,2428,93600.0,4.215898839e+07,6.189543534e-10,2.733493983e+00,5.8500906453e-03,-2.3098627613e+00,1.485459507e-07,1.233816147e-05,-1.02546875e+02,-8.75000000e+00,1.126900315e-07,2.235174179e-08,1.0515171040e+00,6.428839216e-10,1.761583942e+00,-1.80828961e-09,1,93600.0,-1.030000000e-08,2.800000000e-09,-5.82454e-04,-2.10996e-11,0.00000e+00,TRUE,7.293522069e-05,4.00000000e+00*145f0c54
#BD2EPHEMA,COM1,0,98.0,FINE,2428,95400.000,1738140,4,18;14,95340.0,0,1,1,2428,2428,93600.0,2.790629292e+07,3.695153918e-09,-4.998259994e-01,3.3541407902e-04,8.4595404515e-01,1.750886440e-07,5.861278623e-06,2.49031250e+02,1.43750000e+00,1.117587090e-08,-1.909211278e-08,9.7353075087e-01,3.885876148e-10,2.171553868e+00,-6.83849914e-09,1,93600.0,3.160000000e-08,3.160000000e-08,-3.06821e-04,7.75380e-12,0.00000e+00,TRUE,1.354339405e-04,4.00000000e+00*d9c34d2d
#GLOEPHEMERISA,COM1,0,98.0,FINE,2428,95400.000,1738140,5,18;44,12,1,0,2428,94518000,10782,932,0,0,21,0,-9.158572265625000e+06,2.087143750000000e+07,1.154333447265625e+07,4.612865447998047e+02,-1.515855789184570e+03,3.111790657043457e+03,0.000000000000000,-0.000000000000000e+00,-0.000000000000000e+00,-1.231729984283447e-04,1.862645149e-09,0.000000000000000e+00,18060,2,1,0,12*a5f40da6
#GLOEPHEMERISA,COM1,0,98.0,FINE,2428,95400.000,1738140,5,18;45,13,1,0,2428,94518000,10782,932,0,0,21,0,-1.664627929687500e+06,2.474319726562500e+07,-6.004713378906250e+06,5.248260498046875e+01,8.536510467529297e+02,3.465950012207031e+03,0.000000931322575,-0.000000000000000e+00,9.313225746154785e-07,5.842186510562897e-06,-3.725290298e-09,-0.000000000000000e+00,18060,2,2,0,12*36002abc
#GLOEPHEMERISA,COM1,0,98.0,FINE,2428,95400.000,1738140,5,18;58,11,1,0,2428,94518000,10782,932,0,0,21,0,-2.125111816406250e+07,1.138700488281250e+07,8.266173339843750e+06,-1.010632514953613e+03,5.479898452758789e+02,-3.355565071105957e+03,-0.000000931322575,-9.313225746154785e-07,-0.000000000000000e+00,3.274362534284592e-04,9.313225746e-10,-3.637978807091713e-12,18540,2,3,0,12*bb699b9d
#GALEPHEMERISA,COM1,0,98.0,FINE,2428,95400.000,1738140,5,18;8,TRUE,TRUE,0,0,0,0,0,0,107,0,30,94200,5.44061545e+03,3.2569e-09,-6.85085918e-01,4.781882744e-04,4.927083719e-01,-2.5854e-06,4.8690e-06,2.446e+02,-5.775e+01,7.4506e-09,0.0000e+00,9.750574024e-01,9.0718e-11,2.856073844e+00,-5.72952437e-09,94200,-1.860394259e-04,-7.062795e-12,0.0e+00,94200,-1.860397169e-04,-7.077006e-12,0.0e+00,-4.657e-09,-5.122e-09*e517f592
#GPSEPHEM,98,GPS,FINE,2428,95400000,0,0,18,6;12,95370.0,0,70,70,2428,2428,100800.0,2.656068409e+07,4.648050753e-09,2.712248131e+00,8.7095656199e-03,1.5870354241e+00,3.103166819e-06,8.933246136e-06,2.00781250e+02,5.93125000e+01,1.415610313e-07,-1.396983862e-07,9.5830051117e-01,1.160762636e-10,-1.466510605e+00,-7.93854496e-09,70,100800.0,-1.257285476e-08,-6.0552545e-04,5.6843419e-13,0.0000000e+00,TRUE,1.458558575e-04,4.00000000e+00*cbb6502a
#GPSEPHEM,98,GPS,FINE,2428,95400000,0,0,18,6;13,95370.0,63,26,26,2428,2428,100800.0,2.655950878e+07,4.635550232e-09,2.575116668e+00,2.2728930926e-03,1.8198118416e+00,2.713873982e-06,9.573996067e-06,1.91656250e+02,5.12187500e+01,6.705522537e-08,-6.519258022e-08,9.5881946819e-01,1.382200431e-10,-1.575031189e+00,-8.01354808e-09,26,100800.0,-8.381903172e-09,4.1786302e-04,5.2295945e-12,0.0000000e+00,TRUE,1.458655264e-04,4.00000000e+00*88cda33e
#GPSEPHEM,98,GPS,FINE,2428,95400000,0,0,18,6;15,95370.0,0,61,61,2428,2428,100800.0,2.656115225e+07,5.119141804e-09,-1.075488651e+00,1.7032536212e-02,1.5371767577e+00,1.862645149e-08,5.615875125e-06,2.65781250e+02,-7.06250000e+00,-2.253800631e-07,2.644956112e-07,9.4470280758e-01,3.003696545e-10,2.478255922e+00,-8.64214569e-09,61,100800.0,-1.071020961e-08,4.2976020e-04,3.0695446e-12,0.0000000e+00,TRUE,1.458524725e-04,4.00000000e+00*868d4b10
#GPSEPHEM,98,GPS,FINE,2428,95400000,0,0,18,6;19,95370.0,0,32,32,2428,2428,100800.0,2.656121355e+07,4.979135972e-09,1.588330368e+00,1.1764418799e-02,3.0287478475e+00,1.553446054e-06,4.317611456e-06,2.93281250e+02,2.66562500e+01,4.656612873e-08,1.508742571e-07,9.5661215448e-01,-3.735869900e-10,-3.903769582e-01,-8.43999442e-09,32,100800.0,-1.536682248e-08,7.0377067e-04,4.5474735e-13,0.0000000e+00,TRUE,1.458518276e-04,4.00000000e+00*0a8dfdf9
#GPSEPHEM,98,GPS,FINE,2428,95400000,0,0,18,6;20,95370.0,0,52,52,2428,2428,100800.0,2.655970595e+07,4.689838208e-09,2.564804794e+00,1.9065230154e-03,-1.7615133887e+00,-1.234933734e-06,5.258247256e-06,2.78937500e+02,-2.38125000e+01,2.421438694e-08,-2.235174179e-08,9.6206498852e-01,1.814361290e-10,2.630518565e+00,-8.19355558e-09,52,100800.0,-6.984919310e-09,2.3574708e-04,1.1937118e-11,0.0000000e+00,TRUE,1.458639565e-04,4.00000000e+00*aeb92336
#GPSEPHEM,98,GPS,FINE,2428,95400000,0,0,18,6;25,95370.0,0,47,47,2428,2428,100800.0,2.656029168e+07,4.829844040e-09,2.645243241e+00,1.2902229326e-02,1.1616892086e+00,2.296641469e-06,9.389594197e-06,1.87218750e+02,4.67500000e+01,5.215406418e-08,-1.899898052e-07,9.4671861214e-01,1.264338379e-10,-1.561938201e+00,-7.90318634e-09,47,100800.0,5.587935448e-09,4.0509831e-04,-3.1832315e-12,0.0000000e+00,TRUE,1.458592716e-04,4.00000000e+00*36d3e119
#BESTPOSA,COM1,0,98.0,FINE,2428,95400.000,1738140,34225,18;SOL_COMPUTED,SINGLE,34.36851301071,109.22188745747,499.8161,-33.6674,WGS84,6.5441,2.4026,5.1829,"",0.000,0.000,13,13,0,4,0,06,03,53*703f4d82
#RANGEA,COM1,0,98.0,FINE,2428,95401.000,1739133,2,18;28,12,0,24808832.573,0.090,-130371308.146365,0.008,-2904.771,41.7,180.000,08181c24,12,0,24808830.362,0.201,-101588013.867608,0.020,-2263.708,36.6,175.000,01301c2b,20,0,21588991.859,0.057,-113450917.609299,0.006,2647.044,45.9,1734.013,08181c64,20,0,21588988.659,0.113,-88403311.493149,0.010,2062.821,42.1,1644.000,01301c6b,20,0,21588992.506,0.040,-84719852.789492,0.005,1976.672,48.9,1732.013,01d01c60,15,0,23470860.314,0.060,-123340171.221709,0.006,3811.875,45.5,879.000,08181ca4,15,0,23470857.345,0.096,-96109249.317282,0.008,2970.518,43.6,596.000,01301cab,44,12,19284114.084,0.152,-103229343.560772,0.014,-3.837,35.3,7.000,08191c44,44,12,19284085.376,1.281,-80289399.574612,0.021,-2.809,31.8,2.000,00b91c4b,45,13,21460950.925,0.051,-114922442.350115,0.006,3603.458,46.6,1706.000,08191c64,45,13,21460932.168,0.053,-89384064.620133,0.006,2802.663,46.3,1707.000,00b91c6b,58,11,21633197.726,0.063,-115763645.905371,0.006,-2306.670,45.1,1085.000,08191dc4,58,11,21633179.201,0.132,-90038248.232336,0.011,-1794.033,37.0,790.000,00b91dcb,1,0,37985295.336,0.040,-197799401.246991,0.005,-5.635,52.2,1734.013,0c1c1c24,1,0,37985275.506,0.040,-160728131.629288,0.005,-4.594,50.2,1733.013,06a41c20,2,0,37908913.468,0.042,-197401657.818335,0.005,74.995,47.7,1734.013,0c1c1c44,2,0,37908880.634,0.050,-160404881.440179,0.006,60.942,46.7,1733.013,06a41c40,3,0,37125846.805,0.049,-193324022.575732,0.006,57.851,46.9,1734.013,0c1c1c64,3,0,37125818.082,0.040,-157091481.567105,0.005,46.994,50.5,1733.013,06a41c60,8,0,36901253.439,0.061,-192154522.076571,0.006,-892.061,45.3,1732.013,081c1c84,8,0,36901238.183,0.040,-156141213.855356,0.005,-724.871,51.3,1732.013,02a41c80,14,0,21802499.590,0.075,-113531318.548928,0.007,576.866,43.7,1732.013,081c1ca4,14,0,21802469.261,0.116,-92253383.757435,0.010,468.771,38.5,1732.013,02a41ca0,4,0,39178710.152,0.126,-204013818.554561,0.011,44.463,37.5,24.000,0c1c1cc4,4,0,39178679.378,0.119,-165777814.051569,0.010,36.101,38.2,275.000,06a41cc0,8,0,25111929.922,0.040,-131964102.756236,0.005,2437.571,48.2,1729.013,083b1c24,8,0,25111927.262,0.091,-98544623.081139,0.008,1820.307,41.7,1729.013,01931c2b,8,0,25111926.772,0.071,-101115331.729615,0.007,1867.720,44.1,1729.013,02331c20*fa6e7ac7
#BESTPOSA,COM1,0,98.0,FINE,2428,95401.000,1739133,35215,18;SOL_COMPUTED,SINGLE,34.36851096814,109.22188779461,499.8003,-33.6673,WGS84,6.5438,2.4026,5.1833,"",0.000,0.000,13,13,0,4,0,06,03,53*e20d9daa
#RANGEA,COM1,0,98.0,FINE,2428,95402.000,1740140,2,18;28,12,0,24809385.225,0.091,-130374212.409400,0.008,-2904.749,41.6,181.000,08181c24,12,0,24809383.071,0.203,-101590276.923998,0.020,-2263.351,36.5,176.000,01301c2b,20,0,21588488.064,0.057,-113448270.280084,0.006,2646.612,45.9,1735.013,08181c64,20,0,21588484.799,0.113,-88401248.634955,0.010,2062.531,42.1,1645.000,01301c6b,20,0,21588488.731,0.040,-84717875.891868,0.005,1976.359,48.8,1733.013,01d01c60,15,0,23470134.907,0.061,-123336358.939407,0.006,3811.682,45.4,880.000,08181ca4,15,0,23470131.831,0.095,-96106278.688078,0.008,2969.982,43.7,597.000,01301cab,44,12,19284114.718,0.147,-103229347.377243,0.013,-4.731,35.8,8.000,08191c44,44,12,19284095.109,1.648,-80289402.559288,0.027,-3.509,31.6,3.000,00b91c4b,45,13,21460277.788,0.050,-114918838.623206,0.006,3602.959,46.7,1707.000,08191c64,45,13,21460259.293,0.053,-89381261.725541,0.006,2802.305,46.4,1708.000,00b91c6b,58,11,21633628.537,0.064,-115765952.266737,0.006,-2307.102,45.0,1086.000,08191dc4,58,11,21633610.259,0.131,-90040042.067052,0.011,-1794.443,37.0,791.000,00b91dcb,1,0,37985296.329,0.040,-197799406.353939,0.005,-5.605,52.3,1735.013,0c1c1c24,1,0,37985276.455,0.040,-160728135.781407,0.005,-4.609,50.3,1734.013,06a41c20,2,0,37908898.978,0.041,-197401582.239284,0.005,75.040,47.8,1735.013,0c1c1c44,2,0,37908866.088,0.050,-160404820.024793,0.006,61.001,46.8,1734.013,06a41c40,3,0,37125835.600,0.048,-193323964.192759,0.005,57.859,47.0,1735.013,0c1c1c64,3,0,37125806.868,0.040,-157091434.113180,0.005,47.046,50.7,1734.013,06a41c60,8,0,36901424.725,0.060,-192155413.702311,0.006,-892.187,45.5,1733.013,081c1c84,8,0,36901409.362,0.040,-156141938.370764,0.005,-724.975,51.4,1733.013,02a41c80,14,0,21802388.817,0.074,-113530741.412411,0.007,576.367,43.8,1733.013,081c1ca4,14,0,21802358.249,0.115,-92252914.797187,0.010,468.302,38.6,1733.013,02a41ca0,4,0,39178701.632,0.122,-204013773.692090,0.010,44.343,37.9,25.000,0c1c1cc4,4,0,39178670.684,0.118,-165777777.599850,0.010,35.997,38.2,276.000,06a41cc0,8,0,25111466.080,0.040,-131961664.765153,0.005,2437.377,48.2,1730.013,083b1c24,8,0,25111463.381,0.090,-98542802.500880,0.008,1820.113,41.7,1730.013,01931c2b,8,0,25111462.784,0.071,-101113463.651577,0.007,1867.571,44.1,1730.013,02331c20*25e15749
#BESTPOSA,COM1,0,98.0,FINE,2428,95402.000,1740140,36221,18;SOL_COMPUTED,SINGLE,34.36850908281,109.22188808523,499.7964,-33.6673,WGS84,6.5428,2.4027,5.1834,"",0.000,0.000,13,13,0,4,0,06,03,53*437cbe4e
#RANGEA,COM1,0,98.0,FINE,2428,95403.000,1741140,2,18;28,12,0,24809937.947,0.093,-130377116.645739,0.008,-2904.004,41.3,182.000,08181c24,12,0,24809935.756,0.204,-101592539.956554,0.020,-2262.837,36.4,177.000,01301c2b,20,0,21587984.399,0.057,-113445623.363594,0.006,2646.940,45.8,1736.013,08181c64,20,0,21587981.252,0.113,-88399186.110566,0.010,2062.196,42.0,1646.000,01301c6b,20,0,21587985.037,0.040,-84715899.288878,0.005,1976.635,48.8,1734.013,01d01c60,15,0,23469409.445,0.062,-123332546.771871,0.006,3812.330,45.2,881.000,08181ca4,15,0,23469406.520,0.094,-96103308.183068,0.008,2970.250,43.8,598.000,01301cab,44,12,19284115.604,0.146,-103229352.044532,0.013,-4.888,35.8,9.000,08191c44,44,12,19284089.017,1.368,-80289407.141181,0.150,-3.695,32.6,0.000,00b9104b,45,13,21459604.869,0.050,-114915235.385309,0.006,3603.220,46.7,1708.000,08191c64,45,13,21459586.460,0.052,-89378459.204357,0.006,2802.551,46.5,1709.000,00b91c6b,58,11,21634059.382,0.066,-115768259.038406,0.007,-2306.737,44.7,1087.000,08191dc4,58,11,21634041.321,0.132,-90041836.213463,0.011,-1794.137,37.0,792.000,00b91dcb,1,0,37985297.275,0.040,-197799411.435749,0.005,-4.793,52.0,1736.013,0c1c1c24,1,0,37985277.489,0.040,-160728139.907196,0.005,-3.893,50.0,1735.013,06a41c20,2,0,37908884.446,0.043,-197401506.636302,0.005,75.889,47.6,1736.013,0c1c1c44,2,0,37908851.564,0.052,-160404758.586352,0.006,61.649,46.5,1735.013,06a41c40,3,0,37125824.389,0.050,-193323905.770983,0.006,58.671,46.8,1736.013,0c1c1c64,3,0,37125795.659,0.040,-157091386.646813,0.005,47.702,50.4,1735.013,06a41c60,8,0,36901596.044,0.062,-192156305.435592,0.006,-891.524,45.3,1734.013,081c1c84,8,0,36901580.575,0.040,-156142662.981648,0.005,-724.461,51.2,1734.013,02a41c80,14,0,21802278.249,0.076,-113530164.726044,0.007,576.687,43.5,1734.013,081c1ca4,14,0,21802247.307,0.118,-92252446.171366,0.010,468.727,38.3,1734.013,02a41ca0,4,0,39178693.195,0.123,-204013728.793960,0.010,45.178,37.8,26.000,0c1c1cc4,4,0,39178662.063,0.119,-165777741.096505,0.010,36.630,38.1,277.000,06a41cc0,8,0,25111002.296,0.040,-131959227.020536,0.005,2437.862,48.2,1731.013,083b1c24,8,0,25110999.577,0.089,-98540982.105291,0.008,1820.493,41.8,1731.013,01931c2b,8,0,25110998.849,0.071,-101111595.770294,0.007,1867.951,44.1,1731.013,02331c20*6f85e6b9
#BESTPOSA,COM1,0,98.0,FINE,2428,95403.000,1741140,37221,18;SOL_COMPUTED,SINGLE,34.36850723165,109.22188835535,499.8001,-33.6673,WGS84,6.5425,2.4028,5.1838,"",0.000,0.000,13,13,0,4,0,06,03,53*a30d6b19
#RANGEA,COM1,0,98.0,FINE,2428,95404.000,1742140,2,18;28,12,0,24810490.540,0.093,-130380020.907581,0.008,-2903.869,41.3,183.000,08181c24,12,0,24810488.411,0.201,-101594803.011797,0.020,-2263.023,36.6,178.000,01301c2b,20,0,21587480.669,0.058,-113442976.915634,0.006,2646.634,45.8,1737.013,08181c64,20,0,21587477.669,0.114,-88397123.946505,0.010,2062.143,42.0,1647.000,01301c6b,20,0,21587481.416,0.040,-84713923.051972,0.005,1976.389,48.8,1735.013,01d01c60,15,0,23468684.027,0.063,-123328734.799018,0.006,3812.300,45.2,882.000,08181ca4,15,0,23468681.019,0.094,-96100337.809203,0.008,2970.444,43.8,599.000,01301cab,44,12,19284116.619,0.146,-103229357.603649,0.013,-5.640,35.8,10.000,08191c44,44,12,19284092.164,0.567,-80289420.492860,0.028,-4.783,32.3,1.000,00b91c4b,45,13,21458932.018,0.050,-114911632.664050,0.006,3602.900,46.8,1709.000,08191c64,45,13,21458913.729,0.053,-89375657.086398,0.006,2802.297,46.4,1710.000,00b91c6b,58,11,21634490.353,0.067,-115770566.274377,0.007,-2307.072,44.6,1088.000,08191dc4,58,11,21634472.567,0.131,-90043630.723146,0.011,-1794.390,37.1,793.000,00b91dcb,1,0,37985298.262,0.040,-197799416.564438,0.005,-4.734,52.2,1737.013,0c1c1c24,1,0,37985278.450,0.040,-160728144.074320,0.005,-3.804,49.8,1736.013,06a41c20,2,0,37908869.950,0.043,-197401431.072767,0.005,75.993,47.7,1737.013,0c1c1c44,2,0,37908837.023,0.054,-160404697.189463,0.006,61.739,46.3,1736.013,06a41c40,3,0,37125813.142,0.049,-193323847.403477,0.006,58.783,46.8,1737.013,0c1c1c64,3,0,37125784.440,0.040,-157091339.216625,0.005,47.791,50.2,1736.013,06a41c60,8,0,36901767.320,0.061,-192157197.357906,0.006,-891.576,45.4,1735.013,081c1c84,8,0,36901751.847,0.040,-156143387.742009,0.005,-724.514,50.9,1735.013,02a41c80,14,0,21802167.686,0.076,-113529588.596458,0.007,576.255,43.5,1735.013,081c1ca4,14,0,21802136.457,0.120,-92251978.029445,0.010,468.272,38.0,1735.013,02a41ca0,4,0,39178684.567,0.121,-204013683.940757,0.010,45.275,37.9,27.000,0c1c1cc4,4,0,39178653.626,0.121,-165777704.635606,0.010,36.899,37.9,278.000,06a41cc0,8,0,25110538.559,0.040,-131956789.589260,0.005,2437.683,48.2,1732.013,083b1c24,8,0,25110535.761,0.089,-98539161.945528,0.008,1820.351,41.9,1732.013,01931c2b,8,0,25110534.989,0.070,-101109728.132019,0.007,1867.816,44.2,1732.013,02331c20*859f3065
#BESTPOSA,COM1,0,98.0,FINE,2428,95404.000,1742140,38221,18;SOL_COMPUTED,SINGLE,34.36850544562,109.22188857749,499.8050,-33.6673,WGS84,6.5419,2.4029,5.1840,"",0.000,0.000,13,13,0,4,0,06,03,53*afa018d9
$command,BDSIONA ONCHANGED,response: OK*61
#RANGEA,COM1,0,98.0,FINE,2428,95405.000,1743140,2,18;28,12,0,24811043.289,0.094,-130382925.433822,0.008,-2904.309,41.3,184.000,08181c24,12,0,24811041.204,0.203,-101597066.332056,0.020,-2262.971,36.5,179.000,01301c2b,20,0,21586977.200,0.058,-113440331.194235,0.006,2645.696,45.7,1738.013,08181c64,20,0,21586974.254,0.114,-88395062.335669,0.010,2061.085,42.0,1648.000,01301c6b,20,0,21586977.960,0.040,-84711947.354395,0.005,1975.681,48.8,1736.013,01d01c60,15,0,23467958.628,0.062,-123324923.269512,0.006,3811.622,45.2,883.000,08181ca4,15,0,23467955.846,0.094,-96097367.793379,0.008,2969.974,43.7,600.000,01301cab,44,12,19284117.615,0.150,-103229364.314349,0.014,-7.071,35.5,11.000,08191c44,44,12,19284091.220,0.784,-80289415.704515,0.150,-1.162,31.3,0.000,00b9104b,45,13,21458259.394,0.050,-114908030.697714,0.006,3601.879,46.8,1710.000,08191c64,45,13,21458241.062,0.053,-89372855.559524,0.006,2801.530,46.4,1711.000,00b91c6b,58,11,21634921.460,0.068,-115772874.209157,0.007,-2307.996,44.5,1089.000,08191dc4,58,11,21634904.024,0.130,-90045425.778975,0.011,-1795.068,37.2,794.000,00b91dcb,1,0,37985299.285,0.040,-197799421.979468,0.005,-5.240,52.2,1738.013,0c1c1c24,1,0,37985279.497,0.040,-160728148.472353,0.005,-4.236,49.8,1737.013,06a41c20,2,0,37908855.493,0.042,-197401355.794079,0.005,75.479,47.8,1738.013,0c1c1c44,2,0,37908822.568,0.053,-160404636.017745,0.006,61.344,46.3,1737.013,06a41c40,3,0,37125801.959,0.049,-193323789.308544,0.006,58.306,46.9,1738.013,0c1c1c64,3,0,37125773.301,0.040,-157091292.015737,0.005,47.352,50.2,1737.013,06a41c60,8,0,36901938.749,0.060,-192158089.714216,0.006,-892.262,45.5,1736.013,081c1c84,8,0,36901923.224,0.040,-156144112.846169,0.005,-725.005,50.9,1736.013,02a41c80,14,0,21802057.301,0.076,-113529013.238946,0.007,575.279,43.5,1736.013,081c1ca4,14,0,21802025.852,0.121,-92251510.513961,0.010,467.453,38.0,1736.013,02a41ca0,4,0,39178675.950,0.120,-204013639.375884,0.010,44.738,38.0,28.000,0c1c1cc4,4,0,39178645.089,0.120,-165777668.455713,0.010,36.288,38.0,279.000,06a41cc0,8,0,25110074.965,0.040,-131954352.716569,0.005,2436.871,48.3,1733.013,083b1c24,8,0,25110072.078,0.089,-98537342.210984,0.008,1819.755,41.9,1733.013,01931c2b,8,0,25110071.267,0.070,-101107860.915327,0.007,1867.213,44.3,1733.013,02331c20*07ebc0a3
#BESTPOSA,COM1,0,98.0,FINE,2428,95405.000,1743140,39221,18;SOL_COMPUTED,SINGLE,34.36850379359,109.22188877831,499.8063,-33.6673,WGS84,6.5399,2.4020,5.1809,"",0.000,0.000,13,13,0,4,0,06,03,53*ee323dd3
#RANGEA,COM1,0,98.0,FINE,2428,95406.000,1744140,2,18;28,12,0,24811596.102,0.092,-130385830.116660,0.008,-2904.875,41.5,185.000,08181c24,12,0,24811594.007,0.205,-101599329.677924,0.021,-2262.993,36.4,180.000,01301c2b,20,0,21586473.864,0.058,-113437686.084437,0.006,2644.712,45.7,1739.013,08181c64,20,0,21586470.839,0.115,-88393001.217353,0.010,2061.368,41.8,1649.000,01301c6b,20,0,21586474.594,0.040,-84709972.109161,0.005,1974.921,48.7,1737.013,01d01c60,15,0,23467233.387,0.061,-123321112.063007,0.006,3810.937,45.3,884.000,08181ca4,15,0,23467230.592,0.094,-96094398.028848,0.008,2970.011,43.8,601.000,01301cab,44,12,19284118.942,0.152,-103229372.070583,0.014,-8.442,35.3,12.000,08191c44,44,12,19284092.537,0.243,-80289421.690952,0.024,-6.363,31.1,1.000,00b91c4b,45,13,21457586.858,0.049,-114904429.348568,0.006,3600.910,46.9,1711.000,08191c64,45,13,21457568.556,0.053,-89370054.514806,0.006,2800.740,46.4,1712.000,00b91c6b,58,11,21635352.841,0.068,-115775182.791578,0.007,-2309.010,44.5,1090.000,08191dc4,58,11,21635335.483,0.129,-90047221.327995,0.011,-1795.895,37.3,795.000,00b91dcb,1,0,37985300.354,0.040,-197799427.562285,0.005,-5.851,52.2,1739.013,0c1c1c24,1,0,37985280.568,0.040,-160728153.013698,0.005,-4.743,50.0,1738.013,06a41c20,2,0,37908841.074,0.042,-197401280.690174,0.005,74.883,47.7,1739.013,0c1c1c44,2,0,37908808.149,0.053,-160404574.992583,0.006,60.845,46.4,1738.013,06a41c40,3,0,37125790.797,0.049,-193323731.390889,0.006,57.725,46.8,1739.013,0c1c1c64,3,0,37125762.217,0.040,-157091244.952759,0.005,46.845,50.3,1738.013,06a41c60,8,0,36902110.242,0.060,-192158982.372535,0.006,-892.902,45.5,1737.013,081c1c84,8,0,36902094.681,0.040,-156144838.206060,0.005,-725.557,51.0,1737.013,02a41c80,14,0,21801946.878,0.077,-113528438.525038,0.007,574.296,43.4,1737.013,081c1ca4,14,0,21801915.361,0.120,-92251043.522805,0.010,466.529,38.0,1737.013,02a41ca0,4,0,39178667.448,0.122,-204013594.979267,0.010,44.232,37.8,29.000,0c1c1cc4,4,0,39178636.674,0.119,-165777632.367359,0.010,35.960,38.2,280.000,06a41cc0,8,0,25109611.445,0.040,-131951916.294042,0.005,2436.081,48.3,1734.013,083b1c24,8,0,25109608.490,0.088,-98535522.810376,0.008,1819.122,42.0,1734.013,01931c2b,8,0,25109607.547,0.071,-101105994.047174,0.007,1866.609,44.1,1734.013,02331c20*fd824d11
#BDSION,98,GPS,FINE,2428,95406000,0,0,18,3;1.955777406692505e-08,2.980232238769531e-08,-5.960464477539063e-07,1.013278961181641e-06,1.454080000000000e+05,-8.192000000000000e+05,6.029312000000000e+06,-4.980736000000000e+06,0*f9795677
#BESTPOSA,COM1,0,98.0,FINE,2428,95406.000,1744140,40222,18;SOL_COMPUTED,SINGLE,34.36850224402,109.22188894561,499.8168,-33.6673,WGS84,6.5405,2.4030,5.1845,"",0.000,0.000,13,13,0,4,0,06,03,53*6a24f08c